{"Marseille Roucas-Blanc": [{"Name": "Marseille Roucas-Blanc", "Country Code": "FR", "Population": 3707.0, "Lat": 43.27652, "Lon": 5.36519}], "Marseille Saint-Victor": [{"Name": "Marseille Saint-Victor", "Country Code": "FR", "Population": 6926.0, "Lat": 43.28955, "Lon": 5.36845}], "Marseille Vauban": [{"Name": "Marseille Vauban", "Country Code": "FR", "Population": 9789.0, "Lat": 43.28408, "Lon": 5.3754}], "Marseilles": [{"Name": "Marseilles", "Country Code": "US", "Population": 4963.0, "Lat": 41.33087, "Lon": -88.70813}], "Marsella": [{"Name": "Marsella", "Country Code": "CO", "Population": 15455.0, "Lat": 4.93722, "Lon": -75.73778}], "Marsens": [{"Name": "Marsens", "Country Code": "CH", "Population": 1571.0, "Lat": 46.65644, "Lon": 7.05948}], "Marsfield": [{"Name": "Marsfield", "Country Code": "AU", "Population": 13218.0, "Lat": -33.77784, "Lon": 151.10574}], "Marsh Harbour": [{"Name": "Marsh Harbour", "Country Code": "BS", "Population": 5314.0, "Lat": 26.54124, "Lon": -77.0636}], "Marshall": [{"Name": "Marshall", "Country Code": "US", "Population": 7045.0, "Lat": 42.27226, "Lon": -84.96331}, {"Name": "Marshall", "Country Code": "US", "Population": 3927.0, "Lat": 43.16833, "Lon": -89.06678}, {"Name": "Marshall", "Country Code": "US", "Population": 13039.0, "Lat": 39.12308, "Lon": -93.19687}, {"Name": "Marshall", "Country Code": "US", "Population": 1480.0, "Lat": 38.86484, "Lon": -77.85777}, {"Name": "Marshall", "Country Code": "US", "Population": 13652.0, "Lat": 44.4469, "Lon": -95.78835}, {"Name": "Marshall", "Country Code": "US", "Population": 23820.0, "Lat": 32.54487, "Lon": -94.36742}, {"Name": "Marshall", "Country Code": "US", "Population": 1300.0, "Lat": 35.90896, "Lon": -92.63127}, {"Name": "Marshall", "Country Code": "US", "Population": 3880.0, "Lat": 39.39143, "Lon": -87.69364}, {"Name": "Marshall", "Country Code": "US", "Population": 876.0, "Lat": 35.79733, "Lon": -82.68403}], "Marshallton": [{"Name": "Marshallton", "Country Code": "US", "Population": 1441.0, "Lat": 40.78675, "Lon": -76.5394}], "Marshalltown": [{"Name": "Marshalltown", "Country Code": "US", "Population": 27620.0, "Lat": 42.04943, "Lon": -92.90798}], "Marshallville": [{"Name": "Marshallville", "Country Code": "US", "Population": 1333.0, "Lat": 32.45626, "Lon": -83.94019}], "Marshfield": [{"Name": "Marshfield", "Country Code": "GB", "Population": 1441.0, "Lat": 51.46194, "Lon": -2.32}, {"Name": "Marshfield", "Country Code": "GB", "Population": 3054.0, "Lat": 51.53389, "Lon": -3.07306}, {"Name": "Marshfield", "Country Code": "US", "Population": 7138.0, "Lat": 37.33866, "Lon": -92.90712}, {"Name": "Marshfield", "Country Code": "US", "Population": 18620.0, "Lat": 44.66885, "Lon": -90.1718}, {"Name": "Marshfield", "Country Code": "US", "Population": 4335.0, "Lat": 42.09177, "Lon": -70.70559}], "Marshfield Hills": [{"Name": "Marshfield Hills", "Country Code": "US", "Population": 2356.0, "Lat": 42.14594, "Lon": -70.73976}], "Marshville": [{"Name": "Marshville", "Country Code": "US", "Population": 2638.0, "Lat": 34.98849, "Lon": -80.36701}], "Marshyntsi": [{"Name": "Marshyntsi", "Country Code": "UA", "Population": 5353.0, "Lat": 48.21191, "Lon": 26.29934}], "Marsia": [{"Name": "Marsia", "Country Code": "IT", "Population": 1014.0, "Lat": 42.8603, "Lon": 13.47619}], "Marsico Nuovo": [{"Name": "Marsico Nuovo", "Country Code": "IT", "Population": 1574.0, "Lat": 40.42359, "Lon": 15.73462}], "Marsicovetere": [{"Name": "Marsicovetere", "Country Code": "IT", "Population": 628.0, "Lat": 40.37591, "Lon": 15.82569}], "Marsillargues": [{"Name": "Marsillargues", "Country Code": "FR", "Population": 5983.0, "Lat": 43.66478, "Lon": 4.1767}], "Marsilly": [{"Name": "Marsilly", "Country Code": "FR", "Population": 2365.0, "Lat": 46.23071, "Lon": -1.13817}], "Marsing": [{"Name": "Marsing", "Country Code": "US", "Population": 1287.0, "Lat": 43.54544, "Lon": -116.8132}], "Marske-by-the-Sea": [{"Name": "Marske-by-the-Sea", "Country Code": "GB", "Population": 8282.0, "Lat": 54.59147, "Lon": -1.01959}], "Marslet": [{"Name": "M\u00e5rslet", "Country Code": "DK", "Population": 5004.0, "Lat": 56.0669, "Lon": 10.16112}], "Marssac-sur-Tarn": [{"Name": "Marssac-sur-Tarn", "Country Code": "FR", "Population": 2531.0, "Lat": 43.91768, "Lon": 2.02921}], "Marstal": [{"Name": "Marstal", "Country Code": "DK", "Population": 2120.0, "Lat": 54.85621, "Lon": 10.51726}], "Marston": [{"Name": "Marston", "Country Code": "GB", "Population": 3348.0, "Lat": 51.78051, "Lon": -1.24485}, {"Name": "Marston", "Country Code": "GB", "Population": 0.0, "Lat": 53.26667, "Lon": -2.5}, {"Name": "Marston", "Country Code": "GB", "Population": 0.0, "Lat": 51.31083, "Lon": -2.04972}], "Marston Moretaine": [{"Name": "Marston Moretaine", "Country Code": "GB", "Population": 3850.0, "Lat": 52.0641, "Lon": -0.54932}], "Marstons Mills": [{"Name": "Marstons Mills", "Country Code": "US", "Population": 8017.0, "Lat": 41.65622, "Lon": -70.41614}], "Marstow": [{"Name": "Marstow", "Country Code": "GB", "Population": 0.0, "Lat": 51.86975, "Lon": -2.65229}], "Marsum": [{"Name": "Marsum", "Country Code": "NL", "Population": 1185.0, "Lat": 53.2105, "Lon": 5.72637}], "Marsure": [{"Name": "Marsure", "Country Code": "IT", "Population": 1282.0, "Lat": 46.09403, "Lon": 12.59528}], "Marszowice": [{"Name": "Marszowice", "Country Code": "PL", "Population": 1493.0, "Lat": 51.17198, "Lon": 16.88441}], "Mart": [{"Name": "Mart", "Country Code": "US", "Population": 1910.0, "Lat": 31.54239, "Lon": -96.8336}], "Mart'q'opi": [{"Name": "Mart\u2019q\u2019opi", "Country Code": "GE", "Population": 7397.0, "Lat": 41.78733, "Lon": 45.02305}], "Mart'vili": [{"Name": "Mart\u2019vili", "Country Code": "GE", "Population": 5483.0, "Lat": 42.41436, "Lon": 42.37924}], "Marta": [{"Name": "Marta", "Country Code": "IT", "Population": 3253.0, "Lat": 42.53318, "Lon": 11.92423}], "Martaban": [{"Name": "Martaban", "Country Code": "MM", "Population": 48629.0, "Lat": 16.52834, "Lon": 97.6157}], "Martakert": [{"Name": "Martakert", "Country Code": "AZ", "Population": 10167.0, "Lat": 40.21127, "Lon": 46.82135}], "Martan-Chu": [{"Name": "Martan-Chu", "Country Code": "RU", "Population": 5385.0, "Lat": 43.06366, "Lon": 45.56217}], "Martanesh": [{"Name": "Martanesh", "Country Code": "AL", "Population": 0.0, "Lat": 41.4, "Lon": 20.2}], "Martano": [{"Name": "Martano", "Country Code": "IT", "Population": 9320.0, "Lat": 40.20205, "Lon": 18.30193}], "Martapura": [{"Name": "Martapura", "Country Code": "ID", "Population": 131449.0, "Lat": -3.4109, "Lon": 114.8642}, {"Name": "Martapura", "Country Code": "ID", "Population": 0.0, "Lat": -4.31885, "Lon": 104.34715}], "Marte": [{"Name": "Marte", "Country Code": "NG", "Population": 15707.0, "Lat": 12.36532, "Lon": 13.8293}], "Marte R. Gomez": [{"Name": "Marte R. G\u00f3mez", "Country Code": "MX", "Population": 1263.0, "Lat": 14.92653, "Lon": -92.44389}], "Marte R. Gomez (Tobarito)": [{"Name": "Marte R. G\u00f3mez (Tobarito)", "Country Code": "MX", "Population": 8700.0, "Lat": 27.36778, "Lon": -109.88583}], "Martel": [{"Name": "Martel", "Country Code": "FR", "Population": 1615.0, "Lat": 44.93667, "Lon": 1.60851}], "Martelange": [{"Name": "Martelange", "Country Code": "BE", "Population": 1440.0, "Lat": 49.83195, "Lon": 5.73655}], "Martellago": [{"Name": "Martellago", "Country Code": "IT", "Population": 7224.0, "Lat": 45.54383, "Lon": 12.16363}], "Martelli-Laganosa": [{"Name": "Martelli-Laganosa", "Country Code": "IT", "Population": 1223.0, "Lat": 38.6793, "Lon": 16.53549}], "Martensrade": [{"Name": "Martensrade", "Country Code": "DE", "Population": 1069.0, "Lat": 54.28333, "Lon": 10.4}], "Martensville": [{"Name": "Martensville", "Country Code": "CA", "Population": 9645.0, "Lat": 52.28339, "Lon": -106.66792}], "Martesti": [{"Name": "M\u00e2r\u0163e\u015fti", "Country Code": "RO", "Population": 0.0, "Lat": 44.71667, "Lon": 24.75}], "Martfeld": [{"Name": "Martfeld", "Country Code": "DE", "Population": 2867.0, "Lat": 52.87572, "Lon": 9.06081}], "Martha Lake": [{"Name": "Martha Lake", "Country Code": "US", "Population": 15473.0, "Lat": 47.85093, "Lon": -122.2393}], "Marthalen": [{"Name": "Marthalen", "Country Code": "CH", "Population": 1567.0, "Lat": 47.62913, "Lon": 8.65326}], "Martham": [{"Name": "Martham", "Country Code": "GB", "Population": 3405.0, "Lat": 52.70464, "Lon": 1.63636}], "Marthasville": [{"Name": "Marthasville", "Country Code": "US", "Population": 1152.0, "Lat": 38.62838, "Lon": -91.05764}], "Marthod": [{"Name": "Marthod", "Country Code": "FR", "Population": 1393.0, "Lat": 45.72714, "Lon": 6.40299}], "Marti": [{"Name": "Mart\u00ed", "Country Code": "CU", "Population": 13439.0, "Lat": 22.94714, "Lon": -80.91902}, {"Name": "Marti", "Country Code": "IT", "Population": 1173.0, "Lat": 43.65453, "Lon": 10.74058}], "Martiago": [{"Name": "Martiago", "Country Code": "ES", "Population": 361.0, "Lat": 40.4542, "Lon": -6.4901}], "Martignacco": [{"Name": "Martignacco", "Country Code": "IT", "Population": 5050.0, "Lat": 46.09313, "Lon": 13.13973}], "Martignana di Po": [{"Name": "Martignana di Po", "Country Code": "IT", "Population": 1864.0, "Lat": 45.01107, "Lon": 10.37978}], "Martignano": [{"Name": "Martignano", "Country Code": "IT", "Population": 1697.0, "Lat": 40.23821, "Lon": 18.25602}], "Martignas-sur-Jalle": [{"Name": "Martignas-sur-Jalle", "Country Code": "FR", "Population": 6803.0, "Lat": 44.84513, "Lon": -0.78296}], "Martignat": [{"Name": "Martignat", "Country Code": "FR", "Population": 1399.0, "Lat": 46.20972, "Lon": 5.61049}], "Martigne-Briand": [{"Name": "Martign\u00e9-Briand", "Country Code": "FR", "Population": 1883.0, "Lat": 47.23358, "Lon": -0.42933}], "Martigne-Ferchaud": [{"Name": "Martign\u00e9-Ferchaud", "Country Code": "FR", "Population": 2619.0, "Lat": 47.82918, "Lon": -1.31802}], "Martigne-sur-Mayenne": [{"Name": "Martign\u00e9-sur-Mayenne", "Country Code": "FR", "Population": 1370.0, "Lat": 48.2, "Lon": -0.66667}], "Martigny-Combe": [{"Name": "Martigny-Combe", "Country Code": "CH", "Population": 1731.0, "Lat": 46.07817, "Lon": 7.05099}], "Martigny-Ville": [{"Name": "Martigny-Ville", "Country Code": "CH", "Population": 14768.0, "Lat": 46.10276, "Lon": 7.07245}], "Martigues": [{"Name": "Martigues", "Country Code": "FR", "Population": 45749.0, "Lat": 43.40735, "Lon": 5.05526}], "Martiherrero": [{"Name": "Martiherrero", "Country Code": "ES", "Population": 202.0, "Lat": 40.67392, "Lon": -4.78156}], "Martijanec": [{"Name": "Martijanec", "Country Code": "HR", "Population": 347.0, "Lat": 46.26583, "Lon": 16.54}], "Martil": [{"Name": "Martil", "Country Code": "MA", "Population": 70274.0, "Lat": 35.61662, "Lon": -5.27522}], "Martillac": [{"Name": "Martillac", "Country Code": "FR", "Population": 2185.0, "Lat": 44.711, "Lon": -0.53747}], "Martin": [{"Name": "Martin", "Country Code": "AU", "Population": 1519.0, "Lat": -32.07549, "Lon": 116.04536}, {"Name": "Martin", "Country Code": "SK", "Population": 54618.0, "Lat": 49.06651, "Lon": 18.92399}, {"Name": "Martin", "Country Code": "US", "Population": 1061.0, "Lat": 43.1725, "Lon": -101.73265}, {"Name": "Martin", "Country Code": "US", "Population": 10959.0, "Lat": 36.3434, "Lon": -88.85034}], "Martin Miguel": [{"Name": "Mart\u00edn Miguel", "Country Code": "ES", "Population": 178.0, "Lat": 40.9522, "Lon": -4.27166}], "Martin Munoz de la Dehesa": [{"Name": "Mart\u00edn Mu\u00f1oz de la Dehesa", "Country Code": "ES", "Population": 186.0, "Lat": 41.06652, "Lon": -4.68676}], "Martin Munoz de las Posadas": [{"Name": "Mart\u00edn Mu\u00f1oz de las Posadas", "Country Code": "ES", "Population": 420.0, "Lat": 40.99546, "Lon": -4.59672}], "Martin de Yeltes": [{"Name": "Mart\u00edn de Yeltes", "Country Code": "ES", "Population": 515.0, "Lat": 40.77594, "Lon": -6.29162}], "Martin de la Jara": [{"Name": "Mart\u00edn de la Jara", "Country Code": "ES", "Population": 2783.0, "Lat": 37.10867, "Lon": -4.96347}], "Martin del Rio": [{"Name": "Mart\u00edn del R\u00edo", "Country Code": "ES", "Population": 472.0, "Lat": 40.84459, "Lon": -0.89549}], "Martin-Eglise": [{"Name": "Martin-\u00c9glise", "Country Code": "FR", "Population": 1381.0, "Lat": 49.90174, "Lon": 1.1412}], "Martina Franca": [{"Name": "Martina Franca", "Country Code": "IT", "Population": 37685.0, "Lat": 40.70355, "Lon": 17.33814}], "Martinamor": [{"Name": "Martinamor", "Country Code": "ES", "Population": 68.0, "Lat": 40.80676, "Lon": -5.59913}], "Martindale": [{"Name": "Martindale", "Country Code": "US", "Population": 1216.0, "Lat": 29.8455, "Lon": -97.84084}], "Martinengo": [{"Name": "Martinengo", "Country Code": "IT", "Population": 8922.0, "Lat": 45.57216, "Lon": 9.7675}], "Martinesti": [{"Name": "M\u0103rtine\u015fti", "Country Code": "RO", "Population": 1035.0, "Lat": 45.81667, "Lon": 23.13333}], "Martinez": [{"Name": "Mart\u00ednez", "Country Code": "ES", "Population": 187.0, "Lat": 40.63046, "Lon": -5.34801}, {"Name": "Martinez", "Country Code": "MX", "Population": 1081.0, "Lat": 22.0679, "Lon": -99.62546}, {"Name": "Martinez", "Country Code": "US", "Population": 38137.0, "Lat": 38.01937, "Lon": -122.13413}, {"Name": "Martinez", "Country Code": "US", "Population": 35795.0, "Lat": 33.51736, "Lon": -82.07567}], "Martinez Dominguez": [{"Name": "Mart\u00ednez Dom\u00ednguez", "Country Code": "MX", "Population": 1574.0, "Lat": 22.74806, "Lon": -102.48111}], "Martinez de la Torre": [{"Name": "Mart\u00ednez de la Torre", "Country Code": "MX", "Population": 60074.0, "Lat": 20.07082, "Lon": -97.06078}], "Martinhagen": [{"Name": "Martinhagen", "Country Code": "DE", "Population": 1500.0, "Lat": 51.28688, "Lon": 9.28611}], "Martinho Campos": [{"Name": "Martinho Campos", "Country Code": "BR", "Population": 9197.0, "Lat": -19.33167, "Lon": -45.23694}], "Martiniana Po": [{"Name": "Martiniana Po", "Country Code": "IT", "Population": 781.0, "Lat": 44.62723, "Lon": 7.36282}], "Martinis": [{"Name": "M\u0103rtini\u015f", "Country Code": "RO", "Population": 2968.0, "Lat": 46.23333, "Lon": 25.38333}], "Martinon": [{"Name": "Mart\u00ednon", "Country Code": "GR", "Population": 1916.0, "Lat": 38.56817, "Lon": 23.21458}], "Martinopolis": [{"Name": "Martin\u00f3polis", "Country Code": "BR", "Population": 18488.0, "Lat": -22.14583, "Lon": -51.17083}], "Martins Ferry": [{"Name": "Martins Ferry", "Country Code": "US", "Population": 6786.0, "Lat": 40.09591, "Lon": -80.72453}], "Martinsberg": [{"Name": "Martinsberg", "Country Code": "AT", "Population": 483.0, "Lat": 48.37549, "Lon": 15.14997}], "Martinsburg": [{"Name": "Martinsburg", "Country Code": "US", "Population": 17700.0, "Lat": 39.45621, "Lon": -77.96389}, {"Name": "Martinsburg", "Country Code": "US", "Population": 1911.0, "Lat": 40.31119, "Lon": -78.32418}], "Martinsheim": [{"Name": "Martinsheim", "Country Code": "DE", "Population": 1062.0, "Lat": 49.6235, "Lon": 10.14879}], "Martinshohe": [{"Name": "Martinsh\u00f6he", "Country Code": "DE", "Population": 1757.0, "Lat": 49.36667, "Lon": 7.48333}], "Martinsicuro": [{"Name": "Martinsicuro", "Country Code": "IT", "Population": 10317.0, "Lat": 42.88031, "Lon": 13.91326}], "Martinska Ves": [{"Name": "Martinska Ves", "Country Code": "HR", "Population": 540.0, "Lat": 45.58596, "Lon": 16.37042}], "Martinsville": [{"Name": "Martinsville", "Country Code": "US", "Population": 11980.0, "Lat": 40.60121, "Lon": -74.55905}, {"Name": "Martinsville", "Country Code": "US", "Population": 11690.0, "Lat": 39.42783, "Lon": -86.42833}, {"Name": "Martinsville", "Country Code": "US", "Population": 1135.0, "Lat": 39.33559, "Lon": -87.88198}, {"Name": "Martinsville", "Country Code": "US", "Population": 13645.0, "Lat": 36.69153, "Lon": -79.87254}], "Martinvast": [{"Name": "Martinvast", "Country Code": "FR", "Population": 1152.0, "Lat": 49.59608, "Lon": -1.66434}], "Martirano": [{"Name": "Martirano", "Country Code": "IT", "Population": 591.0, "Lat": 39.08119, "Lon": 16.24829}], "Martirano Lombardo": [{"Name": "Martirano Lombardo", "Country Code": "IT", "Population": 628.0, "Lat": 39.07469, "Lon": 16.232}], "Martires": [{"Name": "M\u00e1rtires", "Country Code": "AR", "Population": 1135.0, "Lat": -27.42265, "Lon": -55.37659}], "Martis": [{"Name": "Martis", "Country Code": "IT", "Population": 511.0, "Lat": 40.77804, "Lon": 8.80897}], "Martizay": [{"Name": "Martizay", "Country Code": "FR", "Population": 1062.0, "Lat": 46.80767, "Lon": 1.04324}], "Martock": [{"Name": "Martock", "Country Code": "GB", "Population": 4522.0, "Lat": 50.97361, "Lon": -2.76684}], "Martone": [{"Name": "Martone", "Country Code": "IT", "Population": 551.0, "Lat": 38.35353, "Lon": 16.288}], "Martonvasar": [{"Name": "Martonv\u00e1s\u00e1r", "Country Code": "HU", "Population": 5166.0, "Lat": 47.31601, "Lon": 18.79045}], "Martorell": [{"Name": "Martorell", "Country Code": "ES", "Population": 26681.0, "Lat": 41.47402, "Lon": 1.93062}, {"Name": "Martorell", "Country Code": "PR", "Population": 2884.0, "Lat": 18.07607, "Lon": -65.89822}], "Martos": [{"Name": "Martos", "Country Code": "ES", "Population": 24655.0, "Lat": 37.72107, "Lon": -3.97264}], "Martres-Tolosane": [{"Name": "Martres-Tolosane", "Country Code": "FR", "Population": 1927.0, "Lat": 43.19917, "Lon": 1.01104}], "Marttila": [{"Name": "Marttila", "Country Code": "FI", "Population": 2125.0, "Lat": 60.58333, "Lon": 22.9}], "Martubah": [{"Name": "Mart\u016bbah", "Country Code": "LY", "Population": 9357.0, "Lat": 32.57421, "Lon": 22.76353}], "Martuk": [{"Name": "Martuk", "Country Code": "KZ", "Population": 7756.0, "Lat": 50.74746, "Lon": 56.50611}], "Martuni": [{"Name": "Martuni", "Country Code": "AM", "Population": 11037.0, "Lat": 40.13892, "Lon": 45.30548}], "Martynivske": [{"Name": "Martynivske", "Country Code": "UA", "Population": 2654.0, "Lat": 47.47077, "Lon": 31.27731}], "Martynovo": [{"Name": "Martynovo", "Country Code": "RU", "Population": 1400.0, "Lat": 53.26667, "Lon": 85.88333}], "Martyush": [{"Name": "Martyush", "Country Code": "RU", "Population": 4110.0, "Lat": 56.4, "Lon": 61.88194}], "Maru": [{"Name": "Maru", "Country Code": "NG", "Population": 11496.0, "Lat": 12.3336, "Lon": 6.40372}, {"Name": "M\u0103ru", "Country Code": "RO", "Population": 1040.0, "Lat": 45.47586, "Lon": 22.45039}], "Marudi": [{"Name": "Marudi", "Country Code": "MY", "Population": 90100.0, "Lat": 4.18333, "Lon": 114.31667}], "Marudo": [{"Name": "Marudo", "Country Code": "IT", "Population": 1542.0, "Lat": 45.25297, "Lon": 9.37716}], "Marugame": [{"Name": "Marugame", "Country Code": "JP", "Population": 82090.0, "Lat": 34.28333, "Lon": 133.78333}], "Marugan": [{"Name": "Marug\u00e1n", "Country Code": "ES", "Population": 513.0, "Lat": 40.89943, "Lon": -4.38383}], "Maruggio": [{"Name": "Maruggio", "Country Code": "IT", "Population": 4756.0, "Lat": 40.32054, "Lon": 17.57052}], "Maruim": [{"Name": "Maruim", "Country Code": "BR", "Population": 12153.0, "Lat": -10.7375, "Lon": -37.08167}], "Marulan": [{"Name": "Marulan", "Country Code": "AU", "Population": 1162.0, "Lat": -34.70836, "Lon": 150.00966}], "Marulanda": [{"Name": "Marulanda", "Country Code": "CO", "Population": 1256.0, "Lat": 5.28393, "Lon": -75.26016}], "Marull": [{"Name": "Marull", "Country Code": "AR", "Population": 1765.0, "Lat": -30.99471, "Lon": -62.82576}], "Marum": [{"Name": "Marum", "Country Code": "NL", "Population": 5170.0, "Lat": 53.14417, "Lon": 6.2625}], "Marumori": [{"Name": "Marumori", "Country Code": "JP", "Population": 13092.0, "Lat": 37.91667, "Lon": 140.76667}], "Maruntei": [{"Name": "M\u0103run\u0163ei", "Country Code": "RO", "Population": 4397.0, "Lat": 44.2, "Lon": 24.46667}], "Maruntisu": [{"Name": "M\u0103run\u021bi\u0219u", "Country Code": "RO", "Population": 1156.0, "Lat": 45.2861, "Lon": 26.35421}], "Maruoka": [{"Name": "Maruoka", "Country Code": "JP", "Population": 33563.0, "Lat": 36.1534, "Lon": 136.27029}], "Marupe": [{"Name": "M\u0101rupe", "Country Code": "LV", "Population": 0.0, "Lat": 56.90544, "Lon": 24.05113}], "Marupit": [{"Name": "Marupit", "Country Code": "PH", "Population": 3837.0, "Lat": 13.6269, "Lon": 123.1663}], "Marusevec": [{"Name": "Maru\u0161evec", "Country Code": "HR", "Population": 391.0, "Lat": 46.28319, "Lon": 16.18503}], "Marvao": [{"Name": "Marv\u00e3o", "Country Code": "PT", "Population": 3739.0, "Lat": 39.39377, "Lon": -7.37663}], "Marvdasht": [{"Name": "Marvdasht", "Country Code": "IR", "Population": 148858.0, "Lat": 29.8742, "Lon": 52.8025}], "Marvejols": [{"Name": "Marvejols", "Country Code": "FR", "Population": 6086.0, "Lat": 44.55435, "Lon": 3.29041}], "Marvell": [{"Name": "Marvell", "Country Code": "US", "Population": 1047.0, "Lat": 34.55566, "Lon": -90.91289}], "Marvin": [{"Name": "Marvin", "Country Code": "US", "Population": 6181.0, "Lat": 34.99182, "Lon": -80.81479}], "Marxen": [{"Name": "Marxen", "Country Code": "DE", "Population": 1251.0, "Lat": 53.31211, "Lon": 10.00415}], "Marxheim": [{"Name": "Marxheim", "Country Code": "DE", "Population": 2574.0, "Lat": 48.74153, "Lon": 10.94504}], "Mary": [{"Name": "Mary", "Country Code": "TM", "Population": 114680.0, "Lat": 37.59378, "Lon": 61.83031}], "Mary Esther": [{"Name": "Mary Esther", "Country Code": "US", "Population": 4238.0, "Lat": 30.41015, "Lon": -86.66509}], "Mary-sur-Marne": [{"Name": "Mary-sur-Marne", "Country Code": "FR", "Population": 1266.0, "Lat": 49.01591, "Lon": 3.02788}], "Maryanivka": [{"Name": "Maryanivka", "Country Code": "UA", "Population": 1301.0, "Lat": 47.44371, "Lon": 30.15011}], "Marybank": [{"Name": "Marybank", "Country Code": "NZ", "Population": 1100.0, "Lat": -41.2276, "Lon": 173.32147}], "Maryborough": [{"Name": "Maryborough", "Country Code": "AU", "Population": 15479.0, "Lat": -25.54073, "Lon": 152.70493}, {"Name": "Maryborough", "Country Code": "AU", "Population": 7830.0, "Lat": -37.04562, "Lon": 143.73923}], "Maryburgh": [{"Name": "Maryburgh", "Country Code": "GB", "Population": 1180.0, "Lat": 57.5742, "Lon": -4.44178}], "Maryevka": [{"Name": "Maryevka", "Country Code": "UA", "Population": 591.0, "Lat": 45.1133, "Lon": 36.23992}], "Maryhill": [{"Name": "Maryhill", "Country Code": "NZ", "Population": 2420.0, "Lat": -45.87838, "Lon": 170.4801}], "Maryland": [{"Name": "Maryland", "Country Code": "AU", "Population": 7502.0, "Lat": -32.87888, "Lon": 151.66143}], "Maryland City": [{"Name": "Maryland City", "Country Code": "US", "Population": 16093.0, "Lat": 39.09205, "Lon": -76.81775}], "Maryland Heights": [{"Name": "Maryland Heights", "Country Code": "US", "Population": 27389.0, "Lat": 38.71311, "Lon": -90.42984}], "Marynivka": [{"Name": "Marynivka", "Country Code": "UA", "Population": 2450.0, "Lat": 47.77597, "Lon": 30.88745}], "Maryport": [{"Name": "Maryport", "Country Code": "GB", "Population": 9555.0, "Lat": 54.71434, "Lon": -3.49509}], "Marystown": [{"Name": "Marystown", "Country Code": "CA", "Population": 2697.0, "Lat": 47.16663, "Lon": -55.14829}], "Marysville": [{"Name": "Marysville", "Country Code": "US", "Population": 66773.0, "Lat": 48.05176, "Lon": -122.17708}, {"Name": "Marysville", "Country Code": "US", "Population": 9757.0, "Lat": 42.91253, "Lon": -82.48686}, {"Name": "Marysville", "Country Code": "US", "Population": 3323.0, "Lat": 39.84111, "Lon": -96.64724}, {"Name": "Marysville", "Country Code": "US", "Population": 12216.0, "Lat": 39.14573, "Lon": -121.59135}, {"Name": "Marysville", "Country Code": "US", "Population": 2535.0, "Lat": 40.34259, "Lon": -76.92997}, {"Name": "Marysville", "Country Code": "US", "Population": 22817.0, "Lat": 40.23645, "Lon": -83.36714}], "Maryvale": [{"Name": "Maryvale", "Country Code": "US", "Population": 208189.0, "Lat": 33.50199, "Lon": -112.17765}], "Maryville": [{"Name": "Maryville", "Country Code": "AU", "Population": 1409.0, "Lat": -32.91121, "Lon": 151.75543}, {"Name": "Maryville", "Country Code": "US", "Population": 7902.0, "Lat": 38.72366, "Lon": -89.95593}, {"Name": "Maryville", "Country Code": "US", "Population": 28464.0, "Lat": 35.75647, "Lon": -83.97046}, {"Name": "Maryville", "Country Code": "US", "Population": 11879.0, "Lat": 40.3461, "Lon": -94.87247}], "Marz": [{"Name": "Marz", "Country Code": "AT", "Population": 2073.0, "Lat": 47.71667, "Lon": 16.41667}], "Marzabotto": [{"Name": "Marzabotto", "Country Code": "IT", "Population": 1698.0, "Lat": 44.34297, "Lon": 11.20593}], "Marzahn": [{"Name": "Marzahn", "Country Code": "DE", "Population": 111508.0, "Lat": 52.54525, "Lon": 13.56983}], "Marzales": [{"Name": "Marzales", "Country Code": "ES", "Population": 63.0, "Lat": 41.58644, "Lon": -5.13455}], "Marzan": [{"Name": "Marzan", "Country Code": "FR", "Population": 1806.0, "Lat": 47.54104, "Lon": -2.32416}], "Marzanello": [{"Name": "Marzanello", "Country Code": "IT", "Population": 3012.0, "Lat": 41.31447, "Lon": 14.11611}], "Marzanesti": [{"Name": "M\u00e2rz\u0103ne\u015fti", "Country Code": "RO", "Population": 4326.0, "Lat": 43.93333, "Lon": 25.46667}], "Marzano": [{"Name": "Marzano", "Country Code": "IT", "Population": 778.0, "Lat": 45.24797, "Lon": 9.29505}, {"Name": "Marzano Appio", "Country Code": "IT", "Population": 3087.0, "Lat": 41.31772, "Lon": 14.04502}], "Marzano di Nola": [{"Name": "Marzano di Nola", "Country Code": "IT", "Population": 1647.0, "Lat": 40.90141, "Lon": 14.58359}], "Marzi": [{"Name": "Marzi", "Country Code": "IT", "Population": 818.0, "Lat": 39.17063, "Lon": 16.30705}], "Marzio": [{"Name": "Marzio", "Country Code": "IT", "Population": 290.0, "Lat": 45.93818, "Lon": 8.85813}], "Marzling": [{"Name": "Marzling", "Country Code": "DE", "Population": 2899.0, "Lat": 48.40904, "Lon": 11.79382}], "Marzy": [{"Name": "Marzy", "Country Code": "FR", "Population": 3245.0, "Lat": 46.98125, "Lon": 3.09352}], "Mas de Barberans": [{"Name": "Mas de Barberans", "Country Code": "ES", "Population": 678.0, "Lat": 40.73333, "Lon": 0.36667}], "Mas de las Matas": [{"Name": "Mas de las Matas", "Country Code": "ES", "Population": 1442.0, "Lat": 40.83408, "Lon": -0.24292}], "Mas'adah": [{"Name": "Mas\u2018adah", "Country Code": "SY", "Population": 0.0, "Lat": 33.23203, "Lon": 35.75572}], "Masaba": [{"Name": "Masaba", "Country Code": "PH", "Population": 2456.0, "Lat": 10.53333, "Lon": 123.96667}], "Masachapa": [{"Name": "Masachapa", "Country Code": "NI", "Population": 5000.0, "Lat": 11.78687, "Lon": -86.51416}], "Masagua": [{"Name": "Masagua", "Country Code": "GT", "Population": 45323.0, "Lat": 14.20306, "Lon": -90.84806}], "Masaguisi": [{"Name": "Masaguisi", "Country Code": "PH", "Population": 2481.0, "Lat": 12.75452, "Lon": 121.44841}], "Masainas": [{"Name": "Masainas", "Country Code": "IT", "Population": 882.0, "Lat": 39.04993, "Lon": 8.62924}], "Masaka": [{"Name": "Masaka", "Country Code": "SL", "Population": 3219.0, "Lat": 8.66492, "Lon": -11.8026}, {"Name": "Masaka", "Country Code": "UG", "Population": 65373.0, "Lat": -0.33379, "Lon": 31.73409}], "Masakhane": [{"Name": "Masakhane", "Country Code": "ZA", "Population": 4811.0, "Lat": -25.95354, "Lon": 29.33068}], "Masaki-cho": [{"Name": "Masaki-ch\u014d", "Country Code": "JP", "Population": 30548.0, "Lat": 33.78757, "Lon": 132.71124}], "Masal": [{"Name": "M\u0101s\u0101l", "Country Code": "IR", "Population": 0.0, "Lat": 37.3631, "Lon": 49.1329}], "Masalani": [{"Name": "Masalani", "Country Code": "KE", "Population": 43642.0, "Lat": -1.69746, "Lon": 40.12186}], "Masalaves": [{"Name": "Masalav\u00e9s", "Country Code": "ES", "Population": 1535.0, "Lat": 39.14377, "Lon": -0.5226}], "Masaling": [{"Name": "Masaling", "Country Code": "PH", "Population": 3829.0, "Lat": 9.9818, "Lon": 122.5369}], "Masalipit": [{"Name": "Masalipit", "Country Code": "PH", "Population": 2532.0, "Lat": 15.1481, "Lon": 121.0373}], "Masally": [{"Name": "Masally", "Country Code": "AZ", "Population": 9604.0, "Lat": 39.03532, "Lon": 48.6654}], "Masalovka": [{"Name": "Masalovka", "Country Code": "RU", "Population": 8948.0, "Lat": 48.40372, "Lon": 40.26064}], "Masalukot Uno": [{"Name": "Masalukot Uno", "Country Code": "PH", "Population": 10667.0, "Lat": 13.95533, "Lon": 121.41887}], "Masamba": [{"Name": "Masamba", "Country Code": "ID", "Population": 38024.0, "Lat": -2.5537, "Lon": 120.3279}], "Masan": [{"Name": "Masan", "Country Code": "KR", "Population": 434371.0, "Lat": 35.12725, "Lon": 126.83149}], "Masantol": [{"Name": "Masantol", "Country Code": "PH", "Population": 41278.0, "Lat": 14.896, "Lon": 120.7092}], "Masapang": [{"Name": "Masapang", "Country Code": "PH", "Population": 4580.0, "Lat": 14.1971, "Lon": 121.3423}], "Masarac": [{"Name": "Masarac", "Country Code": "ES", "Population": 0.0, "Lat": 42.3509, "Lon": 2.97296}], "Masaraway": [{"Name": "Masaraway", "Country Code": "PH", "Population": 3725.0, "Lat": 13.2268, "Lon": 123.6148}], "Masarayao": [{"Name": "Masarayao", "Country Code": "PH", "Population": 2085.0, "Lat": 11.08972, "Lon": 124.6175}], "Masaryktown": [{"Name": "Masaryktown", "Country Code": "US", "Population": 1040.0, "Lat": 28.44167, "Lon": -82.45704}], "Masasi": [{"Name": "Masasi", "Country Code": "TZ", "Population": 36032.0, "Lat": -10.71667, "Lon": 38.8}], "Masat": [{"Name": "Masat", "Country Code": "ID", "Population": 0.0, "Lat": -4.38057, "Lon": 102.95437}], "Masate": [{"Name": "Masate", "Country Code": "IT", "Population": 3295.0, "Lat": 45.56708, "Lon": 9.46415}], "Masatepe": [{"Name": "Masatepe", "Country Code": "NI", "Population": 21452.0, "Lat": 11.91445, "Lon": -86.14458}], "Masaurhi Buzurg": [{"Name": "Masaurhi Buzurg", "Country Code": "IN", "Population": 53440.0, "Lat": 25.35417, "Lon": 85.03195}], "Masaya": [{"Name": "Masaya", "Country Code": "NI", "Population": 130113.0, "Lat": 11.97444, "Lon": -86.09417}, {"Name": "Masaya", "Country Code": "PH", "Population": 7587.0, "Lat": 14.15189, "Lon": 121.2819}], "Masaya Sur": [{"Name": "Masaya Sur", "Country Code": "PH", "Population": 5523.0, "Lat": 16.50017, "Lon": 121.74743}], "Masbagik": [{"Name": "Masbagik", "Country Code": "ID", "Population": 0.0, "Lat": -8.622, "Lon": 116.4773}], "Masbate": [{"Name": "Masbate", "Country Code": "PH", "Population": 47490.0, "Lat": 12.37169, "Lon": 123.62494}], "Masburg": [{"Name": "Masburg", "Country Code": "DE", "Population": 1037.0, "Lat": 50.24065, "Lon": 7.11736}], "Masca": [{"Name": "M\u00e2sca", "Country Code": "RO", "Population": 3498.0, "Lat": 46.3, "Lon": 21.68333}], "Mascali": [{"Name": "Mascali", "Country Code": "IT", "Population": 9377.0, "Lat": 37.75794, "Lon": 15.19662}], "Mascalucia": [{"Name": "Mascalucia", "Country Code": "IT", "Population": 32179.0, "Lat": 37.57465, "Lon": 15.04964}], "Mascara": [{"Name": "Mascara", "Country Code": "DZ", "Population": 108629.0, "Lat": 35.39664, "Lon": 0.14027}], "Mascaraque": [{"Name": "Mascaraque", "Country Code": "ES", "Population": 475.0, "Lat": 39.71643, "Lon": -3.81254}], "Mascherode": [{"Name": "Mascherode", "Country Code": "DE", "Population": 3851.0, "Lat": 52.22338, "Lon": 10.56653}], "Maschito": [{"Name": "Maschito", "Country Code": "IT", "Population": 1611.0, "Lat": 40.90892, "Lon": 15.82946}], "Masciago Primo": [{"Name": "Masciago Primo", "Country Code": "IT", "Population": 244.0, "Lat": 45.91778, "Lon": 8.78113}], "Mascot": [{"Name": "Mascot", "Country Code": "AU", "Population": 15985.0, "Lat": -33.92598, "Lon": 151.19347}, {"Name": "Mascot", "Country Code": "US", "Population": 2411.0, "Lat": 36.0612, "Lon": -83.74573}], "Mascota": [{"Name": "Mascota", "Country Code": "MX", "Population": 8801.0, "Lat": 20.52613, "Lon": -104.78781}], "Mascote": [{"Name": "Mascote", "Country Code": "BR", "Population": 18863.0, "Lat": -15.56306, "Lon": -39.3025}], "Mascotte": [{"Name": "Mascotte", "Country Code": "US", "Population": 5473.0, "Lat": 28.57833, "Lon": -81.88675}], "Mascouche": [{"Name": "Mascouche", "Country Code": "CA", "Population": 34626.0, "Lat": 45.74965, "Lon": -73.59956}], "Mascoutah": [{"Name": "Mascoutah", "Country Code": "US", "Population": 7975.0, "Lat": 38.49033, "Lon": -89.79315}], "Masdenverge": [{"Name": "Masdenverge", "Country Code": "ES", "Population": 1014.0, "Lat": 40.716, "Lon": 0.53009}], "Masegosa": [{"Name": "Masegosa", "Country Code": "ES", "Population": 116.0, "Lat": 40.54689, "Lon": -2.02588}], "Masegoso": [{"Name": "Masegoso", "Country Code": "ES", "Population": 127.0, "Lat": 38.71833, "Lon": -2.3161}], "Masegoso de Tajuna": [{"Name": "Masegoso de Taju\u00f1a", "Country Code": "ES", "Population": 95.0, "Lat": 40.82552, "Lon": -2.69532}], "Maselheim": [{"Name": "Maselheim", "Country Code": "DE", "Population": 4534.0, "Lat": 48.13333, "Lon": 9.88333}], "Maseno": [{"Name": "Maseno", "Country Code": "KE", "Population": 6771.0, "Lat": -0.00661, "Lon": 34.60004}], "Maser": [{"Name": "Maser", "Country Code": "IT", "Population": 1498.0, "Lat": 45.8074, "Lon": 11.975}], "Masera": [{"Name": "Masera", "Country Code": "IT", "Population": 1349.0, "Lat": 46.13888, "Lon": 8.32526}], "Masera di Padova": [{"Name": "Maser\u00e0 di Padova", "Country Code": "IT", "Population": 5383.0, "Lat": 45.31827, "Lon": 11.86543}], "Maserada sul Piave": [{"Name": "Maserada sul Piave", "Country Code": "IT", "Population": 4181.0, "Lat": 45.75195, "Lon": 12.31773}], "Maseru": [{"Name": "Maseru", "Country Code": "LS", "Population": 359753.0, "Lat": -29.31667, "Lon": 27.48333}], "Masevaux": [{"Name": "Masevaux", "Country Code": "FR", "Population": 3475.0, "Lat": 47.77671, "Lon": 6.99683}], "Masfjorden": [{"Name": "Masfjorden", "Country Code": "NO", "Population": 0.0, "Lat": 60.79887, "Lon": 5.30418}], "Masfut": [{"Name": "Ma\u015ff\u016b\u0163", "Country Code": "AE", "Population": 8988.0, "Lat": 24.81089, "Lon": 56.10657}], "Mash'en": [{"Name": "Mash\u2018\u00e9n", "Country Code": "IL", "Population": 1064.0, "Lat": 31.65791, "Lon": 34.62309}], "Mashah": [{"Name": "Mas\u1e29ah", "Country Code": "PS", "Population": 1982.0, "Lat": 32.10828, "Lon": 35.05096}], "Masham": [{"Name": "Masham", "Country Code": "GB", "Population": 1205.0, "Lat": 54.2227, "Lon": -1.65718}], "Mashan": [{"Name": "Mashan", "Country Code": "CN", "Population": 0.0, "Lat": 23.71118, "Lon": 108.17359}, {"Name": "Mashan", "Country Code": "CN", "Population": 0.0, "Lat": 45.20612, "Lon": 130.53049}], "Mashava": [{"Name": "Mashava", "Country Code": "ZW", "Population": 12994.0, "Lat": -20.03665, "Lon": 30.48225}], "Mashegu": [{"Name": "Mashegu", "Country Code": "NG", "Population": 0.0, "Lat": 9.97213, "Lon": 5.77886}], "Mashhad": [{"Name": "Mashhad", "Country Code": "AF", "Population": 0.0, "Lat": 36.81665, "Lon": 70.10211}, {"Name": "Mashhad", "Country Code": "IR", "Population": 2307177.0, "Lat": 36.29807, "Lon": 59.60567}], "Mashi": [{"Name": "Mashi", "Country Code": "NG", "Population": 7845.0, "Lat": 12.98044, "Lon": 7.94703}], "Mashike": [{"Name": "Mashike", "Country Code": "JP", "Population": 4634.0, "Lat": 43.85194, "Lon": 141.52139}], "Mashiko": [{"Name": "Mashiko", "Country Code": "JP", "Population": 26045.0, "Lat": 36.46667, "Lon": 140.1}], "Mashivka": [{"Name": "Mashivka", "Country Code": "UA", "Population": 3721.0, "Lat": 49.44407, "Lon": 34.87157}], "Mashpee": [{"Name": "Mashpee", "Country Code": "US", "Population": 14834.0, "Lat": 41.64844, "Lon": -70.48114}], "Mashta al Hulw": [{"Name": "Masht\u00e1 al \u1e28ulw", "Country Code": "SY", "Population": 0.0, "Lat": 34.87462, "Lon": 36.25099}], "Mashtul as Suq": [{"Name": "Masht\u016bl as S\u016bq", "Country Code": "EG", "Population": 75837.0, "Lat": 30.36056, "Lon": 31.3776}], "Masi": [{"Name": "Masi", "Country Code": "IT", "Population": 1036.0, "Lat": 45.10888, "Lon": 11.48921}], "Masi-Manimba": [{"Name": "Masi-Manimba", "Country Code": "CD", "Population": 45775.0, "Lat": -4.77549, "Lon": 17.89095}], "Masi-Torello": [{"Name": "Masi-Torello", "Country Code": "IT", "Population": 1303.0, "Lat": 44.79458, "Lon": 11.80182}], "Masiaca": [{"Name": "Masiaca", "Country Code": "MX", "Population": 1514.0, "Lat": 26.76427, "Lon": -109.23496}], "Maside": [{"Name": "Maside", "Country Code": "ES", "Population": 3081.0, "Lat": 42.41031, "Lon": -8.02582}], "Masiga": [{"Name": "Masiga", "Country Code": "PH", "Population": 2668.0, "Lat": 13.3607, "Lon": 121.8278}], "Masii": [{"Name": "Masii", "Country Code": "KE", "Population": 3653.0, "Lat": -1.46127, "Lon": 37.43849}], "Masila": [{"Name": "Masila", "Country Code": "IN", "Population": 11461.0, "Lat": 22.58083, "Lon": 88.23278}], "Masina": [{"Name": "Masina", "Country Code": "CD", "Population": 485167.0, "Lat": -4.38361, "Lon": 15.39139}], "Masindi": [{"Name": "Masindi", "Country Code": "UG", "Population": 31486.0, "Lat": 1.67444, "Lon": 31.715}], "Masindi Port": [{"Name": "Masindi Port", "Country Code": "UG", "Population": 7828.0, "Lat": 1.69606, "Lon": 32.08608}], "Masingbi": [{"Name": "Masingbi", "Country Code": "SL", "Population": 5644.0, "Lat": 8.78197, "Lon": -11.95171}], "Masinigudi": [{"Name": "Masinigudi", "Country Code": "IN", "Population": 9642.0, "Lat": 11.56831, "Lon": 76.64087}], "Masinloc": [{"Name": "Masinloc", "Country Code": "PH", "Population": 28041.0, "Lat": 15.5363, "Lon": 119.9502}], "Masio": [{"Name": "Masio", "Country Code": "IT", "Population": 612.0, "Lat": 44.86965, "Lon": 8.40774}], "Masipi West": [{"Name": "Masipi West", "Country Code": "PH", "Population": 3086.0, "Lat": 17.37933, "Lon": 121.83861}], "Masiri": [{"Name": "Ma\u015f\u012br\u012b", "Country Code": "IR", "Population": 0.0, "Lat": 30.24493, "Lon": 51.52158}], "Masis": [{"Name": "Masis", "Country Code": "AM", "Population": 18911.0, "Lat": 40.06572, "Lon": 44.41913}], "Masisea": [{"Name": "Masisea", "Country Code": "PE", "Population": 0.0, "Lat": -8.60528, "Lon": -74.30472}], "Masiu": [{"Name": "Masiu", "Country Code": "PH", "Population": 0.0, "Lat": 7.81167, "Lon": 124.3175}], "Masjed Soleyman": [{"Name": "Masjed Soleym\u0101n", "Country Code": "IR", "Population": 111510.0, "Lat": 31.9364, "Lon": 49.3039}], "Maskanah": [{"Name": "Maskanah", "Country Code": "SY", "Population": 0.0, "Lat": 35.96577, "Lon": 38.04165}], "Maskinonge": [{"Name": "Maskinong\u00e9", "Country Code": "CA", "Population": 1105.0, "Lat": 46.2286, "Lon": -73.01917}], "Masku": [{"Name": "Masku", "Country Code": "FI", "Population": 5974.0, "Lat": 60.57082, "Lon": 22.09883}], "Maslianico": [{"Name": "Maslianico", "Country Code": "IT", "Population": 3305.0, "Lat": 45.84301, "Lon": 9.04836}], "Maslice Male": [{"Name": "Ma\u015blice Ma\u0142e", "Country Code": "PL", "Population": 6602.0, "Lat": 51.14937, "Lon": 16.94191}], "Maslice Wielkie": [{"Name": "Ma\u015blice Wielkie", "Country Code": "PL", "Population": 3469.0, "Lat": 51.16333, "Lon": 16.92837}], "Maslin Beach": [{"Name": "Maslin Beach", "Country Code": "AU", "Population": 1115.0, "Lat": -35.22595, "Lon": 138.47984}], "Masloc": [{"Name": "Ma\u015floc", "Country Code": "RO", "Population": 3935.0, "Lat": 45.99806, "Lon": 21.44972}], "Maslog": [{"Name": "Maslog", "Country Code": "PH", "Population": 4781.0, "Lat": 12.15, "Lon": 125.23333}, {"Name": "Maslog", "Country Code": "PH", "Population": 3641.0, "Lat": 13.1046, "Lon": 123.7713}], "Maslova Pristan'": [{"Name": "Maslova Pristan\u2019", "Country Code": "RU", "Population": 5669.0, "Lat": 50.45758, "Lon": 36.72038}], "Maslovare": [{"Name": "Maslovare", "Country Code": "BA", "Population": 4899.0, "Lat": 44.56594, "Lon": 17.53216}], "Maslovka": [{"Name": "Maslovka", "Country Code": "RU", "Population": 7518.0, "Lat": 51.5502, "Lon": 39.2447}], "Maslovo": [{"Name": "Maslovo", "Country Code": "UA", "Population": 2222.0, "Lat": 45.79197, "Lon": 34.36298}], "Maslow": [{"Name": "Mas\u0142\u00f3w", "Country Code": "PL", "Population": 1528.0, "Lat": 50.90065, "Lon": 20.72322}], "Maslyanino": [{"Name": "Maslyanino", "Country Code": "RU", "Population": 13000.0, "Lat": 54.34361, "Lon": 84.21111}], "Masma": [{"Name": "Masma", "Country Code": "PE", "Population": 785.0, "Lat": -11.78692, "Lon": -75.42899}], "Masma Chicche": [{"Name": "Masma Chicche", "Country Code": "PE", "Population": 354.0, "Lat": -11.78593, "Lon": -75.37849}], "Masmambang": [{"Name": "Masmambang", "Country Code": "ID", "Population": 0.0, "Lat": -4.16418, "Lon": 102.70045}], "Masnieres": [{"Name": "Masni\u00e8res", "Country Code": "FR", "Population": 2593.0, "Lat": 50.11489, "Lon": 3.20889}], "Masnuy-Saint-Jean": [{"Name": "Masnuy-Saint-Jean", "Country Code": "BE", "Population": 2663.0, "Lat": 50.53209, "Lon": 3.94032}], "Masny": [{"Name": "Masny", "Country Code": "FR", "Population": 4663.0, "Lat": 50.34797, "Lon": 3.20165}], "Masohi": [{"Name": "Masohi", "Country Code": "ID", "Population": 36433.0, "Lat": -3.29833, "Lon": 128.96882}], "Masoko": [{"Name": "Masoko", "Country Code": "TZ", "Population": 12720.0, "Lat": -9.33333, "Lon": 33.75}], "Masoli": [{"Name": "Masoli", "Country Code": "PH", "Population": 2601.0, "Lat": 13.3593, "Lon": 123.3898}], "Mason": [{"Name": "Mason", "Country Code": "US", "Population": 1597.0, "Lat": 35.41175, "Lon": -89.53285}, {"Name": "Mason", "Country Code": "US", "Population": 2139.0, "Lat": 30.74879, "Lon": -99.23061}, {"Name": "Mason", "Country Code": "US", "Population": 32662.0, "Lat": 39.36006, "Lon": -84.30994}, {"Name": "Mason", "Country Code": "US", "Population": 8427.0, "Lat": 42.5792, "Lon": -84.44358}, {"Name": "Mason", "Country Code": "US", "Population": 1222.0, "Lat": 42.7437, "Lon": -71.76896}], "Mason City": [{"Name": "Mason City", "Country Code": "US", "Population": 27366.0, "Lat": 43.15357, "Lon": -93.20104}, {"Name": "Mason City", "Country Code": "US", "Population": 2180.0, "Lat": 40.20227, "Lon": -89.69816}], "Mason Vicentino": [{"Name": "Mason Vicentino", "Country Code": "IT", "Population": 1706.0, "Lat": 45.7186, "Lon": 11.6068}], "Masonboro": [{"Name": "Masonboro", "Country Code": "US", "Population": 14826.0, "Lat": 34.17934, "Lon": -77.84748}], "Masone": [{"Name": "Masone", "Country Code": "IT", "Population": 3316.0, "Lat": 44.50162, "Lon": 8.71891}], "Masonogan": [{"Name": "Masonogan", "Country Code": "PH", "Population": 2564.0, "Lat": 11.3686, "Lon": 122.6753}], "Masons Bay": [{"Name": "Masons Bay", "Country Code": "BS", "Population": 0.0, "Lat": 22.54352, "Lon": -73.8778}], "Masontown": [{"Name": "Masontown", "Country Code": "US", "Population": 3399.0, "Lat": 39.84674, "Lon": -79.89978}], "Masonville": [{"Name": "Masonville", "Country Code": "US", "Population": 1014.0, "Lat": 37.67505, "Lon": -87.03472}], "Masoyila": [{"Name": "Masoyila", "Country Code": "SL", "Population": 3658.0, "Lat": 8.61119, "Lon": -13.19101}], "Maspalomas": [{"Name": "Maspalomas", "Country Code": "ES", "Population": 36065.0, "Lat": 27.76056, "Lon": -15.58602}], "Masparrito": [{"Name": "Masparrito", "Country Code": "VE", "Population": 0.0, "Lat": 9.00194, "Lon": -70.30139}], "Maspeth": [{"Name": "Maspeth", "Country Code": "US", "Population": 48325.0, "Lat": 40.72316, "Lon": -73.91264}], "Masquefa": [{"Name": "Masquefa", "Country Code": "ES", "Population": 7150.0, "Lat": 41.50353, "Lon": 1.81136}], "Massa": [{"Name": "Massa", "Country Code": "IT", "Population": 64783.0, "Lat": 44.03541, "Lon": 10.13927}, {"Name": "Massa", "Country Code": "IT", "Population": 681.0, "Lat": 43.18803, "Lon": 12.93142}, {"Name": "Massa", "Country Code": "IT", "Population": 350.0, "Lat": 43.90925, "Lon": 10.74441}], "Massa Fermana": [{"Name": "Massa Fermana", "Country Code": "IT", "Population": 544.0, "Lat": 43.14691, "Lon": 13.47597}], "Massa Finalese": [{"Name": "Massa Finalese", "Country Code": "IT", "Population": 4185.0, "Lat": 44.8524, "Lon": 11.21429}], "Massa Fiscaglia": [{"Name": "Massa Fiscaglia", "Country Code": "IT", "Population": 3819.0, "Lat": 44.80983, "Lon": 12.00746}], "Massa Lombarda": [{"Name": "Massa Lombarda", "Country Code": "IT", "Population": 9253.0, "Lat": 44.44703, "Lon": 11.82095}], "Massa Lubrense": [{"Name": "Massa Lubrense", "Country Code": "IT", "Population": 10192.0, "Lat": 40.60937, "Lon": 14.37202}], "Massa Marittima": [{"Name": "Massa Marittima", "Country Code": "IT", "Population": 5707.0, "Lat": 43.04779, "Lon": 10.89293}], "Massa Martana": [{"Name": "Massa Martana", "Country Code": "IT", "Population": 1221.0, "Lat": 42.77312, "Lon": 12.52579}], "Massa d'Albe-Corona": [{"Name": "Massa d'Albe-Corona", "Country Code": "IT", "Population": 599.0, "Lat": 42.10723, "Lon": 13.39429}], "Massa di Somma": [{"Name": "Massa di Somma", "Country Code": "IT", "Population": 5573.0, "Lat": 40.84551, "Lon": 14.37513}], "Massac": [{"Name": "Massac", "Country Code": "US", "Population": 4505.0, "Lat": 37.029, "Lon": -88.686}], "Massadougou": [{"Name": "Massadougou", "Country Code": "CI", "Population": 4473.0, "Lat": 8.29918, "Lon": -3.9215}], "Massafonwavogo-Fapaha": [{"Name": "Massafonwavogo-Fapaha", "Country Code": "CI", "Population": 3423.0, "Lat": 9.48584, "Lon": -5.85458}], "Massafra": [{"Name": "Massafra", "Country Code": "IT", "Population": 30875.0, "Lat": 40.58618, "Lon": 17.11635}], "Massagno": [{"Name": "Massagno", "Country Code": "CH", "Population": 5774.0, "Lat": 46.01257, "Lon": 8.94354}], "Massaguet": [{"Name": "Massaguet", "Country Code": "TD", "Population": 28401.0, "Lat": 12.47554, "Lon": 15.43647}], "Massah": [{"Name": "Massah", "Country Code": "LY", "Population": 7831.0, "Lat": 32.75249, "Lon": 21.62807}], "Massakory": [{"Name": "Massakory", "Country Code": "TD", "Population": 39944.0, "Lat": 12.99809, "Lon": 15.73195}], "Massala": [{"Name": "Massala", "Country Code": "CI", "Population": 4130.0, "Lat": 7.89888, "Lon": -6.43716}], "Massala-Assolo": [{"Name": "Massala-Assolo", "Country Code": "CI", "Population": 2275.0, "Lat": 8.15007, "Lon": -6.65528}], "Massala-Gouran": [{"Name": "Massala-Gouran", "Country Code": "CI", "Population": 1087.0, "Lat": 7.9219, "Lon": -7.02466}], "Massalengo-Motta Vigana": [{"Name": "Massalengo-Motta Vigana", "Country Code": "IT", "Population": 4004.0, "Lat": 45.26497, "Lon": 9.49016}], "Massama": [{"Name": "Massam\u00e1", "Country Code": "PT", "Population": 28112.0, "Lat": 38.75279, "Lon": -9.2811}], "Massamagrell": [{"Name": "Massamagrell", "Country Code": "ES", "Population": 15210.0, "Lat": 39.56667, "Lon": -0.33333}], "Massandji": [{"Name": "Massandji", "Country Code": "CI", "Population": 1713.0, "Lat": 6.02512, "Lon": -3.8165}], "Massandra": [{"Name": "Massandra", "Country Code": "UA", "Population": 7280.0, "Lat": 44.50958, "Lon": 34.18817}], "Massanes": [{"Name": "Massanes", "Country Code": "ES", "Population": 0.0, "Lat": 41.76536, "Lon": 2.65324}], "Massanetta Springs": [{"Name": "Massanetta Springs", "Country Code": "US", "Population": 4833.0, "Lat": 38.4004, "Lon": -78.83419}], "Massanutten": [{"Name": "Massanutten", "Country Code": "US", "Population": 2291.0, "Lat": 38.40957, "Lon": -78.7378}], "Massanzago-Ca' Baglioni-San Dono": [{"Name": "Massanzago-Ca' Baglioni-San Dono", "Country Code": "IT", "Population": 3397.0, "Lat": 45.5563, "Lon": 12.00731}], "Massapequa": [{"Name": "Massapequa", "Country Code": "US", "Population": 21685.0, "Lat": 40.68066, "Lon": -73.47429}], "Massapequa Park": [{"Name": "Massapequa Park", "Country Code": "US", "Population": 17232.0, "Lat": 40.68038, "Lon": -73.45512}], "Massaranduba": [{"Name": "Massaranduba", "Country Code": "BR", "Population": 3153.0, "Lat": -7.20028, "Lon": -35.78917}], "Massarosa": [{"Name": "Massarosa", "Country Code": "IT", "Population": 22435.0, "Lat": 43.86638, "Lon": 10.34458}], "Massasso-Bas-Yani": [{"Name": "Massasso-Bas-Yani", "Country Code": "CI", "Population": 3015.0, "Lat": 8.63724, "Lon": -6.61228}], "Massawa": [{"Name": "Massawa", "Country Code": "ER", "Population": 23100.0, "Lat": 15.60811, "Lon": 39.47455}], "Massay": [{"Name": "Massay", "Country Code": "FR", "Population": 1347.0, "Lat": 47.15324, "Lon": 1.99334}], "Massazza": [{"Name": "Massazza", "Country Code": "IT", "Population": 238.0, "Lat": 45.49183, "Lon": 8.16495}], "Massbach": [{"Name": "Ma\u00dfbach", "Country Code": "DE", "Population": 4819.0, "Lat": 50.18321, "Lon": 10.27522}], "Masseguere": [{"Name": "Mass\u00e9gu\u00e9r\u00e9", "Country Code": "CI", "Population": 1822.0, "Lat": 9.9436, "Lon": -6.15373}], "Massello": [{"Name": "Massello", "Country Code": "IT", "Population": 74.0, "Lat": 44.95874, "Lon": 7.05671}], "Massemen": [{"Name": "Massemen", "Country Code": "BE", "Population": 2723.0, "Lat": 50.98086, "Lon": 3.87394}], "Massena": [{"Name": "Massena", "Country Code": "US", "Population": 10629.0, "Lat": 44.9281, "Lon": -74.89186}], "Massenbachhausen": [{"Name": "Massenbachhausen", "Country Code": "DE", "Population": 3676.0, "Lat": 49.17778, "Lon": 9.04333}], "Massenhoven": [{"Name": "Massenhoven", "Country Code": "BE", "Population": 1172.0, "Lat": 51.20021, "Lon": 4.63572}], "Massenya": [{"Name": "Massenya", "Country Code": "TD", "Population": 4611.0, "Lat": 11.40345, "Lon": 16.17037}], "Massenzatico": [{"Name": "Massenzatico", "Country Code": "IT", "Population": 2411.0, "Lat": 44.73477, "Lon": 10.69736}], "Masserano": [{"Name": "Masserano", "Country Code": "IT", "Population": 1527.0, "Lat": 45.59536, "Lon": 8.22197}], "Masserberg": [{"Name": "Masserberg", "Country Code": "DE", "Population": 2828.0, "Lat": 50.51981, "Lon": 10.97087}], "Masseria Vecchia Ovest": [{"Name": "Masseria Vecchia Ovest", "Country Code": "IT", "Population": 1233.0, "Lat": 40.88966, "Lon": 14.06573}], "Masseube": [{"Name": "Masseube", "Country Code": "FR", "Population": 1518.0, "Lat": 43.42965, "Lon": 0.57888}], "Massey": [{"Name": "Massey", "Country Code": "NZ", "Population": 20120.0, "Lat": -36.8382, "Lon": 174.61019}], "Massey East": [{"Name": "Massey East", "Country Code": "NZ", "Population": 20120.0, "Lat": -36.8282, "Lon": 174.62019}], "Massiac": [{"Name": "Massiac", "Country Code": "FR", "Population": 1835.0, "Lat": 45.25146, "Lon": 3.19735}], "Massieux": [{"Name": "Massieux", "Country Code": "FR", "Population": 2319.0, "Lat": 45.90984, "Lon": 4.83265}], "Massignano": [{"Name": "Massignano", "Country Code": "IT", "Population": 492.0, "Lat": 43.05062, "Lon": 13.79798}], "Massillon": [{"Name": "Massillon", "Country Code": "US", "Population": 32252.0, "Lat": 40.79672, "Lon": -81.52151}], "Massimeno": [{"Name": "Massimeno", "Country Code": "IT", "Population": 105.0, "Lat": 46.1407, "Lon": 10.77317}], "Massimino": [{"Name": "Massimino", "Country Code": "IT", "Population": 104.0, "Lat": 44.29953, "Lon": 8.07134}], "Massing": [{"Name": "Massing", "Country Code": "DE", "Population": 4144.0, "Lat": 48.39118, "Lon": 12.60947}], "Massinga": [{"Name": "Massinga", "Country Code": "MZ", "Population": 24312.0, "Lat": -23.32917, "Lon": 35.38139}], "Massino Visconti": [{"Name": "Massino Visconti", "Country Code": "IT", "Population": 959.0, "Lat": 45.82417, "Lon": 8.54133}], "Massiogo": [{"Name": "Massiogo", "Country Code": "ML", "Population": 41317.0, "Lat": 10.30635, "Lon": -6.10972}], "Massiola": [{"Name": "Massiola", "Country Code": "IT", "Population": 119.0, "Lat": 45.91247, "Lon": 8.32012}], "Massongy": [{"Name": "Massongy", "Country Code": "FR", "Population": 1273.0, "Lat": 46.31807, "Lon": 6.33148}], "Massweiler": [{"Name": "Ma\u00dfweiler", "Country Code": "DE", "Population": 1158.0, "Lat": 49.26667, "Lon": 7.53333}], "Massy": [{"Name": "Massy", "Country Code": "FR", "Population": 38768.0, "Lat": 48.72692, "Lon": 2.28301}, {"Name": "Massy", "Country Code": "KG", "Population": 19774.0, "Lat": 41.0601, "Lon": 72.63285}], "Mastacan": [{"Name": "Mastac\u0103n", "Country Code": "RO", "Population": 1899.0, "Lat": 46.78918, "Lon": 26.48677}], "Mastacani": [{"Name": "M\u0103st\u0103cani", "Country Code": "RO", "Population": 5185.0, "Lat": 45.78333, "Lon": 28.03333}], "Mastaga": [{"Name": "Ma\u015fta\u011fa", "Country Code": "AZ", "Population": 40092.0, "Lat": 40.52983, "Lon": 50.00616}], "Mastaiciai": [{"Name": "Mastaiciai", "Country Code": "LT", "Population": 1339.0, "Lat": 54.81998, "Lon": 23.84462}], "Mastershausen": [{"Name": "Mastershausen", "Country Code": "DE", "Population": 1202.0, "Lat": 50.06667, "Lon": 7.35}], "Masterton": [{"Name": "Masterton", "Country Code": "NZ", "Population": 29100.0, "Lat": -40.95972, "Lon": 175.6575}], "Mastic": [{"Name": "Mastic", "Country Code": "US", "Population": 15481.0, "Lat": 40.80204, "Lon": -72.84094}], "Mastic Beach": [{"Name": "Mastic Beach", "Country Code": "US", "Population": 14841.0, "Lat": 40.76677, "Lon": -72.85205}], "Mastung": [{"Name": "Mastung", "Country Code": "PK", "Population": 29082.0, "Lat": 29.79966, "Lon": 66.84553}], "Masuda": [{"Name": "Masuda", "Country Code": "JP", "Population": 44976.0, "Lat": 34.66667, "Lon": 131.85}], "Masueco": [{"Name": "Masueco", "Country Code": "ES", "Population": 414.0, "Lat": 41.20352, "Lon": -6.58938}], "Masuguru": [{"Name": "Masuguru", "Country Code": "TZ", "Population": 7946.0, "Lat": -11.36667, "Lon": 38.41667}], "Masullas": [{"Name": "Masullas", "Country Code": "IT", "Population": 1111.0, "Lat": 39.70044, "Lon": 8.78371}], "Masumbwe": [{"Name": "Masumbwe", "Country Code": "TZ", "Population": 34780.0, "Lat": -3.63333, "Lon": 32.18333}], "Masunga": [{"Name": "Masunga", "Country Code": "BW", "Population": 6216.0, "Lat": -20.62455, "Lon": 27.44875}], "Masury": [{"Name": "Masury", "Country Code": "US", "Population": 2064.0, "Lat": 41.21117, "Lon": -80.53785}], "Masvingo": [{"Name": "Masvingo", "Country Code": "ZW", "Population": 90286.0, "Lat": -20.06373, "Lon": 30.82766}], "Maswa": [{"Name": "Maswa", "Country Code": "TZ", "Population": 22025.0, "Lat": -2.68333, "Lon": 33.98333}], "Maswarah": [{"Name": "Maswarah", "Country Code": "YE", "Population": 0.0, "Lat": 14.34399, "Lon": 45.72623}], "Masyaf": [{"Name": "Ma\u015fy\u0101f", "Country Code": "SY", "Population": 32262.0, "Lat": 35.0653, "Lon": 36.3406}], "Masyeta": [{"Name": "Masyeta", "Country Code": "ID", "Population": 0.0, "Lat": -1.55048, "Lon": 133.23875}], "Maszewo": [{"Name": "Maszewo", "Country Code": "PL", "Population": 460.0, "Lat": 52.06896, "Lon": 14.90553}, {"Name": "Maszewo", "Country Code": "PL", "Population": 3231.0, "Lat": 53.49615, "Lon": 15.06166}], "Maszewo Duze": [{"Name": "Maszewo Du\u017ce", "Country Code": "PL", "Population": 1332.0, "Lat": 52.58026, "Lon": 19.62905}], "Maszkienice": [{"Name": "Maszkienice", "Country Code": "PL", "Population": 1401.0, "Lat": 49.9892, "Lon": 20.68657}], "Mat'ani": [{"Name": "Mat\u2019ani", "Country Code": "GE", "Population": 4451.0, "Lat": 42.07804, "Lon": 45.19562}], "Mat-i": [{"Name": "Mat-i", "Country Code": "PH", "Population": 3401.0, "Lat": 8.40194, "Lon": 124.34528}], "Mata Grande": [{"Name": "Mata Grande", "Country Code": "BR", "Population": 4654.0, "Lat": -9.1175, "Lon": -37.73222}], "Mata Ie": [{"Name": "Mata Ie", "Country Code": "ID", "Population": 0.0, "Lat": 5.5278, "Lon": 95.33473}], "Mata Loma": [{"Name": "Mata Loma", "Country Code": "MX", "Population": 1864.0, "Lat": 19.13172, "Lon": -96.29587}], "Mata Naranjo": [{"Name": "Mata Naranjo", "Country Code": "MX", "Population": 1069.0, "Lat": 18.77746, "Lon": -96.71333}], "Mata Obscura": [{"Name": "Mata Obscura", "Country Code": "MX", "Population": 1539.0, "Lat": 19.21795, "Lon": -96.85426}], "Mata Tenatito (Casco Hacienda)": [{"Name": "Mata Tenatito (Casco Hacienda)", "Country Code": "MX", "Population": 1543.0, "Lat": 18.72187, "Lon": -96.66288}], "Mata de Alcantara": [{"Name": "Mata de Alc\u00e1ntara", "Country Code": "ES", "Population": 315.0, "Lat": 39.71738, "Lon": -6.81825}], "Mata de Cuellar": [{"Name": "Mata de Cu\u00e9llar", "Country Code": "ES", "Population": 296.0, "Lat": 41.39655, "Lon": -4.47167}], "Mata de Indio": [{"Name": "Mata de Indio", "Country Code": "MX", "Population": 1576.0, "Lat": 19.23028, "Lon": -96.84136}], "Mata de Platano": [{"Name": "Mata de Pl\u00e1tano", "Country Code": "HN", "Population": 1151.0, "Lat": 14.6, "Lon": -87.28333}], "Mata de Sao Joao": [{"Name": "Mata de S\u00e3o Jo\u00e3o", "Country Code": "BR", "Population": 26679.0, "Lat": -12.53028, "Lon": -38.29917}], "Mata del Nance": [{"Name": "Mata del Nance", "Country Code": "PA", "Population": 1051.0, "Lat": 8.45169, "Lon": -82.4003}], "Mata-Utu": [{"Name": "Mata-Utu", "Country Code": "WF", "Population": 1200.0, "Lat": -13.28163, "Lon": -176.17453}], "Mataas Na Kahoy": [{"Name": "Mataas Na Kahoy", "Country Code": "PH", "Population": 0.0, "Lat": 13.9589, "Lon": 121.1138}], "Matabao": [{"Name": "Matabao", "Country Code": "PH", "Population": 3570.0, "Lat": 8.95722, "Lon": 125.39944}], "Matabhanga": [{"Name": "M\u0101t\u0101bh\u0101nga", "Country Code": "IN", "Population": 22642.0, "Lat": 26.34197, "Lon": 89.21555}], "Matabuena": [{"Name": "Matabuena", "Country Code": "ES", "Population": 221.0, "Lat": 41.0959, "Lon": -3.75827}], "Matacapan": [{"Name": "Matacapan", "Country Code": "MX", "Population": 1162.0, "Lat": 18.43472, "Lon": -95.16583}], "Matachi": [{"Name": "Matach\u00ed", "Country Code": "MX", "Population": 1710.0, "Lat": 28.84287, "Lon": -107.75503}], "Matacina": [{"Name": "M\u0103t\u0103cina", "Country Code": "RO", "Population": 2093.0, "Lat": 45.88333, "Lon": 26.8}], "Matacon": [{"Name": "Matacon", "Country Code": "PH", "Population": 3976.0, "Lat": 13.3284, "Lon": 123.4356}], "Matacoto": [{"Name": "Matacoto", "Country Code": "PE", "Population": 218.0, "Lat": -9.17833, "Lon": -77.74917}], "Matadeon de los Oteros": [{"Name": "Matade\u00f3n de los Oteros", "Country Code": "ES", "Population": 277.0, "Lat": 42.33776, "Lon": -5.36887}], "Matadepera": [{"Name": "Matadepera", "Country Code": "ES", "Population": 7970.0, "Lat": 41.59886, "Lon": 2.02648}], "Matadi": [{"Name": "Matadi", "Country Code": "CD", "Population": 425662.0, "Lat": -5.83861, "Lon": 13.46306}], "Matador": [{"Name": "Matador", "Country Code": "US", "Population": 581.0, "Lat": 34.01202, "Lon": -100.82208}], "Matagalpa": [{"Name": "Matagalpa", "Country Code": "NI", "Population": 109089.0, "Lat": 12.92559, "Lon": -85.91747}], "Matagami": [{"Name": "Matagami", "Country Code": "CA", "Population": 1966.0, "Lat": 49.76326, "Lon": -77.62735}], "Matagbak": [{"Name": "Matagbak", "Country Code": "PH", "Population": 2893.0, "Lat": 14.13056, "Lon": 120.83472}], "Mataguzi": [{"Name": "Matagu\u017ei", "Country Code": "ME", "Population": 1132.0, "Lat": 42.32361, "Lon": 19.27278}], "Matahuasi": [{"Name": "Matahuasi", "Country Code": "PE", "Population": 0.0, "Lat": -11.89161, "Lon": -75.3435}], "Matai": [{"Name": "Matai", "Country Code": "TZ", "Population": 24070.0, "Lat": -8.3, "Lon": 31.51667}], "Matak": [{"Name": "Matak", "Country Code": "ID", "Population": 0.0, "Lat": 3.34806, "Lon": 106.29139}], "Matala": [{"Name": "Matala", "Country Code": "AO", "Population": 78000.0, "Lat": -14.73272, "Lon": 15.03479}, {"Name": "Matala", "Country Code": "PH", "Population": 2597.0, "Lat": 13.8287, "Lon": 121.1549}], "Matalam": [{"Name": "Matalam", "Country Code": "PH", "Population": 9783.0, "Lat": 7.08639, "Lon": 124.90056}], "Matalaque": [{"Name": "Matalaque", "Country Code": "PE", "Population": 349.0, "Lat": -16.4818, "Lon": -70.82607}], "Matale": [{"Name": "Matale", "Country Code": "LK", "Population": 36462.0, "Lat": 7.4698, "Lon": 80.6217}], "Matalebreras": [{"Name": "Matalebreras", "Country Code": "ES", "Population": 116.0, "Lat": 41.84116, "Lon": -2.04644}], "Matallana de Torio": [{"Name": "Matallana de Tor\u00edo", "Country Code": "ES", "Population": 1494.0, "Lat": 42.8656, "Lon": -5.52034}], "Mataloko": [{"Name": "Mataloko", "Country Code": "ID", "Population": 0.0, "Lat": -8.8206, "Lon": 121.063}], "Matalom": [{"Name": "Matalom", "Country Code": "PH", "Population": 4335.0, "Lat": 10.28306, "Lon": 124.78778}], "Matam": [{"Name": "Matam", "Country Code": "SN", "Population": 17218.0, "Lat": 15.65587, "Lon": -13.25544}], "Matamala de Almazan": [{"Name": "Matamala de Almaz\u00e1n", "Country Code": "ES", "Population": 364.0, "Lat": 41.50563, "Lon": -2.64122}], "Matamata": [{"Name": "Matamata", "Country Code": "NZ", "Population": 6306.0, "Lat": -37.8106, "Lon": 175.76237}], "Matamba": [{"Name": "Matamba", "Country Code": "TZ", "Population": 10642.0, "Lat": -8.98333, "Lon": 33.96667}], "Matamey": [{"Name": "Matamey", "Country Code": "NE", "Population": 37374.0, "Lat": 13.42309, "Lon": 8.47485}], "Matamoras": [{"Name": "Matamoras", "Country Code": "US", "Population": 2603.0, "Lat": 40.44009, "Lon": -76.93331}, {"Name": "Matamoras", "Country Code": "US", "Population": 2383.0, "Lat": 41.3687, "Lon": -74.70016}], "Matamoros": [{"Name": "Matamoros", "Country Code": "MX", "Population": 52233.0, "Lat": 25.52699, "Lon": -103.2285}, {"Name": "Matamoros", "Country Code": "MX", "Population": 1453.0, "Lat": 18.58414, "Lon": -90.64669}, {"Name": "Matamoros", "Country Code": "MX", "Population": 2615.0, "Lat": 26.76209, "Lon": -105.58523}], "Matan": [{"Name": "Matan", "Country Code": "IL", "Population": 3600.0, "Lat": 32.15856, "Lon": 34.97413}], "Matana": [{"Name": "Matana", "Country Code": "BI", "Population": 3178.0, "Lat": -3.76664, "Lon": 29.68296}], "Matanao": [{"Name": "Matanao", "Country Code": "PH", "Population": 7171.0, "Lat": 6.67917, "Lon": 125.255}], "Matancillas (San Isidro Matancillas)": [{"Name": "Matancillas (San Isidro Matancillas)", "Country Code": "MX", "Population": 4784.0, "Lat": 21.89036, "Lon": -101.65059}], "Matane": [{"Name": "Matane", "Country Code": "CA", "Population": 14812.0, "Lat": 48.82857, "Lon": -67.52197}], "Matangad": [{"Name": "Matangad", "Country Code": "PH", "Population": 2825.0, "Lat": 8.57694, "Lon": 124.37}], "Matangai": [{"Name": "Matangai", "Country Code": "ID", "Population": 0.0, "Lat": -2.5825, "Lon": 114.3728}], "Matangkuli": [{"Name": "Matangkuli", "Country Code": "ID", "Population": 0.0, "Lat": 5.03198, "Lon": 97.28351}], "Matango": [{"Name": "Matango", "Country Code": "ID", "Population": 0.0, "Lat": -4.6619, "Lon": 120.014}], "Matangpayang": [{"Name": "Matangpayang", "Country Code": "ID", "Population": 0.0, "Lat": 5.12577, "Lon": 97.24949}], "Matanog": [{"Name": "Matanog", "Country Code": "PH", "Population": 0.0, "Lat": 7.51611, "Lon": 124.25639}], "Matanza": [{"Name": "Matanza", "Country Code": "CO", "Population": 1669.0, "Lat": 7.32233, "Lon": -73.01516}], "Matanzas": [{"Name": "Matanzas", "Country Code": "CU", "Population": 146733.0, "Lat": 23.04111, "Lon": -81.5775}, {"Name": "Matanzas", "Country Code": "DO", "Population": 4124.0, "Lat": 18.24297, "Lon": -70.41768}, {"Name": "Matanzas", "Country Code": "MX", "Population": 1196.0, "Lat": 21.63333, "Lon": -101.65528}], "Matao": [{"Name": "Mat\u00e3o", "Country Code": "BR", "Population": 72468.0, "Lat": -21.60333, "Lon": -48.36583}], "Matapalo": [{"Name": "Matapalo", "Country Code": "PE", "Population": 343.0, "Lat": -3.68234, "Lon": -80.19948}], "Mataporquera": [{"Name": "Mataporquera", "Country Code": "ES", "Population": 1323.0, "Lat": 42.87486, "Lon": -4.16276}], "Matapozuelos": [{"Name": "Matapozuelos", "Country Code": "ES", "Population": 1030.0, "Lat": 41.41423, "Lon": -4.79122}], "Mataquescuintla": [{"Name": "Mataquescuintla", "Country Code": "GT", "Population": 7539.0, "Lat": 14.52917, "Lon": -90.18417}], "Matara": [{"Name": "Matara", "Country Code": "LK", "Population": 76254.0, "Lat": 5.94851, "Lon": 80.53528}], "Matarah": [{"Name": "Ma\u0163arah", "Country Code": "YE", "Population": 0.0, "Lat": 15.52591, "Lon": 47.63339}], "Mataram": [{"Name": "Mataram", "Country Code": "ID", "Population": 429651.0, "Lat": -8.58333, "Lon": 116.11667}], "Mataranga": [{"Name": "Matar\u00e1nga", "Country Code": "GR", "Population": 1344.0, "Lat": 38.52359, "Lon": 21.47325}], "Mataro": [{"Name": "Matar\u00f3", "Country Code": "ES", "Population": 121722.0, "Lat": 41.54211, "Lon": 2.4445}], "Matarrubia": [{"Name": "Matarrubia", "Country Code": "ES", "Population": 57.0, "Lat": 40.86463, "Lon": -3.28944}], "Matasari": [{"Name": "M\u0103t\u0103sari", "Country Code": "RO", "Population": 5411.0, "Lat": 44.85, "Lon": 23.08333}], "Matasaru": [{"Name": "M\u0103t\u0103saru", "Country Code": "RO", "Population": 5722.0, "Lat": 44.71667, "Lon": 25.41667}], "Matatiele": [{"Name": "Matatiele", "Country Code": "ZA", "Population": 14935.0, "Lat": -30.34357, "Lon": 28.81161}], "Matatlan": [{"Name": "Matatl\u00e1n", "Country Code": "MX", "Population": 1852.0, "Lat": 20.70978, "Lon": -103.15009}], "Matau": [{"Name": "M\u0103\u021b\u0103u", "Country Code": "RO", "Population": 1105.0, "Lat": 45.23565, "Lon": 25.08286}], "Mataundh": [{"Name": "Mataundh", "Country Code": "IN", "Population": 8591.0, "Lat": 25.43594, "Lon": 80.15653}], "Mataura": [{"Name": "Mataura", "Country Code": "NZ", "Population": 1720.0, "Lat": -46.1784, "Lon": 168.85009}], "Matavai": [{"Name": "Matavai", "Country Code": "WS", "Population": 1308.0, "Lat": -14.03208, "Lon": -171.64768}], "Matawan": [{"Name": "Matawan", "Country Code": "US", "Population": 8853.0, "Lat": 40.41483, "Lon": -74.22959}], "Matay": [{"Name": "Ma\u0163\u0101y", "Country Code": "EG", "Population": 82328.0, "Lat": 28.41866, "Lon": 30.77861}, {"Name": "Matay", "Country Code": "KZ", "Population": 4139.0, "Lat": 45.8996, "Lon": 78.72039}], "Mataya": [{"Name": "Mataya", "Country Code": "PH", "Population": 3136.0, "Lat": 7.47111, "Lon": 124.37194}], "Matayaya": [{"Name": "Matayaya", "Country Code": "DO", "Population": 1001.0, "Lat": 18.89036, "Lon": -71.59459}], "Matayumtayum": [{"Name": "Matayumtayum", "Country Code": "PH", "Population": 2730.0, "Lat": 15.5166, "Lon": 120.7098}], "Mataywanac": [{"Name": "Mataywanac", "Country Code": "PH", "Population": 2375.0, "Lat": 14.0311, "Lon": 120.7296}], "Matazu": [{"Name": "Matazu", "Country Code": "NG", "Population": 0.0, "Lat": 12.23549, "Lon": 7.67426}], "Matca": [{"Name": "Matca", "Country Code": "RO", "Population": 11642.0, "Lat": 45.85, "Lon": 27.53333}], "Mateare": [{"Name": "Mateare", "Country Code": "NI", "Population": 61234.0, "Lat": 12.23512, "Lon": -86.42809}], "Mateesti": [{"Name": "Matee\u015fti", "Country Code": "RO", "Population": 3232.0, "Lat": 45.06667, "Lon": 23.85}], "Matehuala": [{"Name": "Matehuala", "Country Code": "MX", "Population": 77328.0, "Lat": 23.64824, "Lon": -100.64334}], "Matei": [{"Name": "Matei", "Country Code": "RO", "Population": 2949.0, "Lat": 46.98333, "Lon": 24.26667}], "Matejce": [{"Name": "Matejce", "Country Code": "MK", "Population": 2781.0, "Lat": 42.12556, "Lon": 21.59778}], "Matelandia": [{"Name": "Matel\u00e2ndia", "Country Code": "BR", "Population": 10816.0, "Lat": -25.24083, "Lon": -53.99639}], "Matelica": [{"Name": "Matelica", "Country Code": "IT", "Population": 8891.0, "Lat": 43.25788, "Lon": 13.0075}], "Matemandia": [{"Name": "Mat\u00e9mandia", "Country Code": "CI", "Population": 1195.0, "Lat": 7.56191, "Lon": -3.01495}], "Matendonk": [{"Name": "Matendonk", "Country Code": "NL", "Population": 5225.0, "Lat": 52.19766, "Lon": 6.01115}], "Matendreef": [{"Name": "Matendreef", "Country Code": "NL", "Population": 4325.0, "Lat": 52.19993, "Lon": 5.98592}], "Matengaarde": [{"Name": "Matengaarde", "Country Code": "NL", "Population": 2810.0, "Lat": 52.19793, "Lon": 5.9957}], "Matenhoeve": [{"Name": "Matenhoeve", "Country Code": "NL", "Population": 4915.0, "Lat": 52.19056, "Lon": 6.01338}], "Matenhorst": [{"Name": "Matenhorst", "Country Code": "NL", "Population": 3055.0, "Lat": 52.20482, "Lon": 5.99304}], "Matenveld": [{"Name": "Matenveld", "Country Code": "NL", "Population": 5895.0, "Lat": 52.18767, "Lon": 5.99879}], "Mateo": [{"Name": "Mateo", "Country Code": "HN", "Population": 1021.0, "Lat": 14.07731, "Lon": -87.3169}], "Mater": [{"Name": "Mater", "Country Code": "BE", "Population": 2176.0, "Lat": 50.84321, "Lon": 3.66258}], "Matera": [{"Name": "Matera", "Country Code": "IT", "Population": 60403.0, "Lat": 40.66599, "Lon": 16.60463}], "Materdomini": [{"Name": "Materdomini", "Country Code": "IT", "Population": 1928.0, "Lat": 40.65571, "Lon": 17.95949}], "Materi": [{"Name": "Mat\u00e9ri", "Country Code": "BJ", "Population": 24490.0, "Lat": 10.69623, "Lon": 1.06307}], "Matesti": [{"Name": "M\u0103te\u0219ti", "Country Code": "RO", "Population": 1445.0, "Lat": 45.21339, "Lon": 26.75607}], "Mateszalka": [{"Name": "M\u00e1t\u00e9szalka", "Country Code": "HU", "Population": 18718.0, "Lat": 47.95528, "Lon": 22.32348}], "Matet": [{"Name": "Matet", "Country Code": "ES", "Population": 132.0, "Lat": 39.93333, "Lon": -0.46667}], "Mateur": [{"Name": "Mateur", "Country Code": "TN", "Population": 31005.0, "Lat": 37.04045, "Lon": 9.66557}], "Mateus Leme": [{"Name": "Mateus Leme", "Country Code": "BR", "Population": 24890.0, "Lat": -19.98639, "Lon": -44.42778}], "Matfors": [{"Name": "Matfors", "Country Code": "SE", "Population": 3437.0, "Lat": 62.34864, "Lon": 17.03173}], "Matha": [{"Name": "Matha", "Country Code": "FR", "Population": 2272.0, "Lat": 45.86776, "Lon": -0.32009}], "Mathakola": [{"Name": "Mathakola", "Country Code": "BW", "Population": 1159.0, "Lat": -22.72125, "Lon": 27.31057}], "Mathambgwane": [{"Name": "Mathambgwane", "Country Code": "BW", "Population": 4675.0, "Lat": -20.99075, "Lon": 27.33158}], "Mathangwane": [{"Name": "Mathangwane", "Country Code": "BW", "Population": 5918.0, "Lat": -21.0, "Lon": 27.33333}], "Mathathane": [{"Name": "Mathathane", "Country Code": "BW", "Population": 1987.0, "Lat": -22.26875, "Lon": 28.74946}], "Mathay": [{"Name": "Mathay", "Country Code": "FR", "Population": 2088.0, "Lat": 47.43905, "Lon": 6.78487}], "Mathba": [{"Name": "Mathba", "Country Code": "BD", "Population": 29760.0, "Lat": 22.28616, "Lon": 89.95883}], "Matheny": [{"Name": "Matheny", "Country Code": "US", "Population": 1212.0, "Lat": 36.17066, "Lon": -119.35158}], "Matheran": [{"Name": "M\u0101ther\u0101n", "Country Code": "IN", "Population": 5287.0, "Lat": 18.98281, "Lon": 73.2652}], "Mathews": [{"Name": "Mathews", "Country Code": "US", "Population": 2209.0, "Lat": 29.68632, "Lon": -90.54675}, {"Name": "Mathews", "Country Code": "US", "Population": 555.0, "Lat": 37.43708, "Lon": -76.31994}], "Mathi": [{"Name": "Mathi", "Country Code": "IT", "Population": 3653.0, "Lat": 45.25515, "Lon": 7.54202}], "Mathieu": [{"Name": "Mathieu", "Country Code": "FR", "Population": 1725.0, "Lat": 49.25448, "Lon": -0.37188}], "Mathis": [{"Name": "Mathis", "Country Code": "US", "Population": 5037.0, "Lat": 28.09446, "Lon": -97.82805}], "Mathry": [{"Name": "Mathry", "Country Code": "GB", "Population": 0.0, "Lat": 51.94639, "Lon": -5.08667}], "Mathura": [{"Name": "Mathura", "Country Code": "IN", "Population": 330511.0, "Lat": 27.5035, "Lon": 77.67215}], "Mati": [{"Name": "Mati", "Country Code": "PH", "Population": 3795.0, "Lat": 9.7358, "Lon": 125.468}, {"Name": "Mati", "Country Code": "PH", "Population": 105908.0, "Lat": 6.95508, "Lon": 126.21655}], "Matiao": [{"Name": "Matiao", "Country Code": "PH", "Population": 2814.0, "Lat": 7.0828, "Lon": 125.9362}], "Matiari": [{"Name": "Matiari", "Country Code": "PK", "Population": 18929.0, "Lat": 25.59709, "Lon": 68.4467}], "Matias Barbosa": [{"Name": "Matias Barbosa", "Country Code": "BR", "Population": 12072.0, "Lat": -21.86917, "Lon": -43.31944}], "Matias Olimpio": [{"Name": "Matias Ol\u00edmpio", "Country Code": "BR", "Population": 4012.0, "Lat": -3.71583, "Lon": -42.55556}], "Matias Romero": [{"Name": "Mat\u00edas Romero", "Country Code": "MX", "Population": 18944.0, "Lat": 16.87902, "Lon": -95.03939}], "Maticmatic": [{"Name": "Maticmatic", "Country Code": "PH", "Population": 3552.0, "Lat": 15.9863, "Lon": 120.45192}], "Matignon": [{"Name": "Matignon", "Country Code": "FR", "Population": 1620.0, "Lat": 48.59628, "Lon": -2.29168}], "Matiguas": [{"Name": "Matigu\u00e1s", "Country Code": "NI", "Population": 10523.0, "Lat": 12.83734, "Lon": -85.46218}], "Matilla de Arzon": [{"Name": "Matilla de Arz\u00f3n", "Country Code": "ES", "Population": 243.0, "Lat": 42.10499, "Lon": -5.64156}], "Matilla de los Canos": [{"Name": "Matilla de los Ca\u00f1os", "Country Code": "ES", "Population": 113.0, "Lat": 41.54818, "Lon": -4.96761}], "Matilla de los Canos del Rio": [{"Name": "Matilla de los Ca\u00f1os del R\u00edo", "Country Code": "ES", "Population": 681.0, "Lat": 40.82539, "Lon": -5.94276}], "Matilla la Seca": [{"Name": "Matilla la Seca", "Country Code": "ES", "Population": 60.0, "Lat": 41.57935, "Lon": -5.5003}], "Matillas": [{"Name": "Matillas", "Country Code": "ES", "Population": 178.0, "Lat": 40.94415, "Lon": -2.8359}], "Matina": [{"Name": "Matina", "Country Code": "CR", "Population": 2315.0, "Lat": 10.08363, "Lon": -83.28431}], "Matinella": [{"Name": "Matinella", "Country Code": "IT", "Population": 1887.0, "Lat": 40.50158, "Lon": 15.06692}], "Matingain": [{"Name": "Matingain", "Country Code": "PH", "Population": 4130.0, "Lat": 13.9129, "Lon": 120.88006}], "Matinha": [{"Name": "Matinha", "Country Code": "BR", "Population": 6851.0, "Lat": -3.10056, "Lon": -45.03361}], "Matino": [{"Name": "Matino", "Country Code": "IT", "Population": 10966.0, "Lat": 40.03083, "Lon": 18.1363}], "Matiompong": [{"Name": "Matiompong", "Country Code": "PH", "Population": 2317.0, "Lat": 6.69611, "Lon": 124.56611}], "Matipo": [{"Name": "Matip\u00f3", "Country Code": "BR", "Population": 12996.0, "Lat": -20.28389, "Lon": -42.34111}], "Matiri": [{"Name": "Matiri", "Country Code": "TZ", "Population": 18830.0, "Lat": -10.75, "Lon": 34.9}], "Matisi": [{"Name": "Mat\u012b\u0161i", "Country Code": "LV", "Population": 0.0, "Lat": 57.69892, "Lon": 25.15886}], "Matlahuacales Aquiles Serdan": [{"Name": "Matlahuacales Aquiles Serd\u00e1n", "Country Code": "MX", "Population": 1016.0, "Lat": 19.76196, "Lon": -98.05375}], "Matlang": [{"Name": "Matlang", "Country Code": "PH", "Population": 5840.0, "Lat": 10.8902, "Lon": 124.4554}], "Matlapa": [{"Name": "Matlapa", "Country Code": "MX", "Population": 3792.0, "Lat": 21.33649, "Lon": -98.82777}], "Matli": [{"Name": "Matli", "Country Code": "PK", "Population": 50398.0, "Lat": 25.0429, "Lon": 68.65591}], "Matlock": [{"Name": "Matlock", "Country Code": "GB", "Population": 14956.0, "Lat": 53.13838, "Lon": -1.5556}], "Matmata": [{"Name": "Matmata", "Country Code": "MA", "Population": 2620.0, "Lat": 34.09914, "Lon": -4.55219}, {"Name": "Matmata", "Country Code": "TN", "Population": 2406.0, "Lat": 33.54445, "Lon": 9.97157}], "Matnah": [{"Name": "Matnah", "Country Code": "YE", "Population": 0.0, "Lat": 15.25333, "Lon": 44.02472}], "Matnog": [{"Name": "Matnog", "Country Code": "PH", "Population": 6721.0, "Lat": 12.5878, "Lon": 124.0875}, {"Name": "Matnog", "Country Code": "PH", "Population": 2822.0, "Lat": 14.06667, "Lon": 122.93333}], "Mato Verde": [{"Name": "Mato Verde", "Country Code": "BR", "Population": 7783.0, "Lat": -15.39722, "Lon": -42.86639}], "Matoaca": [{"Name": "Matoaca", "Country Code": "US", "Population": 2403.0, "Lat": 37.23043, "Lon": -77.47749}], "Matola": [{"Name": "Matola", "Country Code": "MZ", "Population": 1198988.0, "Lat": -25.96222, "Lon": 32.45889}], "Matonga": [{"Name": "Matonga", "Country Code": "TZ", "Population": 11828.0, "Lat": -2.38333, "Lon": 34.08333}], "Matosinhos": [{"Name": "Matosinhos", "Country Code": "PT", "Population": 28070.0, "Lat": 41.18207, "Lon": -8.68908}], "Matour": [{"Name": "Matour", "Country Code": "FR", "Population": 1014.0, "Lat": 46.30654, "Lon": 4.48178}], "Matoury": [{"Name": "Matoury", "Country Code": "GF", "Population": 26350.0, "Lat": 4.84921, "Lon": -52.32355}], "Matozinhos": [{"Name": "Matozinhos", "Country Code": "BR", "Population": 30843.0, "Lat": -19.55778, "Lon": -44.08139}], "Matraderecske": [{"Name": "M\u00e1traderecske", "Country Code": "HU", "Population": 2232.0, "Lat": 47.95, "Lon": 20.08333}], "Matran": [{"Name": "Matran", "Country Code": "CH", "Population": 0.0, "Lat": 46.78593, "Lon": 7.09768}], "Matranovak": [{"Name": "M\u00e1tranov\u00e1k", "Country Code": "HU", "Population": 1972.0, "Lat": 48.03809, "Lon": 19.98257}], "Matraterenye": [{"Name": "M\u00e1traterenye", "Country Code": "HU", "Population": 1995.0, "Lat": 48.03267, "Lon": 19.94762}], "Matraverebely": [{"Name": "M\u00e1travereb\u00e9ly", "Country Code": "HU", "Population": 2197.0, "Lat": 47.97421, "Lon": 19.78049}], "Matraville": [{"Name": "Matraville", "Country Code": "AU", "Population": 9768.0, "Lat": -33.96344, "Lon": 151.23195}], "Matrei am Brenner": [{"Name": "Matrei am Brenner", "Country Code": "AT", "Population": 959.0, "Lat": 47.12794, "Lon": 11.45176}], "Matrei in Osttirol": [{"Name": "Matrei in Osttirol", "Country Code": "AT", "Population": 2482.0, "Lat": 47.0, "Lon": 12.53333}], "Matrice": [{"Name": "Matrice", "Country Code": "IT", "Population": 597.0, "Lat": 41.61878, "Lon": 14.70977}], "Matriz de Camaragibe": [{"Name": "Matriz de Camaragibe", "Country Code": "BR", "Population": 18705.0, "Lat": -9.15167, "Lon": -35.53333}], "Matroska": [{"Name": "Matroska", "Country Code": "UA", "Population": 2259.0, "Lat": 45.34205, "Lon": 28.78106}], "Matrosy": [{"Name": "Matrosy", "Country Code": "RU", "Population": 1400.0, "Lat": 61.78042, "Lon": 33.81283}], "Matsieng": [{"Name": "Matsieng", "Country Code": "LS", "Population": 4197.0, "Lat": -29.61715, "Lon": 27.56645}], "Matsliah": [{"Name": "Matslia\u1e96", "Country Code": "IL", "Population": 1363.0, "Lat": 31.90669, "Lon": 34.87134}], "Matsubara": [{"Name": "Matsubara", "Country Code": "JP", "Population": 130855.0, "Lat": 34.56667, "Lon": 135.55}], "Matsubase": [{"Name": "Matsubase", "Country Code": "JP", "Population": 26163.0, "Lat": 32.65, "Lon": 130.66667}], "Matsubushi": [{"Name": "Matsubushi", "Country Code": "JP", "Population": 28787.0, "Lat": 35.91898, "Lon": 139.81128}], "Matsudo": [{"Name": "Matsudo", "Country Code": "JP", "Population": 498575.0, "Lat": 35.77995, "Lon": 139.90144}], "Matsue": [{"Name": "Matsue", "Country Code": "JP", "Population": 156811.0, "Lat": 35.48333, "Lon": 133.05}], "Matsumoto": [{"Name": "Matsumoto", "Country Code": "JP", "Population": 239466.0, "Lat": 36.23333, "Lon": 137.96667}], "Matsusaka": [{"Name": "Matsusaka", "Country Code": "JP", "Population": 0.0, "Lat": 34.57895, "Lon": 136.53706}], "Matsushima": [{"Name": "Matsushima", "Country Code": "JP", "Population": 16363.0, "Lat": 38.37357, "Lon": 141.06105}], "Matsuto": [{"Name": "Matsut\u014d", "Country Code": "JP", "Population": 68159.0, "Lat": 36.51667, "Lon": 136.56667}], "Matsuura": [{"Name": "Matsuura", "Country Code": "JP", "Population": 23566.0, "Lat": 33.34058, "Lon": 129.69504}], "Matsuyama": [{"Name": "Matsuyama", "Country Code": "JP", "Population": 509835.0, "Lat": 33.83916, "Lon": 132.76574}], "Matsuzaki": [{"Name": "Matsuzaki", "Country Code": "JP", "Population": 6563.0, "Lat": 34.75326, "Lon": 138.77613}], "Mattaldi": [{"Name": "Mattaldi", "Country Code": "AR", "Population": 1714.0, "Lat": -34.48198, "Lon": -64.17194}], "Mattanur": [{"Name": "Mattanur", "Country Code": "IN", "Population": 45521.0, "Lat": 11.93018, "Lon": 75.57152}], "Mattapoisett": [{"Name": "Mattapoisett", "Country Code": "US", "Population": 6378.0, "Lat": 41.65844, "Lon": -70.81615}], "Mattapoisett Center": [{"Name": "Mattapoisett Center", "Country Code": "US", "Population": 2915.0, "Lat": 41.66595, "Lon": -70.8072}], "Mattarello": [{"Name": "Mattarello", "Country Code": "IT", "Population": 5214.0, "Lat": 46.00865, "Lon": 11.12984}], "Mattawa": [{"Name": "Mattawa", "Country Code": "CA", "Population": 1993.0, "Lat": 46.31681, "Lon": -78.69957}, {"Name": "Mattawa", "Country Code": "US", "Population": 4548.0, "Lat": 46.73791, "Lon": -119.90282}], "Mattawan": [{"Name": "Mattawan", "Country Code": "US", "Population": 1947.0, "Lat": 42.20948, "Lon": -85.78445}], "Matten": [{"Name": "Matten", "Country Code": "CH", "Population": 3676.0, "Lat": 46.67833, "Lon": 7.86889}], "Mattenbach (Kreis 7)": [{"Name": "Mattenbach (Kreis 7)", "Country Code": "CH", "Population": 11043.0, "Lat": 47.48705, "Lon": 8.74681}], "Mattenbach (Kreis 7) / Deutweg": [{"Name": "Mattenbach (Kreis 7) / Deutweg", "Country Code": "CH", "Population": 5930.0, "Lat": 47.49419, "Lon": 8.73948}], "Mattenbach (Kreis 7) / Endliker": [{"Name": "Mattenbach (Kreis 7) / Endliker", "Country Code": "CH", "Population": 2169.0, "Lat": 47.48821, "Lon": 8.74938}], "Mattenbach (Kreis 7) / Gutschick": [{"Name": "Mattenbach (Kreis 7) / Gutschick", "Country Code": "CH", "Population": 2923.0, "Lat": 47.49104, "Lon": 8.75258}], "Mattersburg": [{"Name": "Mattersburg", "Country Code": "AT", "Population": 6577.0, "Lat": 47.73333, "Lon": 16.4}], "Matteson": [{"Name": "Matteson", "Country Code": "US", "Population": 19195.0, "Lat": 41.50392, "Lon": -87.7131}], "Matthew Town": [{"Name": "Matthew Town", "Country Code": "BS", "Population": 452.0, "Lat": 20.94982, "Lon": -73.67346}], "Matthews": [{"Name": "Matthews", "Country Code": "US", "Population": 30678.0, "Lat": 35.11681, "Lon": -80.72368}], "Matti": [{"Name": "Matti", "Country Code": "PH", "Population": 4796.0, "Lat": 6.77056, "Lon": 125.30861}], "Mattie": [{"Name": "Mattie", "Country Code": "IT", "Population": 627.0, "Lat": 45.11814, "Lon": 7.11511}], "Mattighofen": [{"Name": "Mattighofen", "Country Code": "AT", "Population": 6524.0, "Lat": 48.10732, "Lon": 13.15081}], "Mattinata": [{"Name": "Mattinata", "Country Code": "IT", "Population": 5727.0, "Lat": 41.71112, "Lon": 16.05087}], "Mattishall": [{"Name": "Mattishall", "Country Code": "GB", "Population": 2315.0, "Lat": 52.65905, "Lon": 1.0325}], "Mattituck": [{"Name": "Mattituck", "Country Code": "US", "Population": 4219.0, "Lat": 40.99121, "Lon": -72.53425}], "Mattoon": [{"Name": "Mattoon", "Country Code": "US", "Population": 18113.0, "Lat": 39.48309, "Lon": -88.37283}], "Mattsee": [{"Name": "Mattsee", "Country Code": "AT", "Population": 3263.0, "Lat": 47.96667, "Lon": 13.1}], "Mattur": [{"Name": "M\u0101tt\u016br", "Country Code": "IN", "Population": 5605.0, "Lat": 11.32147, "Lon": 79.20245}], "Mattydale": [{"Name": "Mattydale", "Country Code": "US", "Population": 6446.0, "Lat": 43.09784, "Lon": -76.1452}], "Matucana": [{"Name": "Matucana", "Country Code": "PE", "Population": 4517.0, "Lat": -11.85, "Lon": -76.4}], "Matui": [{"Name": "Matui", "Country Code": "TZ", "Population": 20241.0, "Lat": -4.8, "Lon": 38.25}], "Matuizos": [{"Name": "Matuizos", "Country Code": "LT", "Population": 1201.0, "Lat": 54.2753, "Lon": 24.68003}], "Matulji": [{"Name": "Matulji", "Country Code": "HR", "Population": 3566.0, "Lat": 45.36167, "Lon": 14.325}], "Matunda": [{"Name": "Matunda", "Country Code": "KE", "Population": 10807.0, "Lat": 0.84443, "Lon": 35.13716}], "Matungao": [{"Name": "Matungao", "Country Code": "PH", "Population": 0.0, "Lat": 8.13611, "Lon": 124.16417}], "Matur": [{"Name": "Matur", "Country Code": "ID", "Population": 0.0, "Lat": -0.27877, "Lon": 100.28802}], "Maturanoc": [{"Name": "Maturanoc", "Country Code": "PH", "Population": 4912.0, "Lat": 15.6571, "Lon": 120.7921}], "Maturin": [{"Name": "Matur\u00edn", "Country Code": "VE", "Population": 647459.0, "Lat": 9.74569, "Lon": -63.18323}], "Matute": [{"Name": "Matute", "Country Code": "ES", "Population": 164.0, "Lat": 42.29888, "Lon": -2.79564}], "Matuu": [{"Name": "Matuu", "Country Code": "KE", "Population": 12073.0, "Lat": -1.1454, "Lon": 37.54671}], "Matuzici": [{"Name": "Matuzi\u0107i", "Country Code": "BA", "Population": 0.0, "Lat": 44.68776, "Lon": 18.04885}], "Matveyev Kurgan": [{"Name": "Matveyev Kurgan", "Country Code": "RU", "Population": 14342.0, "Lat": 47.5645, "Lon": 38.86947}], "Matveyevka": [{"Name": "Matveyevka", "Country Code": "RU", "Population": 3276.0, "Lat": 52.15, "Lon": 56.18333}], "Matveyevskoye": [{"Name": "Matveyevskoye", "Country Code": "RU", "Population": 30000.0, "Lat": 55.71112, "Lon": 37.47502}], "Matviivka": [{"Name": "Matviivka", "Country Code": "UA", "Population": 3716.0, "Lat": 47.07392, "Lon": 35.14493}], "Matwah": [{"Name": "Matwa\u1e29", "Country Code": "YE", "Population": 0.0, "Lat": 15.0676, "Lon": 43.64213}], "Matyushkino": [{"Name": "Matyushkino", "Country Code": "RU", "Population": 0.0, "Lat": 56.86325, "Lon": 28.62508}], "Matzaco": [{"Name": "Matzaco", "Country Code": "MX", "Population": 2580.0, "Lat": 18.55953, "Lon": -98.4882}], "Matzam": [{"Name": "Matzam", "Country Code": "MX", "Population": 1599.0, "Lat": 16.78917, "Lon": -92.47694}], "Matzen": [{"Name": "Matzen", "Country Code": "AT", "Population": 1796.0, "Lat": 48.4, "Lon": 16.7}], "Matzendorf": [{"Name": "Matzendorf", "Country Code": "AT", "Population": 1734.0, "Lat": 47.89137, "Lon": 16.21393}, {"Name": "Matzendorf", "Country Code": "CH", "Population": 1282.0, "Lat": 47.30374, "Lon": 7.6282}], "Matzenheim": [{"Name": "Matzenheim", "Country Code": "FR", "Population": 1334.0, "Lat": 48.3945, "Lon": 7.62185}], "Matzingen": [{"Name": "Matzingen", "Country Code": "CH", "Population": 2399.0, "Lat": 47.51957, "Lon": 8.93365}], "Mau": [{"Name": "Mau", "Country Code": "IN", "Population": 19299.0, "Lat": 26.26584, "Lon": 78.67108}, {"Name": "Mau", "Country Code": "IN", "Population": 246050.0, "Lat": 25.94167, "Lon": 83.56111}], "Mau Aimma": [{"Name": "Mau Aimma", "Country Code": "IN", "Population": 20123.0, "Lat": 25.69515, "Lon": 81.92336}], "Mau Narok": [{"Name": "Mau Narok", "Country Code": "KE", "Population": 11806.0, "Lat": -0.60661, "Lon": 36.00836}], "Maua": [{"Name": "Mau\u00e1", "Country Code": "BR", "Population": 477552.0, "Lat": -23.66778, "Lon": -46.46139}, {"Name": "Maua", "Country Code": "KE", "Population": 22121.0, "Lat": 0.2332, "Lon": 37.94086}], "Mauban": [{"Name": "Mauban", "Country Code": "PH", "Population": 32739.0, "Lat": 14.191, "Lon": 121.7309}], "Maubara": [{"Name": "Maubara", "Country Code": "TL", "Population": 16300.0, "Lat": -8.61194, "Lon": 125.20611}], "Maubec": [{"Name": "Maubec", "Country Code": "FR", "Population": 1682.0, "Lat": 43.84379, "Lon": 5.13919}, {"Name": "Maubec", "Country Code": "FR", "Population": 1497.0, "Lat": 45.56739, "Lon": 5.26371}], "Maubert": [{"Name": "Maubert", "Country Code": "CI", "Population": 1153.0, "Lat": 5.48516, "Lon": -3.25009}], "Maubeuge": [{"Name": "Maubeuge", "Country Code": "FR", "Population": 33684.0, "Lat": 50.27875, "Lon": 3.97267}], "Maubin": [{"Name": "Maubin", "Country Code": "MM", "Population": 51542.0, "Lat": 16.73148, "Lon": 95.65441}], "Mauboh": [{"Name": "Mauboh", "Country Code": "PH", "Population": 2561.0, "Lat": 5.99, "Lon": 121.09361}], "Maubourguet": [{"Name": "Maubourguet", "Country Code": "FR", "Population": 2492.0, "Lat": 43.46834, "Lon": 0.03473}], "Maubray": [{"Name": "Maubray", "Country Code": "BE", "Population": 1272.0, "Lat": 50.55085, "Lon": 3.50395}], "Mauchline": [{"Name": "Mauchline", "Country Code": "GB", "Population": 4130.0, "Lat": 55.51604, "Lon": -4.37928}], "Maud": [{"Name": "Maud", "Country Code": "US", "Population": 1071.0, "Lat": 33.3329, "Lon": -94.3427}, {"Name": "Maud", "Country Code": "US", "Population": 1076.0, "Lat": 35.13036, "Lon": -96.77585}], "Maudaha": [{"Name": "Maudaha", "Country Code": "IN", "Population": 37844.0, "Lat": 25.68312, "Lon": 80.11419}], "Maudsland": [{"Name": "Maudsland", "Country Code": "AU", "Population": 5468.0, "Lat": -27.95, "Lon": 153.26667}], "Mauensee": [{"Name": "Mauensee", "Country Code": "CH", "Population": 1199.0, "Lat": 47.16703, "Lon": 8.06793}], "Mauer": [{"Name": "Mauer", "Country Code": "AT", "Population": 0.0, "Lat": 46.74104, "Lon": 14.22937}, {"Name": "Mauer", "Country Code": "DE", "Population": 3498.0, "Lat": 49.34083, "Lon": 8.80028}], "Mauer bei Amstetten": [{"Name": "Mauer bei Amstetten", "Country Code": "AT", "Population": 2278.0, "Lat": 48.09643, "Lon": 14.8006}], "Mauerbach": [{"Name": "Mauerbach", "Country Code": "AT", "Population": 3339.0, "Lat": 48.24514, "Lon": 16.16793}], "Mauerkirchen": [{"Name": "Mauerkirchen", "Country Code": "AT", "Population": 2384.0, "Lat": 48.19173, "Lon": 13.13338}], "Mauern": [{"Name": "Mauern", "Country Code": "DE", "Population": 2752.0, "Lat": 48.51667, "Lon": 11.9}], "Mauerstetten": [{"Name": "Mauerstetten", "Country Code": "DE", "Population": 2922.0, "Lat": 47.89358, "Lon": 10.67127}], "Maues": [{"Name": "Mau\u00e9s", "Country Code": "BR", "Population": 22475.0, "Lat": -3.38361, "Lon": -57.71861}], "Mauganj": [{"Name": "Mauganj", "Country Code": "IN", "Population": 25537.0, "Lat": 24.66721, "Lon": 81.87339}], "Maugansville": [{"Name": "Maugansville", "Country Code": "US", "Population": 3071.0, "Lat": 39.69287, "Lon": -77.74472}], "Maugat West": [{"Name": "Maugat West", "Country Code": "PH", "Population": 2613.0, "Lat": 13.8613, "Lon": 121.28276}], "Maugeri": [{"Name": "Maugeri", "Country Code": "IT", "Population": 2285.0, "Lat": 37.58608, "Lon": 15.11785}], "Maughold": [{"Name": "Maughold", "Country Code": "IM", "Population": 0.0, "Lat": 54.29877, "Lon": -4.31844}], "Mauguio": [{"Name": "Mauguio", "Country Code": "FR", "Population": 18320.0, "Lat": 43.61692, "Lon": 4.00739}], "Mauhao": [{"Name": "Mauhao", "Country Code": "PH", "Population": 2310.0, "Lat": 12.29015, "Lon": 121.30071}], "Maulavi Bazar": [{"Name": "Maulavi B\u0101z\u0101r", "Country Code": "BD", "Population": 57441.0, "Lat": 24.48888, "Lon": 91.77075}], "Maulawin": [{"Name": "Maulawin", "Country Code": "PH", "Population": 6822.0, "Lat": 14.26667, "Lon": 121.43333}], "Maulbronn": [{"Name": "Maulbronn", "Country Code": "DE", "Population": 6817.0, "Lat": 48.99958, "Lon": 8.80337}], "Maulburg": [{"Name": "Maulburg", "Country Code": "DE", "Population": 4099.0, "Lat": 47.64631, "Lon": 7.7821}], "Maulden": [{"Name": "Maulden", "Country Code": "GB", "Population": 2357.0, "Lat": 52.03063, "Lon": -0.46975}], "Mauldin": [{"Name": "Mauldin", "Country Code": "US", "Population": 25135.0, "Lat": 34.77873, "Lon": -82.31012}], "Maule": [{"Name": "Maule", "Country Code": "FR", "Population": 6272.0, "Lat": 48.91056, "Lon": 1.85264}], "Mauleon-Licharre": [{"Name": "Maul\u00e9on-Licharre", "Country Code": "FR", "Population": 3313.0, "Lat": 43.22422, "Lon": -0.88717}], "Maulevrier": [{"Name": "Maul\u00e9vrier", "Country Code": "FR", "Population": 2864.0, "Lat": 47.00966, "Lon": -0.745}], "Maumee": [{"Name": "Maumee", "Country Code": "US", "Population": 13940.0, "Lat": 41.56283, "Lon": -83.65382}], "Maumelle": [{"Name": "Maumelle", "Country Code": "US", "Population": 17931.0, "Lat": 34.86676, "Lon": -92.40432}], "Maumere": [{"Name": "Maumere", "Country Code": "ID", "Population": 87720.0, "Lat": -8.6199, "Lon": 122.2111}], "Maun": [{"Name": "Maun", "Country Code": "BW", "Population": 85350.0, "Lat": -19.98333, "Lon": 23.41667}], "Maunabo": [{"Name": "Maunabo", "Country Code": "PR", "Population": 2154.0, "Lat": 18.00719, "Lon": -65.89933}], "Maunatlala": [{"Name": "Maunatlala", "Country Code": "BW", "Population": 3361.0, "Lat": -22.59701, "Lon": 27.63006}], "Maunawili": [{"Name": "Maunawili", "Country Code": "US", "Population": 2040.0, "Lat": 21.37278, "Lon": -157.77056}], "Maungaraki": [{"Name": "Maungaraki", "Country Code": "NZ", "Population": 4230.0, "Lat": -41.20827, "Lon": 174.87019}], "Maungatapere": [{"Name": "Maungatapere", "Country Code": "NZ", "Population": 1007.0, "Lat": -35.75, "Lon": 174.2}], "Maungaturoto": [{"Name": "Maungaturoto", "Country Code": "NZ", "Population": 1269.0, "Lat": -36.1, "Lon": 174.36667}], "Maungu": [{"Name": "Maungu", "Country Code": "KE", "Population": 4713.0, "Lat": -3.55813, "Lon": 38.74908}], "Mauponggo": [{"Name": "Mauponggo", "Country Code": "ID", "Population": 0.0, "Lat": -8.8892, "Lon": 121.2112}], "Maupuia": [{"Name": "Maupuia", "Country Code": "NZ", "Population": 1650.0, "Lat": -41.30347, "Lon": 174.82012}], "Maur": [{"Name": "Maur", "Country Code": "IN", "Population": 28295.0, "Lat": 30.08333, "Lon": 75.25}], "Maura": [{"Name": "Maura", "Country Code": "NO", "Population": 2400.0, "Lat": 60.2583, "Lon": 11.03192}], "Maurach": [{"Name": "Maurach", "Country Code": "AT", "Population": 2458.0, "Lat": 47.42124, "Lon": 11.75305}], "Maurage": [{"Name": "Maurage", "Country Code": "BE", "Population": 5098.0, "Lat": 50.45652, "Lon": 4.09704}], "Mauranwan": [{"Name": "Maur\u0101nw\u0101n", "Country Code": "IN", "Population": 14916.0, "Lat": 26.42876, "Lon": 80.88008}], "Mauraro": [{"Name": "Mauraro", "Country Code": "PH", "Population": 3753.0, "Lat": 13.1494, "Lon": 123.5953}], "Mauraz": [{"Name": "Mauraz", "Country Code": "CH", "Population": 0.0, "Lat": 46.60558, "Lon": 6.42074}], "Maure-de-Bretagne": [{"Name": "Maure-de-Bretagne", "Country Code": "FR", "Population": 2711.0, "Lat": 47.89159, "Lon": -1.99248}], "Maurecourt": [{"Name": "Maurecourt", "Country Code": "FR", "Population": 3668.0, "Lat": 48.99614, "Lon": 2.06155}], "Maureilhan": [{"Name": "Maureilhan", "Country Code": "FR", "Population": 1610.0, "Lat": 43.3576, "Lon": 3.12011}], "Maureillas-las-Illas": [{"Name": "Maureillas-las-Illas", "Country Code": "FR", "Population": 2491.0, "Lat": 42.49014, "Lon": 2.80752}], "Mauren": [{"Name": "Mauren", "Country Code": "LI", "Population": 3626.0, "Lat": 47.21805, "Lon": 9.5442}], "Maureni": [{"Name": "M\u0103ureni", "Country Code": "RO", "Population": 2553.0, "Lat": 45.40389, "Lon": 21.5025}], "Maurepas": [{"Name": "Maurepas", "Country Code": "FR", "Population": 19009.0, "Lat": 48.76486, "Lon": 1.92923}], "Mauriac": [{"Name": "Mauriac", "Country Code": "FR", "Population": 3955.0, "Lat": 45.21899, "Lon": 2.33353}], "Maurice": [{"Name": "Maurice", "Country Code": "US", "Population": 1266.0, "Lat": 30.10854, "Lon": -92.12457}], "Mauriceville": [{"Name": "Mauriceville", "Country Code": "US", "Population": 3252.0, "Lat": 30.20354, "Lon": -93.86628}], "Maurik": [{"Name": "Maurik", "Country Code": "NL", "Population": 3270.0, "Lat": 51.96083, "Lon": 5.42222}], "Maurole": [{"Name": "Maurole", "Country Code": "ID", "Population": 0.0, "Lat": -8.511, "Lon": 121.8023}], "Mauron": [{"Name": "Mauron", "Country Code": "FR", "Population": 3426.0, "Lat": 48.08181, "Lon": -2.28606}], "Maurs": [{"Name": "Maurs", "Country Code": "FR", "Population": 2269.0, "Lat": 44.71065, "Lon": 2.19797}], "Maury": [{"Name": "Maury", "Country Code": "US", "Population": 1685.0, "Lat": 35.48211, "Lon": -77.58608}], "Maussane-les-Alpilles": [{"Name": "Maussane-les-Alpilles", "Country Code": "FR", "Population": 2197.0, "Lat": 43.72236, "Lon": 4.80497}], "Mauston": [{"Name": "Mauston", "Country Code": "US", "Population": 4374.0, "Lat": 43.79719, "Lon": -90.07735}], "Mautbruecken": [{"Name": "Mautbr\u00fccken", "Country Code": "AT", "Population": 62.0, "Lat": 46.72037, "Lon": 14.19399}], "Mautern": [{"Name": "Mautern", "Country Code": "AT", "Population": 2917.0, "Lat": 48.39319, "Lon": 15.57793}], "Mautern in Steiermark": [{"Name": "Mautern in Steiermark", "Country Code": "AT", "Population": 1184.0, "Lat": 47.4, "Lon": 14.83333}], "Mauterndorf": [{"Name": "Mauterndorf", "Country Code": "AT", "Population": 1261.0, "Lat": 47.13451, "Lon": 13.67884}], "Mauth": [{"Name": "Mauth", "Country Code": "DE", "Population": 2566.0, "Lat": 48.88972, "Lon": 13.58459}], "Mauves": [{"Name": "Mauves", "Country Code": "FR", "Population": 1113.0, "Lat": 45.03833, "Lon": 4.82934}], "Mauves-sur-Loire": [{"Name": "Mauves-sur-Loire", "Country Code": "FR", "Population": 2579.0, "Lat": 47.29671, "Lon": -1.39138}], "Mauvezin": [{"Name": "Mauvezin", "Country Code": "FR", "Population": 1898.0, "Lat": 43.73034, "Lon": 0.87784}], "Mauze-Thouarsais": [{"Name": "Mauz\u00e9-Thouarsais", "Country Code": "FR", "Population": 2067.0, "Lat": 46.97611, "Lon": -0.27846}], "Mauze-sur-le-Mignon": [{"Name": "Mauz\u00e9-sur-le-Mignon", "Country Code": "FR", "Population": 2477.0, "Lat": 46.1957, "Lon": -0.66817}], "Mav Patoda": [{"Name": "Mav Patoda", "Country Code": "IN", "Population": 1359.0, "Lat": 19.46009, "Lon": 76.19162}], "Mavelikara": [{"Name": "M\u0101velikara", "Country Code": "IN", "Population": 28300.0, "Lat": 9.25929, "Lon": 76.55642}], "Mavinga": [{"Name": "Mavinga", "Country Code": "AO", "Population": 10000.0, "Lat": -15.79171, "Lon": 20.35763}], "Mavingouni": [{"Name": "Mavingouni", "Country Code": "KM", "Population": 1390.0, "Lat": -11.71953, "Lon": 43.26233}], "Mavis Bank": [{"Name": "Mavis Bank", "Country Code": "JM", "Population": 1821.0, "Lat": 18.03111, "Lon": -76.65792}], "Mavoor": [{"Name": "Mavoor", "Country Code": "IN", "Population": 28313.0, "Lat": 11.26667, "Lon": 75.91667}], "Mavoro": [{"Name": "Mavoro", "Country Code": "MX", "Population": 1574.0, "Lat": 19.70417, "Lon": -99.82222}], "Mavou": [{"Name": "Mavou", "Country Code": "CI", "Population": 2479.0, "Lat": 6.005, "Lon": -6.61139}], "Mavrinci": [{"Name": "Mavrinci", "Country Code": "HR", "Population": 1035.0, "Lat": 45.34771, "Lon": 14.50209}], "Mavrochori": [{"Name": "Mavroch\u00f3ri", "Country Code": "GR", "Population": 1287.0, "Lat": 40.51224, "Lon": 21.32038}], "Mavrodin": [{"Name": "Mavrodin", "Country Code": "RO", "Population": 5628.0, "Lat": 44.03333, "Lon": 25.25}, {"Name": "Mavrodin", "Country Code": "RO", "Population": 1109.0, "Lat": 44.64919, "Lon": 25.71731}], "Mavrommati": [{"Name": "Mavromm\u00e1ti", "Country Code": "GR", "Population": 1426.0, "Lat": 39.42386, "Lon": 21.69379}], "Mavrothalassa": [{"Name": "Mavroth\u00e1lassa", "Country Code": "GR", "Population": 1572.0, "Lat": 40.89427, "Lon": 23.75048}], "Mavrovouni": [{"Name": "Mavrovo\u00fani", "Country Code": "GR", "Population": 1067.0, "Lat": 40.78243, "Lon": 22.15629}], "Mawab": [{"Name": "Mawab", "Country Code": "PH", "Population": 0.0, "Lat": 7.56667, "Lon": 125.98333}], "Mawalgama": [{"Name": "Mawalgama", "Country Code": "LK", "Population": 2033.0, "Lat": 6.9153, "Lon": 80.1302}], "Mawana": [{"Name": "Maw\u0101na", "Country Code": "IN", "Population": 76973.0, "Lat": 29.10288, "Lon": 77.92199}], "Mawang": [{"Name": "Mawang", "Country Code": "CN", "Population": 33456.0, "Lat": 28.89331, "Lon": 108.95114}], "Mawet": [{"Name": "Mawet", "Country Code": "IQ", "Population": 1464.0, "Lat": 35.90123, "Lon": 45.41422}], "Mawiyah": [{"Name": "M\u0101wiyah", "Country Code": "YE", "Population": 0.0, "Lat": 13.58295, "Lon": 44.34768}], "Mawlaik": [{"Name": "Mawlaik", "Country Code": "MM", "Population": 44540.0, "Lat": 23.64254, "Lon": 94.40478}], "Mawlamyine": [{"Name": "Mawlamyine", "Country Code": "MM", "Population": 438861.0, "Lat": 16.49051, "Lon": 97.62825}], "Mawlamyinegyunn": [{"Name": "Mawlamyinegyunn", "Country Code": "MM", "Population": 39115.0, "Lat": 16.3772, "Lon": 95.26488}], "Mawson": [{"Name": "Mawson", "Country Code": "AU", "Population": 3163.0, "Lat": -35.3634, "Lon": 149.09863}], "Mawson Lakes": [{"Name": "Mawson Lakes", "Country Code": "AU", "Population": 13220.0, "Lat": -34.81589, "Lon": 138.60809}], "Mawu": [{"Name": "Mawu", "Country Code": "CN", "Population": 8646.0, "Lat": 29.78727, "Lon": 108.3452}, {"Name": "Mawu", "Country Code": "CN", "Population": 11015.0, "Lat": 34.42639, "Lon": 104.91472},