{"Juban": [{"Name": "Juban", "Country Code": "PH", "Population": 4075.0, "Lat": 12.84778, "Lon": 123.98778}, {"Name": "Juban", "Country Code": "YE", "Population": 0.0, "Lat": 14.01164, "Lon": 44.8746}], "Jubasan": [{"Name": "Jubasan", "Country Code": "PH", "Population": 2328.0, "Lat": 12.4844, "Lon": 124.2872}], "Jubb Ramlah": [{"Name": "Jubb Ramlah", "Country Code": "SY", "Population": 0.0, "Lat": 35.20922, "Lon": 36.43104}], "Jubb al Jarrah": [{"Name": "Jubb al Jarr\u0101\u1e29", "Country Code": "SY", "Population": 0.0, "Lat": 34.83444, "Lon": 37.32396}], "Jubbal": [{"Name": "Jubbal", "Country Code": "IN", "Population": 1327.0, "Lat": 31.10923, "Lon": 77.65085}], "Jubbega": [{"Name": "Jubbega", "Country Code": "NL", "Population": 3295.0, "Lat": 53.00396, "Lon": 6.12183}], "Jubilee Pocket": [{"Name": "Jubilee Pocket", "Country Code": "AU", "Population": 2016.0, "Lat": -20.28809, "Lon": 148.72938}], "Jubrique": [{"Name": "Jubrique", "Country Code": "ES", "Population": 729.0, "Lat": 36.56475, "Lon": -5.2156}], "Jucas": [{"Name": "Juc\u00e1s", "Country Code": "BR", "Population": 14821.0, "Lat": -6.52528, "Lon": -39.5275}], "Juchen": [{"Name": "J\u00fcchen", "Country Code": "DE", "Population": 22562.0, "Lat": 51.1, "Lon": 6.5}], "Juchipila": [{"Name": "Juchipila", "Country Code": "MX", "Population": 6035.0, "Lat": 21.40862, "Lon": -103.11663}], "Juchique de Ferrer": [{"Name": "Juchique de Ferrer", "Country Code": "MX", "Population": 2766.0, "Lat": 19.83985, "Lon": -96.69463}], "Juchitan": [{"Name": "Juchit\u00e1n", "Country Code": "MX", "Population": 3346.0, "Lat": 16.62402, "Lon": -98.64028}], "Juchitan de Zaragoza": [{"Name": "Juchit\u00e1n de Zaragoza", "Country Code": "MX", "Population": 74825.0, "Lat": 16.43603, "Lon": -95.01975}], "Juchitepec": [{"Name": "Juchitepec", "Country Code": "MX", "Population": 16021.0, "Lat": 19.10059, "Lon": -98.8788}], "Juchitlan": [{"Name": "Juchitl\u00e1n", "Country Code": "MX", "Population": 3468.0, "Lat": 20.08557, "Lon": -104.09867}], "Jucuapa": [{"Name": "Jucuapa", "Country Code": "SV", "Population": 10601.0, "Lat": 13.51667, "Lon": -88.38333}], "Jucuaran": [{"Name": "Jucuar\u00e1n", "Country Code": "SV", "Population": 1643.0, "Lat": 13.25389, "Lon": -88.24778}], "Jucul": [{"Name": "Jucul", "Country Code": "PE", "Population": 235.0, "Lat": -10.94861, "Lon": -76.745}], "Jucurutu": [{"Name": "Jucurutu", "Country Code": "BR", "Population": 11535.0, "Lat": -6.03389, "Lon": -37.02028}], "Jucutacato": [{"Name": "Jucutacato", "Country Code": "MX", "Population": 1442.0, "Lat": 19.37771, "Lon": -102.07924}], "Judaberg": [{"Name": "Judaberg", "Country Code": "NO", "Population": 560.0, "Lat": 59.17204, "Lon": 5.87617}], "Judaydah": [{"Name": "Judaydah", "Country Code": "YE", "Population": 0.0, "Lat": 15.07512, "Lon": 45.29962}], "Judeida Makr": [{"Name": "Judeida Makr", "Country Code": "IL", "Population": 21163.0, "Lat": 32.9282, "Lon": 35.15705}], "Judenbach": [{"Name": "Judenbach", "Country Code": "DE", "Population": 2730.0, "Lat": 50.39591, "Lon": 11.22099}], "Judenburg": [{"Name": "Judenburg", "Country Code": "AT", "Population": 8481.0, "Lat": 47.16667, "Lon": 14.66667}], "Judendorf": [{"Name": "Judendorf", "Country Code": "AT", "Population": 5475.0, "Lat": 47.4, "Lon": 15.1}, {"Name": "Judendorf", "Country Code": "AT", "Population": 1592.0, "Lat": 47.11667, "Lon": 15.35}], "Judgeford": [{"Name": "Judgeford", "Country Code": "NZ", "Population": 1080.0, "Lat": -41.11667, "Lon": 174.93333}], "Judian": [{"Name": "Judian", "Country Code": "CN", "Population": 21368.0, "Lat": 27.30612, "Lon": 99.6491}], "Judibana": [{"Name": "Judibana", "Country Code": "VE", "Population": 23182.0, "Lat": 11.75908, "Lon": -70.18418}], "Judita": [{"Name": "Judita", "Country Code": "JO", "Population": 20000.0, "Lat": 32.40792, "Lon": 35.70802}], "Judson": [{"Name": "Judson", "Country Code": "US", "Population": 2050.0, "Lat": 34.83317, "Lon": -82.42762}], "Judsonia": [{"Name": "Judsonia", "Country Code": "US", "Population": 2027.0, "Lat": 35.27009, "Lon": -91.63986}], "Juebek": [{"Name": "J\u00fcbek", "Country Code": "DE", "Population": 2581.0, "Lat": 54.55709, "Lon": 9.39773}], "Juechsen": [{"Name": "J\u00fcchsen", "Country Code": "DE", "Population": 1563.0, "Lat": 50.47993, "Lon": 10.50183}], "Juegang": [{"Name": "Juegang", "Country Code": "CN", "Population": 73317.0, "Lat": 32.31737, "Lon": 121.18552}], "Juehnde": [{"Name": "J\u00fchnde", "Country Code": "DE", "Population": 1086.0, "Lat": 51.46667, "Lon": 9.8}], "Juelich": [{"Name": "J\u00fclich", "Country Code": "DE", "Population": 33911.0, "Lat": 50.92149, "Lon": 6.36267}], "Juelsminde": [{"Name": "Juelsminde", "Country Code": "DK", "Population": 3667.0, "Lat": 55.70876, "Lon": 10.01668}], "Juenkerath": [{"Name": "J\u00fcnkerath", "Country Code": "DE", "Population": 1799.0, "Lat": 50.34412, "Lon": 6.58138}], "Juergenshagen": [{"Name": "J\u00fcrgenshagen", "Country Code": "DE", "Population": 1220.0, "Lat": 53.95417, "Lon": 11.89665}], "Jueri": [{"Name": "J\u00fcri", "Country Code": "EE", "Population": 2581.0, "Lat": 59.35974, "Lon": 24.92099}], "Jueterbog": [{"Name": "J\u00fcterbog", "Country Code": "DE", "Population": 13292.0, "Lat": 51.99607, "Lon": 13.07979}], "Juexi": [{"Name": "Juexi", "Country Code": "CN", "Population": 43527.0, "Lat": 28.9241, "Lon": 104.26154}], "Jugenheim": [{"Name": "Jugenheim", "Country Code": "DE", "Population": 1673.0, "Lat": 49.89362, "Lon": 8.08468}], "Jugno": [{"Name": "Jugno", "Country Code": "PH", "Population": 3778.0, "Lat": 9.4683, "Lon": 123.2038}], "Jugon-les-Lacs": [{"Name": "Jugon-les-Lacs", "Country Code": "FR", "Population": 1416.0, "Lat": 48.41667, "Lon": -2.33333}], "Jugow": [{"Name": "Jug\u00f3w", "Country Code": "PL", "Population": 3700.0, "Lat": 50.62758, "Lon": 16.51812}], "Jugsalai": [{"Name": "Jugs\u0101lai", "Country Code": "IN", "Population": 49410.0, "Lat": 22.77668, "Lon": 86.18351}], "Jugur": [{"Name": "Jugur", "Country Code": "RO", "Population": 1345.0, "Lat": 45.19255, "Lon": 25.08493}], "Jugureanu": [{"Name": "Jugureanu", "Country Code": "RO", "Population": 1339.0, "Lat": 44.94313, "Lon": 27.27878}], "Jugureni": [{"Name": "Jugureni", "Country Code": "RO", "Population": 730.0, "Lat": 45.1, "Lon": 26.45}], "Juhaynah": [{"Name": "Juhaynah", "Country Code": "EG", "Population": 76555.0, "Lat": 26.67418, "Lon": 31.49686}], "Juhr ad Dik": [{"Name": "Ju\u1e29r ad D\u012bk", "Country Code": "PS", "Population": 2880.0, "Lat": 31.45571, "Lon": 34.43719}], "Juia": [{"Name": "Jui\u00e0", "Country Code": "ES", "Population": 0.0, "Lat": 42.01667, "Lon": 2.91667}], "Juigalpa": [{"Name": "Juigalpa", "Country Code": "NI", "Population": 50000.0, "Lat": 12.10629, "Lon": -85.36452}], "Juigne": [{"Name": "Juign\u00e9", "Country Code": "FR", "Population": 7007.0, "Lat": 47.71878, "Lon": -0.39405}], "Juigne sur Loire": [{"Name": "Juign\u00e9 sur Loire", "Country Code": "FR", "Population": 2412.0, "Lat": 47.4075, "Lon": -0.4761}], "Juigne-sur-Sarthe": [{"Name": "Juign\u00e9-sur-Sarthe", "Country Code": "FR", "Population": 1232.0, "Lat": 47.86388, "Lon": -0.28667}], "Juillac": [{"Name": "Juillac", "Country Code": "FR", "Population": 1130.0, "Lat": 45.31808, "Lon": 1.32257}], "Juillan": [{"Name": "Juillan", "Country Code": "FR", "Population": 3759.0, "Lat": 43.20072, "Lon": 0.02326}], "Juilly": [{"Name": "Juilly", "Country Code": "FR", "Population": 2195.0, "Lat": 49.01375, "Lon": 2.70563}], "Juist": [{"Name": "Juist", "Country Code": "DE", "Population": 1751.0, "Lat": 53.67787, "Lon": 6.99575}], "Juiz de Fora": [{"Name": "Juiz de Fora", "Country Code": "BR", "Population": 573285.0, "Lat": -21.76417, "Lon": -43.35028}], "Juja": [{"Name": "Juja", "Country Code": "KE", "Population": 156041.0, "Lat": -1.10148, "Lon": 37.0132}], "Jujurieux": [{"Name": "Jujurieux", "Country Code": "FR", "Population": 1871.0, "Lat": 46.04122, "Lon": 5.40855}], "Jujutla": [{"Name": "Jujutla", "Country Code": "SV", "Population": 2022.0, "Lat": 13.78694, "Lon": -89.85722}], "Jukui": [{"Name": "Jukui", "Country Code": "CN", "Population": 32971.0, "Lat": 30.63588, "Lon": 107.59633}], "Julatten": [{"Name": "Julatten", "Country Code": "AU", "Population": 1095.0, "Lat": -16.6072, "Lon": 145.34118}], "Julayjilah": [{"Name": "Julayjilah", "Country Code": "SA", "Population": 5359.0, "Lat": 25.5, "Lon": 49.6}], "Julbach": [{"Name": "Julbach", "Country Code": "DE", "Population": 2317.0, "Lat": 48.2543, "Lon": 12.95793}], "Julcamarca": [{"Name": "Julcamarca", "Country Code": "PE", "Population": 816.0, "Lat": -13.01516, "Lon": -74.44541}], "Julcan": [{"Name": "Julcan", "Country Code": "PE", "Population": 845.0, "Lat": -11.76101, "Lon": -75.43918}], "Julesburg": [{"Name": "Julesburg", "Country Code": "US", "Population": 1237.0, "Lat": 40.98833, "Lon": -102.26435}], "Juli": [{"Name": "Juli", "Country Code": "ID", "Population": 0.0, "Lat": 5.10782, "Lon": 96.71058}, {"Name": "Juli", "Country Code": "PE", "Population": 7309.0, "Lat": -16.21667, "Lon": -69.45}], "Juliaca": [{"Name": "Juliaca", "Country Code": "PE", "Population": 245675.0, "Lat": -15.5, "Lon": -70.13333}], "Julian": [{"Name": "Julian", "Country Code": "US", "Population": 1502.0, "Lat": 33.07866, "Lon": -116.60196}], "Julian Blanco (Dos Caminos)": [{"Name": "Juli\u00e1n Blanco (Dos Caminos)", "Country Code": "MX", "Population": 1955.0, "Lat": 17.21889, "Lon": -99.52472}], "Julian Grajales": [{"Name": "Juli\u00e1n Grajales", "Country Code": "MX", "Population": 1293.0, "Lat": 16.42917, "Lon": -93.71417}, {"Name": "Juli\u00e1n Grajales", "Country Code": "MX", "Population": 2394.0, "Lat": 16.48709, "Lon": -92.96932}], "Julian Villagran": [{"Name": "Juli\u00e1n Villagr\u00e1n", "Country Code": "MX", "Population": 1314.0, "Lat": 20.39645, "Lon": -99.10431}], "Julimes": [{"Name": "Julimes", "Country Code": "MX", "Population": 1795.0, "Lat": 28.42376, "Lon": -105.42727}], "Julio de Castilhos": [{"Name": "J\u00falio de Castilhos", "Country Code": "BR", "Population": 20388.0, "Lat": -29.22694, "Lon": -53.68167}], "Julis": [{"Name": "J\u016blis", "Country Code": "IL", "Population": 6465.0, "Lat": 32.94267, "Lon": 35.18278}], "Julita": [{"Name": "Julita", "Country Code": "PH", "Population": 2997.0, "Lat": 10.97472, "Lon": 124.96167}], "Jullouville": [{"Name": "Jullouville", "Country Code": "FR", "Population": 1517.0, "Lat": 48.77576, "Lon": -1.56366}], "Julun": [{"Name": "Julun", "Country Code": "CN", "Population": 0.0, "Lat": 37.9074, "Lon": 112.55774}], "Juma Shahri": [{"Name": "Juma Shahri", "Country Code": "UZ", "Population": 19920.0, "Lat": 39.71611, "Lon": 66.66417}], "Jumelles": [{"Name": "Jumelles", "Country Code": "FR", "Population": 7328.0, "Lat": 47.43517, "Lon": -0.10371}], "Jumet": [{"Name": "Jumet", "Country Code": "BE", "Population": 24510.0, "Lat": 50.4422, "Lon": 4.43745}], "Jumieges": [{"Name": "Jumi\u00e8ges", "Country Code": "FR", "Population": 1748.0, "Lat": 49.43324, "Lon": 0.81918}], "Jumilhac-le-Grand": [{"Name": "Jumilhac-le-Grand", "Country Code": "FR", "Population": 1344.0, "Lat": 45.4945, "Lon": 1.06398}], "Jumilla": [{"Name": "Jumilla", "Country Code": "ES", "Population": 25685.0, "Lat": 38.47917, "Lon": -1.325}], "Jumiltepec": [{"Name": "Jumiltepec", "Country Code": "MX", "Population": 3859.0, "Lat": 18.91359, "Lon": -98.77666}], "Jumla": [{"Name": "Jumla", "Country Code": "NP", "Population": 9073.0, "Lat": 29.27472, "Lon": 82.18383}], "Jumpangdua": [{"Name": "Jumpangdua", "Country Code": "ID", "Population": 0.0, "Lat": 5.19669, "Lon": 96.78445}], "Jumprava": [{"Name": "Jumprava", "Country Code": "LV", "Population": 2177.0, "Lat": 56.67613, "Lon": 24.9721}], "Jumunjin": [{"Name": "Jumunjin", "Country Code": "KR", "Population": 20600.0, "Lat": 37.89139, "Lon": 128.82583}], "Jun": [{"Name": "Jun", "Country Code": "ES", "Population": 0.0, "Lat": 37.22083, "Lon": -3.59407}], "Junagadh": [{"Name": "J\u016bn\u0101gadh", "Country Code": "IN", "Population": 184447.0, "Lat": 21.51966, "Lon": 70.45981}], "Junagarh": [{"Name": "J\u016bn\u0101garh", "Country Code": "IN", "Population": 16856.0, "Lat": 19.85993, "Lon": 82.93385}], "Junaynat Raslan": [{"Name": "Junaynat Rasl\u0101n", "Country Code": "SY", "Population": 0.0, "Lat": 34.92789, "Lon": 36.124}], "Juncal": [{"Name": "Juncal", "Country Code": "PR", "Population": 1155.0, "Lat": 18.31384, "Lon": -66.91907}, {"Name": "Juncal", "Country Code": "PT", "Population": 1425.0, "Lat": 39.60243, "Lon": -8.89928}], "Juncalito Abajo": [{"Name": "Juncalito Abajo", "Country Code": "DO", "Population": 1229.0, "Lat": 19.2199, "Lon": -70.81905}], "Junciana": [{"Name": "Junciana", "Country Code": "ES", "Population": 81.0, "Lat": 40.41076, "Lon": -5.55698}], "Juncos": [{"Name": "Juncos", "Country Code": "PR", "Population": 8905.0, "Lat": 18.22746, "Lon": -65.921}], "Juncosa": [{"Name": "Juncosa", "Country Code": "ES", "Population": 0.0, "Lat": 41.37033, "Lon": 0.7765}], "Junction": [{"Name": "Junction", "Country Code": "US", "Population": 183.0, "Lat": 38.23748, "Lon": -112.21993}, {"Name": "Junction", "Country Code": "US", "Population": 2444.0, "Lat": 30.48936, "Lon": -99.77201}], "Junction Area": [{"Name": "Junction Area", "Country Code": "CA", "Population": 14366.0, "Lat": 43.66789, "Lon": -79.47144}], "Junction City": [{"Name": "Junction City", "Country Code": "US", "Population": 24621.0, "Lat": 39.02861, "Lon": -96.8314}, {"Name": "Junction City", "Country Code": "US", "Population": 5842.0, "Lat": 44.21929, "Lon": -123.20565}, {"Name": "Junction City", "Country Code": "US", "Population": 2283.0, "Lat": 37.58674, "Lon": -84.79384}], "Junction Hill": [{"Name": "Junction Hill", "Country Code": "AU", "Population": 1335.0, "Lat": -29.64113, "Lon": 152.92491}], "Junction Village": [{"Name": "Junction Village", "Country Code": "AU", "Population": 1034.0, "Lat": -38.13636, "Lon": 145.29684}], "Jundia": [{"Name": "Jundi\u00e1", "Country Code": "BR", "Population": 2267.0, "Lat": -8.93472, "Lon": -35.57361}, {"Name": "Jundi\u00e1", "Country Code": "BR", "Population": 0.0, "Lat": -6.27012, "Lon": -35.32723}], "Jundiai": [{"Name": "Jundia\u00ed", "Country Code": "BR", "Population": 321589.0, "Lat": -23.18639, "Lon": -46.88417}], "June Park": [{"Name": "June Park", "Country Code": "US", "Population": 4094.0, "Lat": 28.07224, "Lon": -80.68006}], "Juneau": [{"Name": "Juneau", "Country Code": "US", "Population": 2692.0, "Lat": 43.40555, "Lon": -88.7051}, {"Name": "Juneau", "Country Code": "US", "Population": 32756.0, "Lat": 58.30194, "Lon": -134.41972}], "Juneda": [{"Name": "Juneda", "Country Code": "ES", "Population": 3048.0, "Lat": 41.54847, "Lon": 0.82451}], "Junee": [{"Name": "Junee", "Country Code": "AU", "Population": 4833.0, "Lat": -34.86819, "Lon": 147.58273}], "Jungapeo de Juarez": [{"Name": "Jungapeo de Ju\u00e1rez", "Country Code": "MX", "Population": 5073.0, "Lat": 19.45915, "Lon": -100.49483}], "Jungholz": [{"Name": "Jungholz", "Country Code": "AT", "Population": 301.0, "Lat": 47.57409, "Lon": 10.44723}], "Jungingen": [{"Name": "Jungingen", "Country Code": "DE", "Population": 1469.0, "Lat": 48.32787, "Lon": 9.04095}], "Junglinster": [{"Name": "Junglinster", "Country Code": "LU", "Population": 2358.0, "Lat": 49.70722, "Lon": 6.25306}], "Junik": [{"Name": "Junik", "Country Code": "XK", "Population": 4.0, "Lat": 42.47583, "Lon": 20.27722}], "Junin": [{"Name": "Jun\u00edn", "Country Code": "AR", "Population": 87509.0, "Lat": -34.59391, "Lon": -60.94644}, {"Name": "Jun\u00edn", "Country Code": "AR", "Population": 0.0, "Lat": -33.14653, "Lon": -68.48727}, {"Name": "Jun\u00edn", "Country Code": "CO", "Population": 1499.0, "Lat": 4.79027, "Lon": -73.66011}, {"Name": "Jun\u00edn", "Country Code": "CO", "Population": 11158.0, "Lat": 4.78333, "Lon": -75.01667}, {"Name": "Jun\u00edn", "Country Code": "EC", "Population": 9128.0, "Lat": -0.92777, "Lon": -80.20583}, {"Name": "Jun\u00edn", "Country Code": "PE", "Population": 15320.0, "Lat": -11.15895, "Lon": -75.99304}], "Junin de los Andes": [{"Name": "Jun\u00edn de los Andes", "Country Code": "AR", "Population": 10592.0, "Lat": -39.94931, "Lon": -71.07543}], "Junlian": [{"Name": "Junlian", "Country Code": "CN", "Population": 80708.0, "Lat": 28.17106, "Lon": 104.51162}], "Junnar": [{"Name": "Junnar", "Country Code": "IN", "Population": 25997.0, "Lat": 19.20815, "Lon": 73.8752}], "Juno Beach": [{"Name": "Juno Beach", "Country Code": "US", "Population": 3474.0, "Lat": 26.87978, "Lon": -80.05337}], "Junortoun": [{"Name": "Junortoun", "Country Code": "AU", "Population": 3099.0, "Lat": -36.77106, "Lon": 144.36311}], "Junqueiro": [{"Name": "Junqueiro", "Country Code": "BR", "Population": 7740.0, "Lat": -9.92528, "Lon": -36.47583}], "Junqueiropolis": [{"Name": "Junqueir\u00f3polis", "Country Code": "BR", "Population": 13965.0, "Lat": -21.51472, "Lon": -51.43361}], "Juntas": [{"Name": "Juntas", "Country Code": "CR", "Population": 4737.0, "Lat": 10.28082, "Lon": -84.95912}], "Junxi": [{"Name": "Junxi", "Country Code": "CN", "Population": 0.0, "Lat": 25.69795, "Lon": 117.84541}], "Junyang": [{"Name": "Junyang", "Country Code": "CN", "Population": 0.0, "Lat": 28.41298, "Lon": 115.37668}], "Juodupe": [{"Name": "Juodup\u0117", "Country Code": "LT", "Population": 1989.0, "Lat": 56.087, "Lon": 25.607}], "Jupanesti": [{"Name": "Jup\u00e2ne\u015fti", "Country Code": "RO", "Population": 0.0, "Lat": 44.9, "Lon": 23.53333}, {"Name": "Jup\u00e2ne\u0219ti", "Country Code": "RO", "Population": 1123.0, "Lat": 45.06667, "Lon": 24.85}], "Jupille-sur-Meuse": [{"Name": "Jupille-sur-Meuse", "Country Code": "BE", "Population": 10604.0, "Lat": 50.64587, "Lon": 5.63307}], "Jupiter": [{"Name": "Jupiter", "Country Code": "US", "Population": 62707.0, "Lat": 26.93422, "Lon": -80.09421}], "Juprelle": [{"Name": "Juprelle", "Country Code": "BE", "Population": 8354.0, "Lat": 50.7076, "Lon": 5.53127}], "Juquia": [{"Name": "Juqui\u00e1", "Country Code": "BR", "Population": 13497.0, "Lat": -24.32083, "Lon": -47.63472}], "Juquitiba": [{"Name": "Juquitiba", "Country Code": "BR", "Population": 13959.0, "Lat": -23.93167, "Lon": -47.06833}], "Jurado": [{"Name": "Jurad\u00f3", "Country Code": "CO", "Population": 2351.0, "Lat": 7.10421, "Lon": -77.762}], "Jurancon": [{"Name": "Juran\u00e7on", "Country Code": "FR", "Population": 7041.0, "Lat": 43.2883, "Lon": -0.38694}], "Jurare": [{"Name": "Jurar\u00e9", "Country Code": "MX", "Population": 1451.0, "Lat": 26.80191, "Lon": -109.70198}], "Jurat ash Sham'ah": [{"Name": "J\u016brat ash Sham\u2018ah", "Country Code": "PS", "Population": 1472.0, "Lat": 31.65051, "Lon": 35.17001}], "Juraynah": [{"Name": "Juraynah", "Country Code": "JO", "Population": 0.0, "Lat": 31.76, "Lon": 35.79466}], "Jurbarkas": [{"Name": "Jurbarkas", "Country Code": "LT", "Population": 10186.0, "Lat": 55.07556, "Lon": 22.76416}], "Jurbise": [{"Name": "Jurbise", "Country Code": "BE", "Population": 9483.0, "Lat": 50.531, "Lon": 3.90942}], "Jurby": [{"Name": "Jurby", "Country Code": "IM", "Population": 0.0, "Lat": 54.35941, "Lon": -4.52199}], "Jurien Bay": [{"Name": "Jurien Bay", "Country Code": "AU", "Population": 1773.0, "Lat": -30.30591, "Lon": 115.03825}], "Jurilovca": [{"Name": "Jurilovca", "Country Code": "RO", "Population": 5133.0, "Lat": 44.76667, "Lon": 28.86667}], "Juripiranga": [{"Name": "Juripiranga", "Country Code": "BR", "Population": 8320.0, "Lat": -7.37333, "Lon": -35.23806}], "Juriquilla": [{"Name": "Juriquilla", "Country Code": "MX", "Population": 13309.0, "Lat": 20.71277, "Lon": -100.45568}], "Jurish": [{"Name": "J\u016br\u012bsh", "Country Code": "PS", "Population": 1385.0, "Lat": 32.10188, "Lon": 35.32188}], "Jurm": [{"Name": "Jurm", "Country Code": "AF", "Population": 12106.0, "Lat": 36.86477, "Lon": 70.83421}], "Jurmala": [{"Name": "J\u016brmala", "Country Code": "LV", "Population": 54088.0, "Lat": 56.968, "Lon": 23.77038}], "Jurong Town": [{"Name": "Jurong Town", "Country Code": "SG", "Population": 262730.0, "Lat": 1.33417, "Lon": 103.72278}], "Jurovski Dol": [{"Name": "Jurovski Dol", "Country Code": "SI", "Population": 385.0, "Lat": 46.60639, "Lon": 15.78472}], "Jursinci": [{"Name": "Jur\u0161inci", "Country Code": "SI", "Population": 381.0, "Lat": 46.48472, "Lon": 15.97139}], "Jursla": [{"Name": "Jursla", "Country Code": "SE", "Population": 1647.0, "Lat": 58.66667, "Lon": 16.18333}], "Juru": [{"Name": "Juru", "Country Code": "BR", "Population": 3796.0, "Lat": -7.53694, "Lon": -37.81861}, {"Name": "Juru", "Country Code": "MY", "Population": 12265.0, "Lat": 5.31201, "Lon": 100.44229}], "Jurumleri": [{"Name": "\u0408\u0443\u0440\u0443\u043c\u043b\u0435\u0440\u0438", "Country Code": "MK", "Population": 2061.0, "Lat": 41.96722, "Lon": 21.55694}], "Jurupa Valley": [{"Name": "Jurupa Valley", "Country Code": "US", "Population": 21930.0, "Lat": 33.99251, "Lon": -117.51644}], "Juruti": [{"Name": "Juruti", "Country Code": "BR", "Population": 13333.0, "Lat": -2.15222, "Lon": -56.09222}], "Jurva": [{"Name": "Jurva", "Country Code": "FI", "Population": 4450.0, "Lat": 62.68333, "Lon": 21.98333}], "Jussac": [{"Name": "Jussac", "Country Code": "FR", "Population": 1827.0, "Lat": 44.98764, "Lon": 2.42308}], "Jussey": [{"Name": "Jussey", "Country Code": "FR", "Population": 1828.0, "Lat": 47.82536, "Lon": 5.90193}], "Jussy": [{"Name": "Jussy", "Country Code": "CH", "Population": 1356.0, "Lat": 46.2359, "Lon": 6.26701}, {"Name": "Jussy", "Country Code": "FR", "Population": 1300.0, "Lat": 49.71984, "Lon": 3.2327}], "Justel": [{"Name": "Justel", "Country Code": "ES", "Population": 148.0, "Lat": 42.14861, "Lon": -6.29594}], "Justice": [{"Name": "Justice", "Country Code": "US", "Population": 12968.0, "Lat": 41.74448, "Lon": -87.83783}, {"Name": "Justice", "Country Code": "US", "Population": 1324.0, "Lat": 36.29287, "Lon": -95.56664}], "Justin": [{"Name": "Justin", "Country Code": "US", "Population": 3437.0, "Lat": 33.08484, "Lon": -97.29613}], "Justiniano Posse": [{"Name": "Justiniano Posse", "Country Code": "AR", "Population": 7406.0, "Lat": -32.88344, "Lon": -62.67965}], "Justiniskes": [{"Name": "Justini\u0161k\u0117s", "Country Code": "LT", "Population": 31000.0, "Lat": 54.71664, "Lon": 25.2174}], "Justo Daract": [{"Name": "Justo Daract", "Country Code": "AR", "Population": 9680.0, "Lat": -33.86056, "Lon": -65.18224}], "Justo Sierra": [{"Name": "Justo Sierra", "Country Code": "MX", "Population": 1386.0, "Lat": 16.54248, "Lon": -92.05737}], "Justvik": [{"Name": "Justvik", "Country Code": "NO", "Population": 1630.0, "Lat": 58.19691, "Lon": 8.03107}], "Juszczyn": [{"Name": "Juszczyn", "Country Code": "PL", "Population": 2511.0, "Lat": 49.6929, "Lon": 19.69128}], "Juszczyna": [{"Name": "Juszczyna", "Country Code": "PL", "Population": 1693.0, "Lat": 49.62984, "Lon": 19.22032}], "Jutai": [{"Name": "Juta\u00ed", "Country Code": "BR", "Population": 5862.0, "Lat": -5.18333, "Lon": -68.9}], "Jutiapa": [{"Name": "Jutiapa", "Country Code": "GT", "Population": 145880.0, "Lat": 14.29167, "Lon": -89.89583}, {"Name": "Jutiapa", "Country Code": "HN", "Population": 2815.0, "Lat": 15.76667, "Lon": -86.51667}, {"Name": "Jutiapa", "Country Code": "HN", "Population": 1153.0, "Lat": 13.98333, "Lon": -86.4}], "Juticalpa": [{"Name": "Juticalpa", "Country Code": "HN", "Population": 33686.0, "Lat": 14.66667, "Lon": -86.21944}], "Jutiquile": [{"Name": "Jutiquile", "Country Code": "HN", "Population": 3585.0, "Lat": 14.71667, "Lon": -86.08333}], "Jutogh": [{"Name": "Jutogh", "Country Code": "IN", "Population": 2467.0, "Lat": 31.1, "Lon": 77.11667}], "Jutou": [{"Name": "Jutou", "Country Code": "CN", "Population": 16390.0, "Lat": 34.82083, "Lon": 105.03389}], "Jutrosin": [{"Name": "Jutrosin", "Country Code": "PL", "Population": 1908.0, "Lat": 51.65009, "Lon": 17.16957}], "Juuka": [{"Name": "Juuka", "Country Code": "FI", "Population": 6035.0, "Lat": 63.23333, "Lon": 29.25}], "Juupajoki": [{"Name": "Juupajoki", "Country Code": "FI", "Population": 2110.0, "Lat": 61.79901, "Lon": 24.36939}], "Juva": [{"Name": "Juva", "Country Code": "FI", "Population": 7165.0, "Lat": 61.9, "Lon": 27.85}], "Juventino Rosas": [{"Name": "Juventino Rosas", "Country Code": "MX", "Population": 42264.0, "Lat": 20.64337, "Lon": -100.99286}], "Juvignac": [{"Name": "Juvignac", "Country Code": "FR", "Population": 6281.0, "Lat": 43.61389, "Lon": 3.81056}], "Juvigne": [{"Name": "Juvign\u00e9", "Country Code": "FR", "Population": 1405.0, "Lat": 48.22992, "Lon": -1.03522}], "Juvigny-sous-Andaine": [{"Name": "Juvigny-sous-Andaine", "Country Code": "FR", "Population": 1071.0, "Lat": 48.55194, "Lon": -0.50878}], "Juviles": [{"Name": "Juviles", "Country Code": "ES", "Population": 192.0, "Lat": 36.94879, "Lon": -3.22586}], "Juvisy-sur-Orge": [{"Name": "Juvisy-sur-Orge", "Country Code": "FR", "Population": 12376.0, "Lat": 48.68333, "Lon": 2.38333}], "Juwana": [{"Name": "Juwana", "Country Code": "ID", "Population": 40177.0, "Lat": -6.715, "Lon": 111.1514}], "Juybar": [{"Name": "J\u016byb\u0101r", "Country Code": "IR", "Population": 28404.0, "Lat": 36.64088, "Lon": 52.91206}], "Juye": [{"Name": "Juye", "Country Code": "CN", "Population": 58107.0, "Lat": 35.38737, "Lon": 116.07168}], "Juzbado": [{"Name": "Juzbado", "Country Code": "ES", "Population": 186.0, "Lat": 41.07791, "Lon": -5.8614}], "Juzcar": [{"Name": "J\u00fazcar", "Country Code": "ES", "Population": 193.0, "Lat": 36.62442, "Lon": -5.16971}], "Juziers": [{"Name": "Juziers", "Country Code": "FR", "Population": 3545.0, "Lat": 48.99137, "Lon": 1.8476}], "Jvara": [{"Name": "Jvara", "Country Code": "GE", "Population": 3038.0, "Lat": 41.52514, "Lon": 44.3472}], "Jvari": [{"Name": "Jvari", "Country Code": "GE", "Population": 4756.0, "Lat": 42.71693, "Lon": 42.052}], "Jwaneng": [{"Name": "Jwaneng", "Country Code": "BW", "Population": 18784.0, "Lat": -24.60167, "Lon": 24.72806}], "Jyderup": [{"Name": "Jyderup", "Country Code": "DK", "Population": 4325.0, "Lat": 55.83689, "Lon": 11.55333}, {"Name": "Jyderup", "Country Code": "DK", "Population": 4303.0, "Lat": 55.66399, "Lon": 11.42029}], "Jyllinge": [{"Name": "Jyllinge", "Country Code": "DK", "Population": 10134.0, "Lat": 55.75295, "Lon": 12.10315}], "Jyvaeskylae": [{"Name": "Jyv\u00e4skyl\u00e4", "Country Code": "FI", "Population": 144477.0, "Lat": 62.24147, "Lon": 25.72088}], "K Bang": [{"Name": "K Bang", "Country Code": "VN", "Population": 0.0, "Lat": 14.14453, "Lon": 108.59908}], "K'anak'erravan": [{"Name": "K\u2019anak\u2019erravan", "Country Code": "AM", "Population": 2950.0, "Lat": 40.24739, "Lon": 44.53511}], "K'ardenakhi": [{"Name": "K\u2019ardenakhi", "Country Code": "GE", "Population": 3873.0, "Lat": 41.67364, "Lon": 45.8893}], "K'asp'i": [{"Name": "K\u2019asp\u2019i", "Country Code": "GE", "Population": 14734.0, "Lat": 41.9252, "Lon": 44.42568}], "K'atskhi": [{"Name": "K\u2019atskhi", "Country Code": "GE", "Population": 2000.0, "Lat": 42.28388, "Lon": 43.20872}], "K'ola Diba": [{"Name": "K\u2019ola Diba", "Country Code": "ET", "Population": 27300.0, "Lat": 12.42417, "Lon": 37.325}], "K'olito": [{"Name": "K\u2019ol\u012bto", "Country Code": "ET", "Population": 72200.0, "Lat": 7.31667, "Lon": 38.08333}], "K'ulashi": [{"Name": "K\u2019ulashi", "Country Code": "GE", "Population": 1702.0, "Lat": 42.2064, "Lon": 42.34606}], "K'urdghelauri": [{"Name": "K\u2019urdghelauri", "Country Code": "GE", "Population": 3962.0, "Lat": 41.92937, "Lon": 45.4881}], "K. I. Sawyer Air Force Base": [{"Name": "K. I. Sawyer Air Force Base", "Country Code": "US", "Population": 2624.0, "Lat": 46.34651, "Lon": -87.38632}], "Ka Bang": [{"Name": "Ka Bang", "Country Code": "TH", "Population": 0.0, "Lat": 6.41536, "Lon": 101.05456}], "Ka Lung Court": [{"Name": "Ka Lung Court", "Country Code": "HK", "Population": 3906.0, "Lat": 22.24948, "Lon": 114.13869}], "Ka Wai Chuen": [{"Name": "Ka Wai Chuen", "Country Code": "HK", "Population": 6634.0, "Lat": 22.30791, "Lon": 114.18648}], "Ka'a'awa": [{"Name": "Ka\u2018a\u2018awa", "Country Code": "US", "Population": 1379.0, "Lat": 21.55445, "Lon": -157.85103}], "Ka'abiyya": [{"Name": "Ka\u2018abiyya", "Country Code": "IL", "Population": 5504.0, "Lat": 32.74985, "Lon": 35.18361}], "Ka'anapali": [{"Name": "K\u0101\u2018anapali", "Country Code": "US", "Population": 1045.0, "Lat": 20.92881, "Lon": -156.69422}], "Ka'erdun": [{"Name": "Ka'erdun", "Country Code": "CN", "Population": 10232.0, "Lat": 43.90798, "Lon": 81.3434}], "Ka'erqin": [{"Name": "Ka'erqin", "Country Code": "CN", "Population": 10297.0, "Lat": 34.60869, "Lon": 103.35292}], "Ka'ersai": [{"Name": "Ka'ersai", "Country Code": "CN", "Population": 40892.0, "Lat": 37.48419, "Lon": 79.59562}], "Ka'i": [{"Name": "K\u0101\u2019\u012b", "Country Code": "AF", "Population": 0.0, "Lat": 34.12819, "Lon": 70.71828}], "Ka-Mahonisi": [{"Name": "Ka-Mahonisi", "Country Code": "ZA", "Population": 4490.0, "Lat": -23.05613, "Lon": 30.63581}], "Ka-Xihosana": [{"Name": "Ka-Xihosana", "Country Code": "ZA", "Population": 3050.0, "Lat": -23.16436, "Lon": 30.58221}], "KaNdengeza": [{"Name": "KaNdengeza", "Country Code": "ZA", "Population": 1267.0, "Lat": -23.26352, "Lon": 30.39554}], "Kaa-Khem": [{"Name": "Kaa-Khem", "Country Code": "RU", "Population": 10375.0, "Lat": 51.68333, "Lon": 94.73333}], "Kaabo": [{"Name": "Kaabo", "Country Code": "CI", "Population": 1107.0, "Lat": 7.61268, "Lon": -5.43768}], "Kaabong": [{"Name": "Kaabong", "Country Code": "UG", "Population": 0.0, "Lat": 3.48361, "Lon": 34.14917}], "Kaade": [{"Name": "Kaad\u00e9", "Country Code": "CI", "Population": 8883.0, "Lat": 6.56928, "Lon": -7.71427}], "Kaala-Gomen": [{"Name": "Kaala-Gom\u00e9n", "Country Code": "NC", "Population": 1897.0, "Lat": -20.66667, "Lon": 164.4}], "Kaalheide": [{"Name": "Kaalheide", "Country Code": "NL", "Population": 2840.0, "Lat": 50.86505, "Lon": 6.03643}], "Kaanapali Landing": [{"Name": "Kaanapali Landing", "Country Code": "US", "Population": 1943.0, "Lat": 20.9309, "Lon": -156.68778}], "Kaarela": [{"Name": "Kaarela", "Country Code": "FI", "Population": 26414.0, "Lat": 60.25174, "Lon": 24.88111}], "Kaarina": [{"Name": "Kaarina", "Country Code": "FI", "Population": 21684.0, "Lat": 60.40724, "Lon": 22.36904}], "Kaarst": [{"Name": "Kaarst", "Country Code": "DE", "Population": 42112.0, "Lat": 51.22929, "Lon": 6.61883}], "Kaavi": [{"Name": "Kaavi", "Country Code": "FI", "Population": 3538.0, "Lat": 62.98333, "Lon": 28.5}], "Kaba": [{"Name": "Kaba", "Country Code": "CN", "Population": 2302.0, "Lat": 33.98035, "Lon": 103.49484}, {"Name": "Kaba", "Country Code": "HU", "Population": 6392.0, "Lat": 47.35, "Lon": 21.28333}], "Kabac": [{"Name": "Kabac", "Country Code": "PH", "Population": 4149.0, "Lat": 11.2353, "Lon": 123.6979}], "Kabacan": [{"Name": "Kabacan", "Country Code": "PH", "Population": 31769.0, "Lat": 7.10667, "Lon": 124.82917}], "Kabaduz": [{"Name": "Kabad\u00fcz", "Country Code": "TR", "Population": 3642.0, "Lat": 40.86096, "Lon": 37.8847}], "Kabahaydar": [{"Name": "Kabahaydar", "Country Code": "TR", "Population": 0.0, "Lat": 37.4, "Lon": 39.08333}, {"Name": "Kabahaydar", "Country Code": "TR", "Population": 0.0, "Lat": 37.31338, "Lon": 39.00995}], "Kabakouma": [{"Name": "Kabakouma", "Country Code": "CI", "Population": 3668.0, "Lat": 7.72119, "Lon": -7.68693}], "Kabakovo": [{"Name": "Kabakovo", "Country Code": "RU", "Population": 3078.0, "Lat": 54.5369, "Lon": 56.1517}], "Kabala": [{"Name": "Kabala", "Country Code": "ML", "Population": 24241.0, "Lat": 12.52549, "Lon": -8.03927}, {"Name": "Kabala", "Country Code": "SL", "Population": 17948.0, "Lat": 9.58893, "Lon": -11.55256}, {"Name": "Kabala", "Country Code": "TR", "Population": 9275.0, "Lat": 37.35045, "Lon": 40.80287}], "Kabalantian": [{"Name": "Kabalantian", "Country Code": "PH", "Population": 3242.0, "Lat": 8.37083, "Lon": 124.3275}], "Kabale": [{"Name": "Kabale", "Country Code": "UG", "Population": 43500.0, "Lat": -1.24857, "Lon": 29.98993}], "Kabalen": [{"Name": "Kabalen", "Country Code": "PH", "Population": 4852.0, "Lat": 6.31944, "Lon": 125.01056}], "Kabali": [{"Name": "Kabal\u0131", "Country Code": "TR", "Population": 0.0, "Lat": 41.85211, "Lon": 35.06249}], "Kabalo": [{"Name": "Kabalo", "Country Code": "CD", "Population": 81191.0, "Lat": -6.05255, "Lon": 26.9143}], "Kabanga": [{"Name": "Kabanga", "Country Code": "TZ", "Population": 19421.0, "Lat": -2.63861, "Lon": 30.46778}], "Kabangbe": [{"Name": "Kabangbe", "Country Code": "CI", "Population": 1673.0, "Lat": 10.14279, "Lon": -7.55359}], "Kabanjahe": [{"Name": "Kabanjahe", "Country Code": "ID", "Population": 73581.0, "Lat": 3.1001, "Lon": 98.4908}], "Kabankalan": [{"Name": "Kabankalan", "Country Code": "PH", "Population": 136483.0, "Lat": 9.9839, "Lon": 122.81423}], "Kabanovo": [{"Name": "Kabanovo", "Country Code": "RU", "Population": 23414.0, "Lat": 55.74815, "Lon": 38.93511}], "Kabansk": [{"Name": "Kabansk", "Country Code": "RU", "Population": 6257.0, "Lat": 52.04861, "Lon": 106.65278}], "Kabardinka": [{"Name": "Kabardinka", "Country Code": "RU", "Population": 7395.0, "Lat": 44.65202, "Lon": 37.93661}], "Kabare": [{"Name": "Kabare", "Country Code": "CD", "Population": 37034.0, "Lat": -2.49682, "Lon": 28.79081}, {"Name": "Kabare", "Country Code": "ID", "Population": 0.0, "Lat": -0.0149, "Lon": 130.8322}], "Kabarnet": [{"Name": "Kabarnet", "Country Code": "KE", "Population": 24661.0, "Lat": 0.49194, "Lon": 35.74303}], "Kabasalan": [{"Name": "Kabasalan", "Country Code": "PH", "Population": 2190.0, "Lat": 7.06667, "Lon": 124.65}, {"Name": "Kabasalan", "Country Code": "PH", "Population": 0.0, "Lat": 7.79722, "Lon": 122.765}], "Kabatas": [{"Name": "Kabata\u015f", "Country Code": "TR", "Population": 9066.0, "Lat": 40.75, "Lon": 37.45}], "Kabaty": [{"Name": "Kabaty", "Country Code": "PL", "Population": 25000.0, "Lat": 52.13012, "Lon": 21.08148}], "Kabaw": [{"Name": "K\u0101b\u0101w", "Country Code": "LY", "Population": 7686.0, "Lat": 31.84724, "Lon": 11.33055}], "Kabayan": [{"Name": "Kabayan", "Country Code": "PH", "Population": 0.0, "Lat": 16.62388, "Lon": 120.83994}], "Kabba": [{"Name": "Kabba", "Country Code": "NG", "Population": 49869.0, "Lat": 7.82719, "Lon": 6.07502}], "Kabbasin": [{"Name": "Kabbasin", "Country Code": "SY", "Population": 51230.0, "Lat": 36.43274, "Lon": 37.56857}], "Kabehoa": [{"Name": "Kab\u00e9hoa", "Country Code": "CI", "Population": 2068.0, "Lat": 6.19945, "Lon": -6.23053}], "Kabelvag": [{"Name": "Kabelv\u00e5g", "Country Code": "NO", "Population": 1638.0, "Lat": 68.21066, "Lon": 14.47554}], "Kaberamaido": [{"Name": "Kaberamaido", "Country Code": "UG", "Population": 0.0, "Lat": 1.73889, "Lon": 33.15944}], "Kabeya-Kamwanga": [{"Name": "Kabeya-Kamwanga", "Country Code": "CD", "Population": 44093.0, "Lat": -5.9988, "Lon": 23.25386}], "Kabilauan": [{"Name": "Kabilauan", "Country Code": "PH", "Population": 2077.0, "Lat": 10.861, "Lon": 122.5734}], "Kabin Buri": [{"Name": "Kabin Buri", "Country Code": "TH", "Population": 20212.0, "Lat": 13.95114, "Lon": 101.71769}], "Kabinda": [{"Name": "Kabinda", "Country Code": "CD", "Population": 219396.0, "Lat": -6.13791, "Lon": 24.48179}], "Kabir": [{"Name": "Kabir", "Country Code": "ID", "Population": 0.0, "Lat": -8.2545, "Lon": 124.2145}], "Kabirwala": [{"Name": "Kabirwala", "Country Code": "PK", "Population": 60782.0, "Lat": 30.40472, "Lon": 71.86269}], "Kablalan": [{"Name": "Kablalan", "Country Code": "PH", "Population": 2698.0, "Lat": 5.77972, "Lon": 125.19778}], "Kabo": [{"Name": "Kabo", "Country Code": "CF", "Population": 16279.0, "Lat": 7.69937, "Lon": 18.62903}, {"Name": "Kabo", "Country Code": "NG", "Population": 0.0, "Lat": 11.85606, "Lon": 8.1702}], "Kabolokoro": [{"Name": "Kabolokoro", "Country Code": "CI", "Population": 1105.0, "Lat": 9.45252, "Lon": -5.97851}], "Kabompo": [{"Name": "Kabompo", "Country Code": "ZM", "Population": 6592.0, "Lat": -13.59268, "Lon": 24.20081}], "Kabrai": [{"Name": "Kabr\u0101i", "Country Code": "IN", "Population": 24771.0, "Lat": 25.40281, "Lon": 79.9997}], "Kabrankro": [{"Name": "Kabrankro", "Country Code": "CI", "Population": 1524.0, "Lat": 6.71393, "Lon": -3.75982}], "Kabri": [{"Name": "Kabri", "Country Code": "IL", "Population": 1054.0, "Lat": 33.0209, "Lon": 35.14835}], "Kabudarahang": [{"Name": "Kab\u016bdar\u0101hang", "Country Code": "IR", "Population": 0.0, "Lat": 35.20924, "Lon": 48.72341}], "Kabugao": [{"Name": "Kabugao", "Country Code": "PH", "Population": 2337.0, "Lat": 18.01698, "Lon": 121.18173}], "Kabukarudi": [{"Name": "Kabukarudi", "Country Code": "ID", "Population": 0.0, "Lat": -9.7246, "Lon": 119.3596}], "Kabul": [{"Name": "Kabul", "Country Code": "AF", "Population": 4434550.0, "Lat": 34.52813, "Lon": 69.17233}, {"Name": "K\u0101b\u016bl", "Country Code": "IL", "Population": 14095.0, "Lat": 32.86856, "Lon": 35.21171}], "Kabulohan": [{"Name": "Kabulohan", "Country Code": "PH", "Population": 2637.0, "Lat": 8.04333, "Lon": 125.27667}], "Kabulusan": [{"Name": "Kabulusan", "Country Code": "PH", "Population": 3811.0, "Lat": 14.3615, "Lon": 121.4004}], "Kabungahan": [{"Name": "Kabungahan", "Country Code": "PH", "Population": 2307.0, "Lat": 10.51667, "Lon": 123.98333}], "Kaburon": [{"Name": "Kaburon", "Country Code": "ID", "Population": 0.0, "Lat": -6.2875, "Lon": 106.1267}], "Kabuynan": [{"Name": "Kabuynan", "Country Code": "PH", "Population": 2569.0, "Lat": 11.08056, "Lon": 125.02472}], "Kabwe": [{"Name": "Kabwe", "Country Code": "ZM", "Population": 188979.0, "Lat": -14.4469, "Lon": 28.44644}], "Kac": [{"Name": "Ka\u0107", "Country Code": "RS", "Population": 11067.0, "Lat": 45.30407, "Lon": 19.94299}], "Kacanik": [{"Name": "Ka\u010danik", "Country Code": "XK", "Population": 9800.0, "Lat": 42.23194, "Lon": 21.25944}], "Kacha": [{"Name": "Kacha", "Country Code": "UA", "Population": 4282.0, "Lat": 44.77635, "Lon": 33.54387}], "Kachhwa": [{"Name": "Kachhwa", "Country Code": "IN", "Population": 15381.0, "Lat": 25.20615, "Lon": 82.71442}], "Kachia": [{"Name": "Kachia", "Country Code": "NG", "Population": 30893.0, "Lat": 9.87342, "Lon": 7.95407}], "Kachina Village": [{"Name": "Kachina Village", "Country Code": "US", "Population": 2622.0, "Lat": 35.09696, "Lon": -111.69266}], "Kachisi": [{"Name": "Kach\u012bs\u012b", "Country Code": "ET", "Population": 22900.0, "Lat": 9.6, "Lon": 37.83333}], "Kachkanar": [{"Name": "Kachkanar", "Country Code": "RU", "Population": 43983.0, "Lat": 58.7002, "Lon": 59.4839}], "Kachtem": [{"Name": "Kachtem", "Country Code": "BE", "Population": 3276.0, "Lat": 50.93341, "Lon": 3.19425}], "Kachug": [{"Name": "Kachug", "Country Code": "RU", "Population": 6971.0, "Lat": 53.96056, "Lon": 105.88167}], "Kacice": [{"Name": "Ka\u010dice", "Country Code": "CZ", "Population": 1242.0, "Lat": 50.16261, "Lon": 13.98815}], "Kacinar": [{"Name": "Ka\u00e7inar", "Country Code": "AL", "Population": 0.0, "Lat": 41.89333, "Lon": 19.89861}], "Kacoukro": [{"Name": "Kacoukro", "Country Code": "CI", "Population": 10475.0, "Lat": 5.29605, "Lon": -3.37752}], "Kacuni": [{"Name": "Ka\u010duni", "Country Code": "BA", "Population": 5042.0, "Lat": 44.06433, "Lon": 17.93894}], "Kaczory": [{"Name": "Kaczory", "Country Code": "PL", "Population": 2911.0, "Lat": 53.10348, "Lon": 16.88169}], "Kaczyce": [{"Name": "Kaczyce", "Country Code": "PL", "Population": 3056.0, "Lat": 49.82752, "Lon": 18.59161}], "Kadai": [{"Name": "Kadai", "Country Code": "ID", "Population": 0.0, "Lat": -4.8083, "Lon": 120.3423}], "Kadakkavoor": [{"Name": "Kadakkavoor", "Country Code": "IN", "Population": 25362.0, "Lat": 8.67921, "Lon": 76.76714}], "Kadambur": [{"Name": "Kadamb\u016br", "Country Code": "IN", "Population": 4512.0, "Lat": 8.99739, "Lon": 77.86191}], "Kadan": [{"Name": "Kada\u0148", "Country Code": "CZ", "Population": 18759.0, "Lat": 50.38333, "Lon": 13.26667}], "Kadapa": [{"Name": "Kadapa", "Country Code": "IN", "Population": 127010.0, "Lat": 14.47995, "Lon": 78.82346}], "Kadarkut": [{"Name": "Kadark\u00fat", "Country Code": "HU", "Population": 2740.0, "Lat": 46.23623, "Lon": 17.62014}], "Kadarvogo": [{"Name": "Kadarvogo", "Country Code": "CI", "Population": 2206.0, "Lat": 10.29083, "Lon": -5.15972}], "Kadaura": [{"Name": "Kadaura", "Country Code": "IN", "Population": 13784.0, "Lat": 25.98537, "Lon": 79.83842}], "Kadaya": [{"Name": "Kadaya", "Country Code": "RU", "Population": 1167.0, "Lat": 50.93254, "Lon": 119.29468}], "Kadayanallur": [{"Name": "Kadayanallur", "Country Code": "IN", "Population": 77772.0, "Lat": 9.07277, "Lon": 77.34152}], "Kade": [{"Name": "Kade", "Country Code": "GH", "Population": 30233.0, "Lat": 6.09392, "Lon": -0.83599}], "Kadeko": [{"Name": "Kad\u00e9ko", "Country Code": "CI", "Population": 8283.0, "Lat": 6.09846, "Lon": -5.58439}], "Kadena": [{"Name": "Kadena", "Country Code": "JP", "Population": 13671.0, "Lat": 26.36519, "Lon": 127.75857}], "Kadenbach": [{"Name": "Kadenbach", "Country Code": "DE", "Population": 1494.0, "Lat": 50.38333, "Lon": 7.73333}], "Kadhan": [{"Name": "Kadhan", "Country Code": "PK", "Population": 6854.0, "Lat": 24.48041, "Lon": 68.98551}], "Kadi": [{"Name": "Kadi", "Country Code": "IN", "Population": 58066.0, "Lat": 23.29908, "Lon": 72.33362}], "Kadiasso": [{"Name": "Kadiasso", "Country Code": "CI", "Population": 1641.0, "Lat": 9.70699, "Lon": -6.96218}], "Kadieoule-Sourdian": [{"Name": "Kadi\u00e9oul\u00e9-Sourdian", "Country Code": "CI", "Population": 1307.0, "Lat": 8.41004, "Lon": -4.54439}], "Kadikoy": [{"Name": "Kad\u0131k\u00f6y", "Country Code": "TR", "Population": 2741.0, "Lat": 40.62015, "Lon": 29.22536}], "Kadima Zoran": [{"Name": "Kadima Zoran", "Country Code": "IL", "Population": 22490.0, "Lat": 32.27782, "Lon": 34.9194}], "Kadina": [{"Name": "Kadina", "Country Code": "AU", "Population": 2739.0, "Lat": -33.96495, "Lon": 137.71634}], "Kadingilan": [{"Name": "Kadingilan", "Country Code": "PH", "Population": 7020.0, "Lat": 7.60111, "Lon": 124.90861}], "Kadinhani": [{"Name": "Kad\u0131nhan\u0131", "Country Code": "TR", "Population": 15301.0, "Lat": 38.23972, "Lon": 32.21139}], "Kadino": [{"Name": "Kadino", "Country Code": "BY", "Population": 1753.0, "Lat": 53.88389, "Lon": 30.52028}, {"Name": "Kadino", "Country Code": "MK", "Population": 1466.0, "Lat": 41.96889, "Lon": 21.60139}], "Kadioha": [{"Name": "Kadioha", "Country Code": "CI", "Population": 5996.0, "Lat": 8.96821, "Lon": -5.88332}], "Kadiolo": [{"Name": "Kadiolo", "Country Code": "ML", "Population": 38149.0, "Lat": 10.55, "Lon": -5.76667}], "Kadipur": [{"Name": "K\u0101d\u012bpur", "Country Code": "IN", "Population": 7472.0, "Lat": 26.16779, "Lon": 82.37028}], "Kadiri": [{"Name": "Kadiri", "Country Code": "IN", "Population": 81498.0, "Lat": 14.11168, "Lon": 78.15982}], "Kadirli": [{"Name": "Kadirli", "Country Code": "TR", "Population": 70248.0, "Lat": 37.37389, "Lon": 36.09611}], "Kadisehri": [{"Name": "Kad\u0131\u015fehri", "Country Code": "TR", "Population": 5722.0, "Lat": 39.99568, "Lon": 35.79193}], "Kadiyivka": [{"Name": "Kadiyivka", "Country Code": "UA", "Population": 73248.0, "Lat": 48.56818, "Lon": 38.64352}], "Kadja-Gnanzoukro": [{"Name": "Kadja-Gnanzoukro", "Country Code": "CI", "Population": 1219.0, "Lat": 5.16555, "Lon": -2.74643}], "Kadmat": [{"Name": "Kadmat", "Country Code": "IN", "Population": 5404.0, "Lat": 11.22467, "Lon": 72.77482}], "Kadnikov": [{"Name": "Kadnikov", "Country Code": "RU", "Population": 5312.0, "Lat": 59.50218, "Lon": 40.33803}], "Kadod": [{"Name": "Kadod", "Country Code": "IN", "Population": 16747.0, "Lat": 21.21717, "Lon": 73.21972}], "Kadoelen": [{"Name": "Kadoelen", "Country Code": "NL", "Population": 1915.0, "Lat": 52.4175, "Lon": 4.90561}], "Kadogawa": [{"Name": "Kadogawa", "Country Code": "JP", "Population": 17526.0, "Lat": 32.47126, "Lon": 131.65452}], "Kadoka": [{"Name": "Kadoka", "Country Code": "US", "Population": 707.0, "Lat": 43.83388, "Lon": -101.50987}], "Kadom": [{"Name": "Kadom", "Country Code": "RU", "Population": 6027.0, "Lat": 54.55912, "Lon": 42.4676}], "Kadoma": [{"Name": "Kadoma", "Country Code": "JP", "Population": 131727.0, "Lat": 34.7381, "Lon": 135.57442}, {"Name": "Kadoma", "Country Code": "ZW", "Population": 116300.0, "Lat": -18.33328, "Lon": 29.91534}], "Kadoorie": [{"Name": "Kadoorie", "Country Code": "HK", "Population": 17422.0, "Lat": 22.32247, "Lon": 114.17556}], "Kadoshkino": [{"Name": "Kadoshkino", "Country Code": "RU", "Population": 4763.0, "Lat": 54.0257, "Lon": 44.4191}], "Kadrina": [{"Name": "Kadrina", "Country Code": "EE", "Population": 2406.0, "Lat": 59.33472, "Lon": 26.145}], "Kadrokpa": [{"Name": "Kadrokpa", "Country Code": "CI", "Population": 4658.0, "Lat": 4.97426, "Lon": -6.01222}], "Kadubivtsi": [{"Name": "Kadubivtsi", "Country Code": "UA", "Population": 3528.0, "Lat": 48.58046, "Lon": 25.77021}], "Kadugannawa": [{"Name": "Kadugannawa", "Country Code": "LK", "Population": 1214.0, "Lat": 7.2547, "Lon": 80.5242}], "Kadugede": [{"Name": "Kadugede", "Country Code": "ID", "Population": 0.0, "Lat": -7.0043, "Lon": 108.4543}], "Kadugedong": [{"Name": "Kadugedong", "Country Code": "ID", "Population": 0.0, "Lat": -6.3639, "Lon": 106.1}], "Kadugli": [{"Name": "Kadugli", "Country Code": "SD", "Population": 87666.0, "Lat": 11.01111, "Lon": 29.71833}], "Kaduna": [{"Name": "Kaduna", "Country Code": "NG", "Population": 1850000.0, "Lat": 10.52641, "Lon": 7.43879}], "Kadupandak": [{"Name": "Kadupandak", "Country Code": "ID", "Population": 0.0, "Lat": -7.2611, "Lon": 107.0472}], "Kadur": [{"Name": "Kad\u016br", "Country Code": "IN", "Population": 32935.0, "Lat": 13.55285, "Lon": 76.01164}], "Kaduy": [{"Name": "Kaduy", "Country Code": "RU", "Population": 11570.0, "Lat": 59.2, "Lon": 37.15}], "Kadyy": [{"Name": "Kadyy", "Country Code": "RU", "Population": 3783.0, "Lat": 57.78624, "Lon": 43.19113}], "Kadzhi-Say": [{"Name": "Kadzhi-Say", "Country Code": "KG", "Population": 4000.0, "Lat": 42.14107, "Lon": 77.17848}], "Kadzidlo": [{"Name": "Kadzid\u0142o", "Country Code": "PL", "Population": 4210.0, "Lat": 53.23435, "Lon": 21.46454}], "Kae Dam": [{"Name": "Kae Dam", "Country Code": "TH", "Population": 0.0, "Lat": 16.02397, "Lon": 103.38444}], "Kaedi": [{"Name": "Ka\u00e9di", "Country Code": "MR", "Population": 56283.0, "Lat": 16.15027, "Lon": -13.5037}], "Kaele": [{"Name": "Ka\u00e9l\u00e9", "Country Code": "CM", "Population": 32853.0, "Lat": 10.10917, "Lon": 14.45083}], "Kaellby": [{"Name": "K\u00e4llby", "Country Code": "SE", "Population": 1737.0, "Lat": 58.50999, "Lon": 13.30582}], "Kaelviae": [{"Name": "K\u00e4lvi\u00e4", "Country Code": "FI", "Population": 4449.0, "Lat": 63.86067, "Lon": 23.45289}], "Kaenerkinden": [{"Name": "K\u00e4nerkinden", "Country Code": "CH", "Population": 0.0, "Lat": 47.41188, "Lon": 7.83716}], "Kaeng Hang Maeo": [{"Name": "Kaeng Hang Maeo", "Country Code": "TH", "Population": 0.0, "Lat": 13.00825, "Lon": 101.90608}], "Kaeng Khoi": [{"Name": "Kaeng Khoi", "Country Code": "TH", "Population": 30332.0, "Lat": 14.58617, "Lon": 100.99758}], "Kaeng Khro": [{"Name": "Kaeng Khro", "Country Code": "TH", "Population": 29056.0, "Lat": 16.10864, "Lon": 102.25808}], "Kaeng Krachan": [{"Name": "Kaeng Krachan", "Country Code": "TH", "Population": 0.0, "Lat": 12.90742, "Lon": 99.64795}], "Kaeng Sanam Nang": [{"Name": "Kaeng Sanam Nang", "Country Code": "TH", "Population": 0.0, "Lat": 15.74954, "Lon": 102.25484}], "Kaerdla": [{"Name": "K\u00e4rdla", "Country Code": "EE", "Population": 3160.0, "Lat": 58.99778, "Lon": 22.74917}], "Kaerkoelae": [{"Name": "K\u00e4rk\u00f6l\u00e4", "Country Code": "FI", "Population": 4853.0, "Lat": 60.61292, "Lon": 23.94196}, {"Name": "K\u00e4rk\u00f6l\u00e4", "Country Code": "FI", "Population": 0.0, "Lat": 60.91667, "Lon": 25.25}], "Kaersaemaeki": [{"Name": "K\u00e4rs\u00e4m\u00e4ki", "Country Code": "FI", "Population": 2966.0, "Lat": 63.96667, "Lon": 25.76667}], "Kaesong": [{"Name": "Kaes\u014fng", "Country Code": "KP", "Population": 338155.0, "Lat": 37.97083, "Lon": 126.55444}], "Kaev Seima": [{"Name": "Kaev Seima", "Country Code": "KH", "Population": 0.0, "Lat": 12.18739, "Lon": 106.88061}], "Kaevlinge": [{"Name": "K\u00e4vlinge", "Country Code": "SE", "Population": 9320.0, "Lat": 55.79188, "Lon": 13.11021}], "Kafa": [{"Name": "Kafa", "Country Code": "CI", "Population": 1554.0, "Lat": 9.59593, "Lon": -5.77572}], "Kafanchan": [{"Name": "Kafanchan", "Country Code": "NG", "Population": 79522.0, "Lat": 9.58126, "Lon": 8.2926}], "Kafarati": [{"Name": "Kafarati", "Country Code": "NG", "Population": 11535.0, "Lat": 10.38304, "Lon": 11.09567}], "Kafegue": [{"Name": "Kaf\u00e9gu\u00e9", "Country Code": "CI", "Population": 2040.0, "Lat": 8.66534, "Lon": -6.15795}], "Kaff al-Jaa": [{"Name": "Kaff al-Jaa", "Country Code": "SY", "Population": 3500.0, "Lat": 35.08638, "Lon": 36.20605}], "Kaffrine": [{"Name": "Kaffrine", "Country Code": "SN", "Population": 39537.0, "Lat": 14.10594, "Lon": -15.5508}], "Kafia Kingi": [{"Name": "Kafia Kingi", "Country Code": "SS", "Population": 16000.0, "Lat": 9.27345, "Lon": 24.41701}], "Kafin Hausa": [{"Name": "Kafin Hausa", "Country Code": "NG", "Population": 12609.0, "Lat": 12.23933, "Lon": 9.91105}], "Kafin Madaki": [{"Name": "Kafin Madaki", "Country Code": "NG", "Population": 0.0, "Lat": 10.68856, "Lon": 9.76051}], "Kafine": [{"Name": "Kafin\u00e9", "Country Code": "CI", "Population": 4102.0, "Lat": 8.50838, "Lon": -5.31081}, {"Name": "Kafin\u00e9", "Country Code": "CI", "Population": 2951.0, "Lat": 8.94825, "Lon": -5.61468}], "Kafingue": [{"Name": "Kafingu\u00e9", "Country Code": "CI", "Population": 1440.0, "Lat": 9.68912, "Lon": -6.916}], "Kafolo": [{"Name": "Kafolo", "Country Code": "CI", "Population": 1821.0, "Lat": 9.58333, "Lon": -4.3}], "Kafoudougou": [{"Name": "Kafoudougou", "Country Code": "CI", "Population": 1149.0, "Lat": 8.46667, "Lon": -4.4}], "Kafr 'Abbush": [{"Name": "Kafr \u2018Abb\u016bsh", "Country Code": "PS", "Population": 1444.0, "Lat": 32.22353, "Lon": 35.08504}], "Kafr 'Ayn": [{"Name": "Kafr \u2018Ayn", "Country Code": "PS", "Population": 1720.0, "Lat": 32.04758, "Lon": 35.12038}], "Kafr Abil": [{"Name": "Kafr Ab\u012bl", "Country Code": "JO", "Population": 6333.0, "Lat": 32.41752, "Lon": 35.66305}], "Kafr Asad": [{"Name": "Kafr Asad", "Country Code": "JO", "Population": 8203.0, "Lat": 32.598, "Lon": 35.71266}], "Kafr Bara": [{"Name": "Kafr Bar\u0101", "Country Code": "IL", "Population": 3678.0, "Lat": 32.13136, "Lon": 34.97079}], "Kafr Batna": [{"Name": "Kafr Ba\u0163n\u0101", "Country Code": "SY", "Population": 0.0, "Lat": 33.51168, "Lon": 36.37273}], "Kafr Dan": [{"Name": "Kafr D\u0101n", "Country Code": "PS", "Population": 4967.0, "Lat": 32.47852, "Lon": 35.25425}], "Kafr Jammal": [{"Name": "Kafr Jamm\u0101l", "Country Code": "PS", "Population": 2481.0, "Lat": 32.22551, "Lon": 35.04337}], "Kafr Kamma": [{"Name": "Kafr Kamm\u0101", "Country Code": "IL", "Population": 3373.0, "Lat": 32.72129, "Lon": 35.44122}], "Kafr Kanna": [{"Name": "Kafr Kann\u0101", "Country Code": "IL", "Population": 22751.0, "Lat": 32.7466, "Lon": 35.34242}], "Kafr Laha": [{"Name": "Kafr L\u0101h\u0101", "Country Code": "SY", "Population": 21819.0, "Lat": 34.89469, "Lon": 36.49582}], "Kafr Malik": [{"Name": "Kafr M\u0101lik", "Country Code": "PS", "Population": 2903.0, "Lat": 31.9884, "Lon": 35.30932}], "Kafr Manda": [{"Name": "Kafr Mand\u0101", "Country Code": "IL", "Population": 20188.0, "Lat": 32.81034, "Lon": 35.26009}], "Kafr Misr": [{"Name": "Kafr Mi\u1e63r", "Country Code": "IL", "Population": 2750.0, "Lat": 32.64521, "Lon": 35.42147}], "Kafr Musa Al-Hmidiya": [{"Name": "Kafr M\u016bs\u00e1 Al-Hmidiya", "Country Code": "SY", "Population": 3000.0, "Lat": 34.58288, "Lon": 36.53389}], "Kafr Qaddum": [{"Name": "Kafr Qadd\u016bm", "Country Code": "PS", "Population": 3376.0, "Lat": 32.22162, "Lon": 35.14471}], "Kafr Qallil": [{"Name": "Kafr Qall\u012bl", "Country Code": "PS", "Population": 2421.0, "Lat": 32.19351, "Lon": 35.28284}], "Kafr Qari'": [{"Name": "Kafr Qari\u2018", "Country Code": "IL", "Population": 19018.0, "Lat": 32.50666, "Lon": 35.05392}], "Kafr Qasim": [{"Name": "Kafr Q\u0101sim", "Country Code": "IL", "Population": 23823.0, "Lat": 32.11406, "Lon": 34.97624}], "Kafr Qud": [{"Name": "Kafr Q\u016bd", "Country Code": "PS", "Population": 1129.0, "Lat": 32.45661, "Lon": 35.22649}], "Kafr Ra'i": [{"Name": "Kafr R\u0101\u2018\u012b", "Country Code": "PS", "Population": 7276.0, "Lat": 32.37398, "Lon": 35.15451}], "Kafr Sa'd": [{"Name": "Kafr Sa\u2018d", "Country Code": "EG", "Population": 18120.0, "Lat": 31.35573, "Lon": 31.68484}], "Kafr Saghir": [{"Name": "Kafr \u015eagh\u012br", "Country Code": "SY", "Population": 3130.0, "Lat": 36.29264, "Lon": 37.2559}], "Kafr Saqr": [{"Name": "Kafr \u015eaqr", "Country Code": "EG", "Population": 44529.0, "Lat": 30.79336, "Lon": 31.62575}], "Kafr Sawm": [{"Name": "Kafr Sawm", "Country Code": "JO", "Population": 7152.0, "Lat": 32.68527, "Lon": 35.80102}], "Kafr Shukr": [{"Name": "Kafr Shukr", "Country Code": "EG", "Population": 30948.0, "Lat": 30.54972, "Lon": 31.24444}], "Kafr Sur": [{"Name": "Kafr \u015e\u016br", "Country Code": "PS", "Population": 1107.0, "Lat": 32.24366, "Lon": 35.06394}], "Kafr Takharim": [{"Name": "Kafr Takh\u0101r\u012bm", "Country Code": "SY", "Population": 22436.0, "Lat": 36.1168, "Lon": 36.51522}], "Kafr Thulth": [{"Name": "Kafr Thulth", "Country Code": "PS", "Population": 4218.0, "Lat": 32.1533, "Lon": 35.04698}], "Kafr Zayta": [{"Name": "Kafr Zayt\u0101", "Country Code": "SY", "Population": 21845.0, "Lat": 35.37425, "Lon": 36.6033}], "Kafr Zibad": [{"Name": "Kafr Z\u012bb\u0101d", "Country Code": "PS", "Population": 1068.0, "Lat": 32.22583, "Lon": 35.07179}], "Kafr ad Dawwar": [{"Name": "Kafr ad Daww\u0101r", "Country Code": "EG", "Population": 128539.0, "Lat": 31.13379, "Lon": 30.12969}], "Kafr ad Dik": [{"Name": "Kafr ad D\u012bk", "Country Code": "PS", "Population": 4986.0, "Lat": 32.0671, "Lon": 35.08287}], "Kafr al Battikh": [{"Name": "Kafr al Ba\u0163\u0163\u012bkh", "Country Code": "EG", "Population": 47198.0, "Lat": 31.40398, "Lon": 31.73778}], "Kafr al Kurdi": [{"Name": "Kafr al Kurd\u012b", "Country Code": "EG", "Population": 44905.0, "Lat": 31.16844, "Lon": 31.7655}], "Kafr al Labad": [{"Name": "Kafr al Labad", "Country Code": "PS", "Population": 3915.0, "Lat": 32.29967, "Lon": 35.10955}], "Kafr ash Shaykh": [{"Name": "Kafr ash Shaykh", "Country Code": "EG", "Population": 194569.0, "Lat": 31.11174, "Lon": 30.93991}], "Kafr az Zayyat": [{"Name": "Kafr az Zayy\u0101t", "Country Code": "EG", "Population": 83348.0, "Lat": 30.8248, "Lon": 30.81805}], "Kafranbel": [{"Name": "Kafranbel", "Country Code": "SY", "Population": 45652.0, "Lat": 35.61376, "Lon": 36.56449}], "Kafue": [{"Name": "Kafue", "Country Code": "ZM", "Population": 47554.0, "Lat": -15.76911, "Lon": 28.18136}], "Kafur": [{"Name": "Kafur", "Country Code": "NG", "Population": 0.0, "Lat": 11.64589, "Lon": 7.69068}], "Kafyr-Kumukh": [{"Name": "Kafyr-Kumukh", "Country Code": "RU", "Population": 4274.0, "Lat": 42.83754, "Lon": 47.15412}], "Kaga": [{"Name": "Kaga", "Country Code": "JP", "Population": 67793.0, "Lat": 36.3, "Lon": 136.33333}], "Kaga-Bandoro": [{"Name": "Kaga-Bandoro", "Country Code": "CF", "Population": 55047.0, "Lat": 6.98961, "Lon": 19.18744}], "Kagadi": [{"Name": "Kagadi", "Country Code": "UG", "Population": 2097.0, "Lat": 0.93778, "Lon": 30.80889}], "Kagal": [{"Name": "K\u0101gal", "Country Code": "IN", "Population": 25479.0, "Lat": 16.57702, "Lon": 74.31544}], "Kagal'nitskaya": [{"Name": "Kagal\u2019nitskaya", "Country Code": "RU", "Population": 6848.0, "Lat": 46.88056, "Lon": 40.14657}], "Kaganieze": [{"Name": "Kagani\u00e9z\u00e9", "Country Code": "CI", "Population": 4382.0, "Lat": 5.93098, "Lon": -4.79223}], "Kagara": [{"Name": "Kagara", "Country Code": "NG", "Population": 0.0, "Lat": 10.18662, "Lon": 6.25485}], "Kagarko": [{"Name": "Kagarko", "Country Code": "NG", "Population": 0.0, "Lat": 9.4911, "Lon": 7.69771}], "Kagay": [{"Name": "Kagay", "Country Code": "PH", "Population": 2318.0, "Lat": 6.0088, "Lon": 120.9074}], "Kagaznagar": [{"Name": "Kagazn\u0101g\u0101r", "Country Code": "IN", "Population": 0.0, "Lat": 19.33159, "Lon": 79.46605}], "Kagbe": [{"Name": "Kagb\u00e9", "Country Code": "CI", "Population": 11096.0, "Lat": 6.16599, "Lon": -5.34964}], "Kagbolokaha": [{"Name": "Kagbolokaha", "Country Code": "CI", "Population": 3649.0, "Lat": 9.39509, "Lon": -5.40203}], "Kage": [{"Name": "K\u00e5ge", "Country Code": "SE", "Population": 2376.0, "Lat": 64.83571, "Lon": 20.98453}], "Kageroed": [{"Name": "K\u00e5ger\u00f6d", "Country Code": "SE", "Population": 1516.0, "Lat": 55.99976, "Lon": 13.08795}], "Kaggevinne": [{"Name": "Kaggevinne", "Country Code": "BE", "Population": 2338.0, "Lat": 50.98037, "Lon": 5.01886}], "Kagio": [{"Name": "Kagio", "Country Code": "KE", "Population": 13961.0, "Lat": -0.62482, "Lon": 37.25551}], "Kagizman": [{"Name": "Ka\u011f\u0131zman", "Country Code": "TR", "Population": 25157.0, "Lat": 40.15669, "Lon": 43.13424}], "Kagnenako": [{"Name": "Kagn\u00e9nako", "Country Code": "CI", "Population": 7007.0, "Lat": 5.81191, "Lon": -6.349}], "Kagoro": [{"Name": "Kagoro", "Country Code": "NG", "Population": 77008.0, "Lat": 9.60776, "Lon": 8.39043}], "Kagoshima": [{"Name": "Kagoshima", "Country Code": "JP", "Population": 595049.0, "Lat": 31.56667, "Lon": 130.55}], "Kagumo": [{"Name": "Kagumo", "Country Code": "KE", "Population": 3673.0, "Lat": -0.47335, "Lon": 37.23737}], "Kahala": [{"Name": "Kahala", "Country Code": "ID", "Population": 0.0, "Lat": -0.01545, "Lon": 116.36329}], "Kahalu'u": [{"Name": "Kahalu\u2018u", "Country Code": "US", "Population": 4738.0, "Lat": 21.45759, "Lon": -157.84431}], "Kahaluu-Keauhou": [{"Name": "Kahaluu-Keauhou", "Country Code": "US", "Population": 3549.0, "Lat": 19.57181, "Lon": -155.96172}], "Kahama": [{"Name": "Kahama", "Country Code": "TZ", "Population": 36014.0, "Lat": -3.83333, "Lon": 32.6}], "Kahandhale": [{"Name": "Kahandhale", "Country Code": "ET", "Population": 18000.0, "Lat": 5.75279, "Lon": 45.64603}], "Kahani": [{"Name": "Kahani", "Country Code": "YT", "Population": 3073.0, "Lat": -12.82385, "Lon": 45.13141}], "Kahankro": [{"Name": "Kahankro", "Country Code": "CI", "Population": 3142.0, "Lat": 6.57647, "Lon": -5.08493}], "Kahankro-Prepressou": [{"Name": "Kahankro-Prepressou", "Country Code": "CI", "Population": 1796.0, "Lat": 7.73758, "Lon": -4.95638}], "Kahanso": [{"Name": "Kahanso", "Country Code": "CI", "Population": 1849.0, "Lat": 9.25291, "Lon": -7.60622}], "Kaharlyk": [{"Name": "Kaharlyk", "Country Code": "UA", "Population": 1637.0, "Lat": 46.60044, "Lon": 30.1963}, {"Name": "Kaharlyk", "Country Code": "UA", "Population": 13133.0, "Lat": 49.859, "Lon": 30.82327}], "Kaharoa": [{"Name": "Kaharoa", "Country Code": "NZ", "Population": 1617.0, "Lat": -37.99513, "Lon": 176.23467}], "Kahen-Zagna": [{"Name": "Kahen-Zagna", "Country Code": "CI", "Population": 1593.0, "Lat": 6.97427, "Lon": -7.54724}], "Kahf Nssar": [{"Name": "Kahf Nssar", "Country Code": "MA", "Population": 7821.0, "Lat": 32.91361, "Lon": -5.95873}], "Kahi": [{"Name": "Kahi", "Country Code": "CI", "Population": 1064.0, "Lat": 7.15129, "Lon": -7.42682}], "Kahibah": [{"Name": "Kahibah", "Country Code": "AU", "Population": 2393.0, "Lat": -32.96175, "Lon": 151.71251}], "Kahin": [{"Name": "Kahin", "Country Code": "CI", "Population": 32991.0, "Lat": 6.91413, "Lon": -7.63121}], "Kahitohourililie": [{"Name": "Kahitohourilili\u00e9", "Country Code": "CI", "Population": 1069.0, "Lat": 5.848, "Lon": -5.77119}], "Kahl am Main": [{"Name": "Kahl am Main", "Country Code": "DE", "Population": 7198.0, "Lat": 50.06981, "Lon": 9.00553}], "Kahla": [{"Name": "Kahla", "Country Code": "DE", "Population": 7422.0, "Lat": 50.80651, "Lon": 11.58516}], "Kahna Nau": [{"Name": "Kahna Nau", "Country Code": "PK", "Population": 45888.0, "Lat": 31.36709, "Lon": 74.36899}], "Kahnuj": [{"Name": "Kahn\u016bj", "Country Code": "IR", "Population": 0.0, "Lat": 27.9519, "Lon": 57.6996}], "Kahoka": [{"Name": "Kahoka", "Country Code": "US", "Population": 2024.0, "Lat": 40.42032, "Lon": -91.71961}], "Kahoku": [{"Name": "Kahoku", "Country Code": "JP", "Population": 0.0, "Lat": 36.75758, "Lon": 136.71162}], "Kahone": [{"Name": "Kahone", "Country Code": "SN", "Population": 14231.0, "Lat": 14.15, "Lon": -16.03333}], "Kahramanmaras": [{"Name": "Kahramanmara\u015f", "Country Code": "TR", "Population": 384953.0, "Lat": 37.5847, "Lon": 36.92641}], "Kahriz": [{"Name": "Kahr\u012bz", "Country Code": "IR", "Population": 766706.0, "Lat": 34.3838, "Lon": 47.0553}], "Kahror Pakka": [{"Name": "Kahror Pakka", "Country Code": "PK", "Population": 69743.0, "Lat": 29.6243, "Lon": 71.91437}], "Kahta": [{"Name": "K\u00e2hta", "Country Code": "TR", "Population": 73105.0, "Lat": 37.78552, "Lon": 38.6237}], "Kahuku": [{"Name": "Kahuku", "Country Code": "US", "Population": 2614.0, "Lat": 21.68048, "Lon": -157.95237}], "Kahului": [{"Name": "Kahului", "Country Code": "US", "Population": 26337.0, "Lat": 20.88953, "Lon": -156.47432}], "Kahuripan": [{"Name": "Kahuripan", "Country Code": "ID", "Population": 0.0, "Lat": -7.3471, "Lon": 108.2281}], "Kahuta": [{"Name": "Kahuta", "Country Code": "PK", "Population": 22551.0, "Lat": 33.59183, "Lon": 73.38736}], "Kai": [{"Name": "Kai", "Country Code": "JP", "Population": 73626.0, "Lat": 35.68463, "Lon": 138.50979}], "Kai Ching Estate": [{"Name": "Kai Ching Estate", "Country Code": "HK", "Population": 11876.0, "Lat": 22.33289, "Lon": 114.20304}], "Kai Tak": [{"Name": "Kai Tak", "Country Code": "HK", "Population": 42552.0, "Lat": 22.32425, "Lon": 114.19741}], "Kai Tak Garden": [{"Name": "Kai Tak Garden", "Country Code": "HK", "Population": 3928.0, "Lat": 22.3378, "Lon": 114.19461}], "Kai Tsui Court": [{"Name": "Kai Tsui Court", "Country Code": "HK", "Population": 3379.0, "Lat": 22.26158, "Lon": 114.25105}], "Kaiaf": [{"Name": "Kaiaf", "Country Code": "GM", "Population": 1819.0, "Lat": 13.4, "Lon": -15.61667}], "Kaiama": [{"Name": "Kaiama", "Country Code": "NG", "Population": 21897.0, "Lat": 9.6053, "Lon": 3.94101}, {"Name": "Kaiama", "Country Code": "NG", "Population": 0.0, "Lat": 5.1197, "Lon": 6.30101}], "Kaiapoi": [{"Name": "Kaiapoi", "Country Code": "NZ", "Population": 13600.0, "Lat": -43.37832, "Lon": 172.64013}], "Kaibing": [{"Name": "Kaibing", "Country Code": "AT", "Population": 388.0, "Lat": 47.2, "Lon": 15.83333}], "Kaibito": [{"Name": "Kaibito", "Country Code": "US", "Population": 1522.0, "Lat": 36.59722, "Lon": -111.07431}], "Kaifeng": [{"Name": "Kaifeng", "Country Code": "CN", "Population": 1451741.0, "Lat": 34.7986, "Lon": 114.30742}], "Kaihua": [{"Name": "Kaihua", "Country Code": "CN", "Population": 64404.0, "Lat": 23.3695, "Lon": 104.27721}], "Kaihua Chengguanzhen": [{"Name": "Kaihua Chengguanzhen", "Country Code": "CN", "Population": 0.0, "Lat": 29.14586, "Lon": 118.40903}], "Kaijiang": [{"Name": "Kaijiang", "Country Code": "CN", "Population": 0.0, "Lat": 31.03959, "Lon": 104.67448}, {"Name": "Kaijiang", "Country Code": "CN", "Population": 0.0, "Lat": 31.08547, "Lon": 107.86348}], "Kaikalur": [{"Name": "Kaikal\u016br", "Country Code": "IN", "Population": 20763.0, "Lat": 16.55154, "Lon": 81.214}], "Kailahun": [{"Name": "Kailahun", "Country Code": "SL", "Population": 14085.0, "Lat": 8.2789, "Lon": -10.573}], "Kailaras": [{"Name": "Kail\u0101ras", "Country Code": "IN", "Population": 24539.0, "Lat": 26.30498, "Lon": 77.616}], "Kailashahar": [{"Name": "Kail\u0101shahar", "Country Code": "IN", "Population": 22120.0, "Lat": 24.33199, "Lon": 92.00391}], "Kaili": [{"Name": "Kaili", "Country Code": "CN", "Population": 275745.0, "Lat": 26.58583, "Lon": 107.97972}], "Kailu": [{"Name": "Kailu", "Country Code": "CN", "Population": 0.0, "Lat": 43.58333, "Lon": 121.2}], "Kailua": [{"Name": "Kailua", "Country Code": "US", "Population": 38635.0, "Lat": 21.40241, "Lon": -157.74054}], "Kailua-Kona": [{"Name": "Kailua-Kona", "Country Code": "US", "Population": 11975.0, "Lat": 19.64016, "Lon": -155.99912}], "Kaimana": [{"Name": "Kaimana", "Country Code": "ID", "Population": 0.0, "Lat": -3.6635, "Lon": 133.7649}], "Kaimbujae NDing": [{"Name": "Kaimbujae NDing", "Country Code": "GM", "Population": 9161.0, "Lat": 13.285, "Lon": -16.62139}], "Kaimganj": [{"Name": "Kaimganj", "Country Code": "IN", "Population": 32858.0, "Lat": 27.55441, "Lon": 79.33525}], "Kaimori": [{"Name": "Kaimori", "Country Code": "IN", "Population": 20154.0, "Lat": 23.38465, "Lon": 79.7442}], "Kain": [{"Name": "Kain", "Country Code": "BE", "Population": 7412.0, "Lat": 50.63869, "Lon": 3.39688}], "Kainach bei Voitsberg": [{"Name": "Kainach bei Voitsberg", "Country Code": "AT", "Population": 460.0, "Lat": 47.13637, "Lon": 15.0953}], "Kainan": [{"Name": "Kainan", "Country Code": "JP", "Population": 43369.0, "Lat": 34.15166, "Lon": 135.21398}], "Kainantu": [{"Name": "Kainantu", "Country Code": "PG", "Population": 8509.0, "Lat": -6.28872, "Lon": 145.86548}], "Kainbach": [{"Name": "Kainbach", "Country Code": "AT", "Population": 1551.0, "Lat": 47.08333, "Lon": 15.51667}], "Kaindorf": [{"Name": "Kaindorf", "Country Code": "AT", "Population": 1149.0, "Lat": 47.22537, "Lon": 15.91125}], "Kaindorf an der Sulm": [{"Name": "Kaindorf an der Sulm", "Country Code": "AT", "Population": 2432.0, "Lat": 46.79248, "Lon": 15.53879}], "Kaindy": [{"Name": "Kaindy", "Country Code": "KG", "Population": 9561.0, "Lat": 42.82469, "Lon": 73.67585}], "Kainouryion": [{"Name": "Kaino\u00faryion", "Country Code": "GR", "Population": 1138.0, "Lat": 38.79283, "Lon": 22.7247}, {"Name": "Kaino\u00faryion", "Country Code": "GR", "Population": 2790.0, "Lat": 38.60453, "Lon": 21.48776}], "Kaintragarh": [{"Name": "Kaintragarh", "Country Code": "IN", "Population": 11918.0, "Lat": 20.72115, "Lon": 84.53514}], "Kainuk": [{"Name": "Kainuk", "Country Code": "KE", "Population": 10535.0, "Lat": 1.77442, "Lon": 35.50641}], "Kaiping": [{"Name": "Kaiping", "Country Code": "CN", "Population": 0.0, "Lat": 39.67798, "Lon": 118.25217}], "Kairana": [{"Name": "Kair\u0101na", "Country Code": "IN", "Population": 80432.0, "Lat": 29.39541, "Lon": 77.2054}], "Kairatu": [{"Name": "Kairatu", "Country Code": "ID", "Population": 0.0, "Lat": -3.35167, "Lon": 128.36853}], "Kairouan": [{"Name": "Kairouan", "Country Code": "TN", "Population": 119794.0, "Lat": 35.6781, "Lon": 10.09633}], "Kairy": [{"Name": "Kairy", "Country Code": "UA", "Population": 3364.0, "Lat": 46.94611, "Lon": 33.70519}], "Kais": [{"Name": "Ka\u00efs", "Country Code": "DZ", "Population": 32668.0, "Lat": 35.49474, "Lon": 6.92492}], "Kaisariani": [{"Name": "Kaisarian\u00ed", "Country Code": "GR", "Population": 26370.0, "Lat": 37.9634, "Lon": 23.76523}], "Kaiseraugst": [{"Name": "Kaiseraugst", "Country Code": "CH", "Population": 3600.0, "Lat": 47.53966, "Lon": 7.72605}], "Kaisersbach": [{"Name": "Kaisersbach", "Country Code": "DE", "Population": 2638.0, "Lat": 48.93023, "Lon": 9.63898}], "Kaisersdorf": [{"Name": "Kaisersdorf", "Country Code": "AT", "Population": 620.0, "Lat": 47.53741, "Lon": 16.39198}], "Kaisersesch": [{"Name": "Kaisersesch", "Country Code": "DE", "Population": 3001.0, "Lat": 50.23148, "Lon": 7.13864}], "Kaiserslautern": [{"Name": "Kaiserslautern", "Country Code": "DE", "Population": 98732.0, "Lat": 49.443, "Lon": 7.77161}], "Kaisheim": [{"Name": "Kaisheim", "Country Code": "DE", "Population": 4344.0, "Lat": 48.76751, "Lon": 10.79639}], "Kaisiadorys": [{"Name": "Kai\u0161iadorys", "Country Code": "LT", "Population": 9867.0, "Lat": 54.86528, "Lon": 24.46815}], "Kaisten": [{"Name": "Kaisten", "Country Code": "CH", "Population": 2140.0, "Lat": 47.5416, "Lon": 8.04337}], "Kaita": [{"Name": "Kaita", "Country Code": "NG", "Population": 0.0, "Lat": 13.08346, "Lon": 7.74092}], "Kaitaia": [{"Name": "Kaitaia", "Country Code": "NZ", "Population": 0.0, "Lat": -35.11485, "Lon": 173.26366}], "Kaitang": [{"Name": "Kaitang", "Country Code": "CN", "Population": 18394.0, "Lat": 26.72028, "Lon": 108.12972}], "Kaithal": [{"Name": "Kaithal", "Country Code": "IN", "Population": 140604.0, "Lat": 29.80153, "Lon": 76.39959}], "Kaiti": [{"Name": "Kaiti", "Country Code": "NZ", "Population": 7803.0, "Lat": -38.66824, "Lon": 178.03021}], "Kaitong": [{"Name": "Kaitong", "Country Code": "CN", "Population": 62537.0, "Lat": 44.80913, "Lon": 123.08108}], "Kaiyuan": [{"Name": "Kaiyuan", "Country Code": "CN", "Population": 198423.0, "Lat": 23.69767, "Lon": 103.30372}, {"Name": "Kaiyuan", "Country Code": "CN", "Population": 0.0, "Lat": 36.06813, "Lon": 113.82209}, {"Name": "Kaiyuan", "Country Code": "CN", "Population": 112462.0, "Lat": 42.53306, "Lon": 124.04028}], "Kaiyun": [{"Name": "Kaiyun", "Country Code": "CN", "Population": 0.0, "Lat": 27.21351, "Lon": 112.85599}], "Kaizu": [{"Name": "Kaizu", "Country Code": "JP", "Population": 34960.0, "Lat": 35.20169, "Lon": 136.63505}], "Kaizuka": [{"Name": "Kaizuka", "Country Code": "JP", "Population": 92632.0, "Lat": 34.45, "Lon": 135.35}], "Kajaani": [{"Name": "Kajaani", "Country Code": "FI", "Population": 36498.0, "Lat": 64.22728, "Lon": 27.72846}], "Kajan": [{"Name": "Kajan", "Country Code": "AL", "Population": 0.0, "Lat": 40.91417, "Lon": 19.88944}], "Kajansi": [{"Name": "Kajansi", "Country Code": "UG", "Population": 7530.0, "Lat": 0.21548, "Lon": 32.53453}], "Kajatian": [{"Name": "Kajatian", "Country Code": "PH", "Population": 5436.0, "Lat": 6.03111, "Lon": 120.99194}], "Kajen": [{"Name": "Kajen", "Country Code": "ID", "Population": 0.0, "Lat": -7.0324, "Lon": 109.5773}], "Kajeung": [{"Name": "Kajeung", "Country Code": "ID", "Population": 0.0, "Lat": 4.51385, "Lon": 96.13244}], "Kajiadao": [{"Name": "Kajiadao", "Country Code": "CN", "Population": 2427.0, "Lat": 35.11718, "Lon": 102.99351}], "Kajiado": [{"Name": "Kajiado", "Country Code": "KE", "Population": 24678.0, "Lat": -1.85238, "Lon": 36.77683}], "Kajiaman": [{"Name": "Kajiaman", "Country Code": "CN", "Population": 2986.0, "Lat": 35.08851, "Lon": 102.91393}], "Kajiki": [{"Name": "Kajiki", "Country Code": "JP", "Population": 22997.0, "Lat": 31.73333, "Lon": 130.66667}], "Kajov": [{"Name": "K\u00e1jov", "Country Code": "CZ", "Population": 1870.0, "Lat": 48.81082, "Lon": 14.25859}], "Kajran": [{"Name": "Kajr\u0101n", "Country Code": "AF", "Population": 0.0, "Lat": 33.20357, "Lon": 65.47311}], "Kajuru": [{"Name": "Kajuru", "Country Code": "NG", "Population": 14389.0, "Lat": 10.32281, "Lon": 7.68462}], "Kaka": [{"Name": "Kaka", "Country Code": "TM", "Population": 18545.0, "Lat": 37.34821, "Lon": 59.61431}], "Kakad Wari Dir Upper": [{"Name": "Kakad Wari Dir Upper", "Country Code": "PK", "Population": 3000.0, "Lat": 34.99798, "Lon": 72.07295}], "Kakamas": [{"Name": "Kakamas", "Country Code": "ZA", "Population": 0.0, "Lat": -28.77341, "Lon": 20.6147}], "Kakamega": [{"Name": "Kakamega", "Country Code": "KE", "Population": 1867579.0, "Lat": 0.28422, "Lon": 34.75229}], "Kakamigahara": [{"Name": "Kakamigahara", "Country Code": "JP", "Population": 132241.0, "Lat": 35.41667, "Lon": 136.86667}], "Kakanj": [{"Name": "Kakanj", "Country Code": "BA", "Population": 12406.0, "Lat": 44.13311, "Lon": 18.12292}], "Kakata": [{"Name": "Kakata", "Country Code": "LR", "Population": 52247.0, "Lat": 6.53104, "Lon": -10.35368}], "Kakavije": [{"Name": "Kakavij\u00eb", "Country Code": "AL", "Population": 0.0, "Lat": 39.90778, "Lon": 20.35833}], "Kakching": [{"Name": "Kakching", "Country Code": "IN", "Population": 30418.0, "Lat": 24.4982, "Lon": 93.98126}], "Kakdwip": [{"Name": "Kakdwip", "Country Code": "IN", "Population": 19368.0, "Lat": 21.87914, "Lon": 88.1913}], "Kakegawa": [{"Name": "Kakegawa", "Country Code": "JP", "Population": 117925.0, "Lat": 34.76667, "Lon": 138.01667}], "Kakenstorf": [{"Name": "Kakenstorf", "Country Code": "DE", "Population": 1380.0, "Lat": 53.30317, "Lon": 9.76289}], "Kakert": [{"Name": "Kakert", "Country Code": "NL", "Population": 1750.0, "Lat": 50.90414, "Lon": 6.00463}], "Kakhovka": [{"Name": "Kakhovka", "Country Code": "UA", "Population": 35983.0, "Lat": 46.81601, "Lon": 33.47862}], "Kakhun": [{"Name": "Kakhun", "Country Code": "RU", "Population": 7490.0, "Lat": 43.54306, "Lon": 43.87639}], "Kakinada": [{"Name": "K\u0101kin\u0101da", "Country Code": "IN", "Population": 292923.0, "Lat": 16.96036, "Lon": 82.23809}], "Kako": [{"Name": "Kako", "Country Code": "CI", "Population": 8690.0, "Lat": 4.77572, "Lon": -7.01707}], "Kakogawa": [{"Name": "Kakogawa", "Country Code": "JP", "Population": 0.0, "Lat": 34.75064, "Lon": 134.86954}], "Kakogawacho-honmachi": [{"Name": "Kakogawach\u014d-honmachi", "Country Code": "JP", "Population": 271634.0, "Lat": 34.76943, "Lon": 134.82905}], "Kakohoro": [{"Name": "Kakohoro", "Country Code": "CI", "Population": 1052.0, "Lat": 9.85392, "Lon": -6.91}], "Kakonko": [{"Name": "Kakonko", "Country Code": "TZ", "Population": 24688.0, "Lat": -3.28278, "Lon": 30.96417}], "Kakopetria": [{"Name": "Kakopetri\u00e1", "Country Code": "CY", "Population": 1255.0, "Lat": 34.98768, "Lon": 32.90468}], "Kakori": [{"Name": "K\u0101kori", "Country Code": "IN", "Population": 18332.0, "Lat": 26.868, "Lon": 80.7857}], "Kakoubroukro": [{"Name": "Kakoubroukro", "Country Code": "CI", "Population": 1020.0, "Lat": 6.84558, "Lon": -5.13748}], "Kakpin": [{"Name": "Kakpin", "Country Code": "CI", "Population": 1155.0, "Lat": 8.65508, "Lon": -3.78122}], "Kakrala": [{"Name": "Kakr\u0101la", "Country Code": "IN", "Population": 35690.0, "Lat": 27.89269, "Lon": 79.1945}], "Kakredou": [{"Name": "Kakr\u00e9dou", "Country Code": "CI", "Population": 1633.0, "Lat": 6.1606, "Lon": -6.01519}], "Kakucs": [{"Name": "Kakucs", "Country Code": "HU", "Population": 2707.0, "Lat": 47.242, "Lon": 19.36467}], "Kakuda": [{"Name": "Kakuda", "Country Code": "JP", "Population": 33221.0, "Lat": 37.97451, "Lon": 140.77202}], "Kakuma": [{"Name": "Kakuma", "Country Code": "KE", "Population": 22984.0, "Lat": 3.71363, "Lon": 34.8572}], "Kakumiro": [{"Name": "Kakumiro", "Country Code": "UG", "Population": 0.0, "Lat": 0.78056, "Lon": 31.32361}], "Kakunodatemachi": [{"Name": "Kakunodatemachi", "Country Code": "JP", "Population": 14138.0, "Lat": 39.58926, "Lon": 140.56724}], "Kal": [{"Name": "K\u00e1l", "Country Code": "HU", "Population": 3683.0, "Lat": 47.73333, "Lon": 20.26667}], "Kal'mius'ke": [{"Name": "Kal'mius'ke", "Country Code": "UA", "Population": 11422.0, "Lat": 47.6639, "Lon": 38.07753}], "Kala Dendra": [{"Name": "Kal\u00e1 D\u00e9ndra", "Country Code": "GR", "Population": 1131.0, "Lat": 41.09941, "Lon": 23.42396}], "Kalaat Khasba": [{"Name": "Kalaat Khasba", "Country Code": "TN", "Population": 2558.0, "Lat": 35.66259, "Lon": 8.58577}], "Kalabagh": [{"Name": "Kalabagh", "Country Code": "PK", "Population": 15976.0, "Lat": 32.96164, "Lon": 71.54638}], "Kalabahi": [{"Name": "Kalabahi", "Country Code": "ID", "Population": 0.0, "Lat": -8.2151, "Lon": 124.5458}], "Kalaban Koro": [{"Name": "Kalaban Koro", "Country Code": "ML", "Population": 148247.0, "Lat": 12.57329, "Lon": -8.02907}], "Kalabo": [{"Name": "Kalabo", "Country Code": "ZM", "Population": 7731.0, "Lat": -14.99307, "Lon": 22.67926}], "Kalabulegen": [{"Name": "Kalabulegen", "Country Code": "CN", "Population": 5261.0, "Lat": 46.41383, "Lon": 88.68488}], "Kalaburagi": [{"Name": "Kalaburagi", "Country Code": "IN", "Population": 483615.0, "Lat": 17.33583, "Lon": 76.83757}], "Kalach": [{"Name": "Kalach", "Country Code": "RU", "Population": 20449.0, "Lat": 50.41957, "Lon": 41.0244}], "Kalach-na-Donu": [{"Name": "Kalach-na-Donu", "Country Code": "RU", "Population": 27522.0, "Lat": 48.69099, "Lon": 43.52638}], "Kalachinsk": [{"Name": "Kalachinsk", "Country Code": "RU", "Population": 24059.0, "Lat": 55.05286, "Lon": 74.57511}], "Kaladhungi": [{"Name": "K\u0101l\u0101dh\u016bngi", "Country Code": "IN", "Population": 6763.0, "Lat": 29.28351, "Lon": 79.351}], "Kalafgan": [{"Name": "Kalafg\u0101n", "Country Code": "AF", "Population": 0.0, "Lat": 36.77226, "Lon": 69.94489}], "Kalagarh Project Colony": [{"Name": "K\u0101l\u0101garh Project Colony", "Country Code": "IN", "Population": 13298.0, "Lat": 29.4778, "Lon": 78.78449}], "Kalaheo": [{"Name": "Kal\u0101heo", "Country Code": "US", "Population": 4595.0, "Lat": 21.92416, "Lon": -159.52686}], "Kalahliia": [{"Name": "Kalahliia", "Country Code": "UA", "Population": 1650.0, "Lat": 46.2855, "Lon": 30.36793}], "Kalaikunda": [{"Name": "Kala\u012bkunda", "Country Code": "IN", "Population": 3232.0, "Lat": 22.3393, "Lon": 87.22637}], "Kalaisan": [{"Name": "Kalaisan", "Country Code": "PH", "Population": 2494.0, "Lat": 7.01028, "Lon": 125.045}], "Kalajoki": [{"Name": "Kalajoki", "Country Code": "FI", "Population": 8869.0, "Lat": 64.25, "Lon": 23.95}], "Kalakala": [{"Name": "Kalakala", "Country Code": "CI", "Population": 2941.0, "Lat": 9.46649, "Lon": -4.92765}], "Kalakan": [{"Name": "Kalak\u0101n", "Country Code": "AF", "Population": 0.0, "Lat": 34.78371, "Lon": 69.15001}], "Kalakkadu": [{"Name": "Kalakk\u0101du", "Country Code": "IN", "Population": 27845.0, "Lat": 8.5138, "Lon": 77.54944}], "Kalale": [{"Name": "Kalal\u00e9", "Country Code": "BJ", "Population": 35513.0, "Lat": 10.29275, "Lon": 3.38367}], "Kalaleh": [{"Name": "Kal\u0101leh", "Country Code": "IR", "Population": 33700.0, "Lat": 37.37899, "Lon": 55.493}], "Kalama": [{"Name": "Kalama", "Country Code": "US", "Population": 2398.0, "Lat": 46.00767, "Lon": -122.84436}], "Kalamangog": [{"Name": "Kalamangog", "Country Code": "PH", "Population": 2956.0, "Lat": 6.72556, "Lon": 124.06889}], "Kalamansig": [{"Name": "Kalamansig", "Country Code": "PH", "Population": 12821.0, "Lat": 6.55187, "Lon": 124.05111}], "Kalamare": [{"Name": "Kalamare", "Country Code": "BW", "Population": 2339.0, "Lat": -22.93369, "Lon": 26.57032}], "Kalamaria": [{"Name": "Kalamari\u00e1", "Country Code": "GR", "Population": 91518.0, "Lat": 40.5825, "Lon": 22.95028}], "Kalamassery": [{"Name": "Kalamassery", "Country Code": "IN", "Population": 63176.0, "Lat": 10.0614, "Lon": 76.32631}], "Kalamata": [{"Name": "Kalamata", "Country Code": "GR", "Population": 54100.0, "Lat": 37.03913, "Lon": 22.11265}], "Kalamazoo": [{"Name": "Kalamazoo", "Country Code": "US", "Population": 76041.0, "Lat": 42.29171, "Lon": -85.58723}], "Kalamb": [{"Name": "Kalamb", "Country Code": "IN", "Population": 27287.0, "Lat": 19.04437, "Lon": 73.95554}], "Kalamia": [{"Name": "Kalami\u00e1", "Country Code": "GR", "Population": 1018.0, "Lat": 39.16528, "Lon": 20.93206}], "Kalamnuri": [{"Name": "Kalamn\u016bri", "Country Code": "IN", "Population": 22708.0, "Lat": 19.67386, "Lon": 77.31149}], "Kalamon": [{"Name": "Kalamon", "Country Code": "CI", "Population": 2520.0, "Lat": 9.82285, "Lon": -3.16533}], "Kalamos": [{"Name": "K\u00e1lamos", "Country Code": "GR", "Population": 1824.0, "Lat": 38.28447, "Lon": 23.86308}], "Kalampaka": [{"Name": "Kalamp\u00e1ka", "Country Code": "GR", "Population": 8138.0, "Lat": 39.70444, "Lon": 21.62694}], "Kalampaki": [{"Name": "Kalamp\u00e1ki", "Country Code": "GR", "Population": 3514.0, "Lat": 41.05, "Lon": 24.18333}], "Kalamunda": [{"Name": "Kalamunda", "Country Code": "AU", "Population": 6744.0, "Lat": -31.97372, "Lon": 116.05845}], "Kalan Deh": [{"Name": "Kal\u0101n Deh", "Country Code": "AF", "Population": 0.0, "Lat": 33.83676, "Lon": 68.40233}], "Kalanaur": [{"Name": "Kal\u0101naur", "Country Code": "IN", "Population": 17725.0, "Lat": 28.82823, "Lon": 76.3955}, {"Name": "Kalanaur", "Country Code": "IN", "Population": 13671.0, "Lat": 32.01227, "Lon": 75.15063}], "Kalanchak": [{"Name": "Kalanchak", "Country Code": "UA", "Population": 9251.0, "Lat": 46.25495, "Lon": 33.29061}, {"Name": "Kalanchak", "Country Code": "UA", "Population": 1208.0, "Lat": 45.54058, "Lon": 28.79374}], "Kalandagan": [{"Name": "Kalandagan", "Country Code": "PH", "Population": 2137.0, "Lat": 6.67826, "Lon": 124.72477}], "Kalang": [{"Name": "Kalang", "Country Code": "PH", "Population": 2323.0, "Lat": 5.91972, "Lon": 121.36306}], "Kalangala": [{"Name": "Kalangala", "Country Code": "UG", "Population": 0.0, "Lat": -0.30889, "Lon": 32.225}], "Kalanganan": [{"Name": "Kalanganan", "Country Code": "PH", "Population": 2331.0, "Lat": 8.08333, "Lon": 124.24667}], "Kalangbret": [{"Name": "Kalangbret", "Country Code": "ID", "Population": 0.0, "Lat": -8.0527, "Lon": 111.8653}], "Kalanguy": [{"Name": "Kalanguy", "Country Code": "RU", "Population": 2679.0, "Lat": 51.01667, "Lon": 116.51667}], "Kalanwali": [{"Name": "K\u0101l\u0101nw\u0101li", "Country Code": "IN", "Population": 27355.0, "Lat": 29.83573, "Lon": 74.9717}], "Kalaoa": [{"Name": "Kalaoa", "Country Code": "US", "Population": 9644.0, "Lat": 19.72861, "Lon": -155.98167}], "Kalardasht": [{"Name": "Kal\u0101rdasht", "Country Code": "IR", "Population": 0.0, "Lat": 36.51094, "Lon": 51.17343}], "Kalas": [{"Name": "Kalas", "Country Code": "IN", "Population": 14858.0, "Lat": 18.17241, "Lon": 74.79045}], "Kalashnikovo": [{"Name": "Kalashnikovo", "Country Code": "RU", "Population": 5032.0, "Lat": 57.28237, "Lon": 35.22617}], "Kalasin": [{"Name": "Kalasin", "Country Code": "TH", "Population": 55102.0, "Lat": 16.43281, "Lon": 103.50658}], "Kalasu": [{"Name": "Kalasu", "Country Code": "CN", "Population": 14756.0, "Lat": 38.30623, "Lon": 77.50547}], "Kalaswala": [{"Name": "Kalaswala", "Country Code": "PK", "Population": 12576.0, "Lat": 32.20081, "Lon": 74.64858}], "Kalat": [{"Name": "Kalat", "Country Code": "PK", "Population": 26701.0, "Lat": 29.02663, "Lon": 66.59361}], "Kalat-e Naderi": [{"Name": "Kal\u0101t-e N\u0101der\u012b", "Country Code": "IR", "Population": 0.0, "Lat": 36.99532, "Lon": 59.76472}], "Kalavad": [{"Name": "K\u0101l\u0101vad", "Country Code": "IN", "Population": 26287.0, "Lat": 22.20789, "Lon": 70.38343}], "Kalavai": [{"Name": "Kalavai", "Country Code": "IN", "Population": 10057.0, "Lat": 12.77029, "Lon": 79.41999}], "Kalavoor": [{"Name": "Kalavoor", "Country Code": "IN", "Population": 29564.0, "Lat": 9.57046, "Lon": 76.32756}], "Kalavryta": [{"Name": "Kal\u00e1vryta", "Country Code": "GR", "Population": 1629.0, "Lat": 38.03222, "Lon": 22.1125}], "Kalawa": [{"Name": "Kalawa", "Country Code": "DE", "Population": 9299.0, "Lat": 51.74402, "Lon": 13.95329}], "Kalawit": [{"Name": "Kalawit", "Country Code": "PH", "Population": 8499.0, "Lat": 8.06667, "Lon": 122.51667}], "Kalaxilike": [{"Name": "Kalaxilike", "Country Code": "CN", "Population": 5035.0, "Lat": 47.72945, "Lon": 87.4589}], "Kalayaan": [{"Name": "Kalayaan", "Country Code": "PH", "Population": 7306.0, "Lat": 14.35, "Lon": 121.56667}], "Kalayagaqi": [{"Name": "Kalayagaqi", "Country Code": "CN", "Population": 11766.0, "Lat": 44.05802, "Lon": 81.47606}], "Kalbar": [{"Name": "Kalbar", "Country Code": "AU", "Population": 1071.0, "Lat": -27.94169, "Lon": 152.62372}], "Kalbarri": [{"Name": "Kalbarri", "Country Code": "AU", "Population": 2602.0, "Lat": -27.7105, "Lon": 114.16505}], "Kalbatau": [{"Name": "Kalbatau", "Country Code": "KZ", "Population": 22047.0, "Lat": 49.33009, "Lon": 81.57275}], "Kalbay": [{"Name": "Kalbay", "Country Code": "PH", "Population": 4339.0, "Lat": 5.72333, "Lon": 125.49861}], "Kalbe": [{"Name": "Kalbe", "Country Code": "DE", "Population": 2821.0, "Lat": 52.65656, "Lon": 11.38456}], "Kalbugan": [{"Name": "Kalbugan", "Country Code": "PH", "Population": 3226.0, "Lat": 6.95972, "Lon": 124.65917}], "Kalcheva": [{"Name": "Kalcheva", "Country Code": "UA", "Population": 3536.0, "Lat": 45.73609, "Lon": 28.80772}], "Kalchreuth": [{"Name": "Kalchreuth", "Country Code": "DE", "Population": 3031.0, "Lat": 49.55785, "Lon": 11.1335}], "Kalde Panga": [{"Name": "Kalde Panga", "Country Code": "ID", "Population": 0.0, "Lat": 4.5557, "Lon": 95.71508}], "Kale": [{"Name": "Kale", "Country Code": "TR", "Population": 0.0, "Lat": 40.38688, "Lon": 39.68332}, {"Name": "Kale", "Country Code": "TR", "Population": 5167.0, "Lat": 39.03333, "Lon": 38.0}, {"Name": "Kale", "Country Code": "TR", "Population": 7255.0, "Lat": 37.43917, "Lon": 28.84528}, {"Name": "Kale", "Country Code": "TR", "Population": 0.0, "Lat": 38.41538, "Lon": 38.77092}], "Kalecik": [{"Name": "Kalecik", "Country Code": "TR", "Population": 12932.0, "Lat": 40.09722, "Lon": 33.40833}], "Kaleen": [{"Name": "Kaleen", "Country Code": "AU", "Population": 7092.0, "Lat": -35.21814, "Lon": 149.10516}], "Kalefeld": [{"Name": "Kalefeld", "Country Code": "DE", "Population": 7264.0, "Lat": 51.8, "Lon": 10.03333}], "Kalej": [{"Name": "Kalej", "Country Code": "PL", "Population": 1668.0, "Lat": 50.83662, "Lon": 18.98429}], "Kaleke Mandi": [{"Name": "Kaleke Mandi", "Country Code": "PK", "Population": 16361.0, "Lat": 31.97597, "Lon": 73.59999}], "Kalemie": [{"Name": "Kalemie", "Country Code": "CD", "Population": 160961.0, "Lat": -5.94749, "Lon": 29.19471}], "Kalengwa": [{"Name": "Kalengwa", "Country Code": "ZM", "Population": 7574.0, "Lat": -13.46586, "Lon": 25.00271}], "Kalenje": [{"Name": "Kalenj\u00eb", "Country Code": "AL", "Population": 0.0, "Lat": 40.59, "Lon": 19.77833}], "Kaleroang": [{"Name": "Kaleroang", "Country Code": "ID", "Population": 0.0, "Lat": -3.05237, "Lon": 122.38724}], "Kalesija": [{"Name": "Kalesija", "Country Code": "BA", "Population": 2039.0, "Lat": 44.43765, "Lon": 18.90713}], "Kalety": [{"Name": "Kalety", "Country Code": "PL", "Population": 8670.0, "Lat": 50.5627, "Lon": 18.8926}], "Kalevala": [{"Name": "Kalevala", "Country Code": "RU", "Population": 5431.0, "Lat": 65.19873, "Lon": 31.18999}], "Kaleybar": [{"Name": "Kaleybar", "Country Code": "IR", "Population": 0.0, "Lat": 38.86509, "Lon": 47.03909}], "Kalga": [{"Name": "Kalga", "Country Code": "RU", "Population": 3573.0, "Lat": 50.92538, "Lon": 118.89958}], "Kalghatgi": [{"Name": "Kalghatgi", "Country Code": "IN", "Population": 15428.0, "Lat": 15.18315, "Lon": 74.97099}], "Kalgo": [{"Name": "Kalgo", "Country Code": "NG", "Population": 0.0, "Lat": 12.32666, "Lon": 4.2004}], "Kalgoorlie": [{"Name": "Kalgoorlie", "Country Code": "AU", "Population": 4189.0, "Lat": -30.74614, "Lon": 121.4742}], "Kali": [{"Name": "Kal\u00ed", "Country Code": "GR", "Population": 1773.0, "Lat": 40.81931, "Lon": 22.17761}, {"Name": "Kali", "Country Code": "HR", "Population": 1585.0, "Lat": 44.06278, "Lon": 15.20556}, {"Name": "Kali", "Country Code": "ID", "Population": 0.0, "Lat": 1.16232, "Lon": 121.42923}], "Kali Vrysi": [{"Name": "Kal\u00ed Vr\u00fdsi", "Country Code": "GR", "Population": 1163.0, "Lat": 41.14653, "Lon": 23.90667}], "Kalia": [{"Name": "K\u0101lia", "Country Code": "BD", "Population": 40492.0, "Lat": 23.043, "Lon": 89.63094}], "Kalian": [{"Name": "Kalian", "Country Code": "PH", "Population": 2815.0, "Lat": 7.5916, "Lon": 123.2319}, {"Name": "Kalian", "Country Code": "PH", "Population": 3488.0, "Lat": 6.12306, "Lon": 125.70028}], "Kalianda": [{"Name": "Kalianda", "Country Code": "ID", "Population": 0.0, "Lat": -5.73805, "Lon": 105.5916}], "Kalianget": [{"Name": "Kalianget", "Country Code": "ID", "Population": 23897.0, "Lat": -7.0537, "Lon": 113.94244}], "Kalianyar Selatan": [{"Name": "Kalianyar Selatan", "Country Code": "ID", "Population": 0.0, "Lat": -8.01306, "Lon": 113.82944}], "Kalibo (poblacion)": [{"Name": "Kalibo (poblacion)", "Country Code": "PH", "Population": 89127.0, "Lat": 11.70611, "Lon": 122.36444}], "Kalibunder": [{"Name": "Kalibunder", "Country Code": "ID", "Population": 0.0, "Lat": -7.2627, "Lon": 106.7222}], "Kalida": [{"Name": "Kalida", "Country Code": "US", "Population": 1562.0, "Lat": 40.98283, "Lon": -84.19939}], "Kalidawir": [{"Name": "Kalidawir", "Country Code": "ID", "Population": 0.0, "Lat": -8.1808, "Lon": 111.9723}], "Kalifornsky": [{"Name": "Kalifornsky", "Country Code": "US", "Population": 7850.0, "Lat": 60.41833, "Lon": -151.29}], "Kaliganj": [{"Name": "K\u0101l\u012bganj", "Country Code": "BD", "Population": 45631.0, "Lat": 23.40964, "Lon": 89.13801}], "Kaligutan": [{"Name": "Kaligutan", "Country Code": "PH", "Population": 2789.0, "Lat": 7.70306, "Lon": 125.81306}], "Kalikapur": [{"Name": "K\u0101lik\u0101pur", "Country Code": "IN", "Population": 4061.0, "Lat": 22.61662, "Lon": 86.2881}], "Kalikino": [{"Name": "Kalikino", "Country Code": "RU", "Population": 3352.0, "Lat": 52.9493, "Lon": 39.8269}], "Kalilangan": [{"Name": "Kalilangan", "Country Code": "PH", "Population": 14456.0, "Lat": 7.74514, "Lon": 124.74777}], "Kaliling": [{"Name": "Kaliling", "Country Code": "PH", "Population": 4840.0, "Lat": 9.9804, "Lon": 122.4814}], "Kaliliog": [{"Name": "Kaliliog", "Country Code": "PH", "Population": 2738.0, "Lat": 13.9039, "Lon": 123.2925}], "Kalima": [{"Name": "Kalima", "Country Code": "CD", "Population": 72327.0, "Lat": -5.4854, "Lon": 28.21601}], "Kalimna": [{"Name": "Kalimna", "Country Code": "AU", "Population": 1200.0, "Lat": -37.87011, "Lon": 147.96664}], "Kalimpong": [{"Name": "K\u0101limpong", "Country Code": "IN", "Population": 43000.0, "Lat": 27.07059, "Lon": 88.47529}], "Kalimpong, Kruketi": [{"Name": "Kalimpong, \u041a\u0440\u0443\u043a\u0435\u0442\u0438", "Country Code": "IN", "Population": 0.0, "Lat": 27.05623, "Lon": 88.46207}], "Kalinagar": [{"Name": "K\u0101l\u012bnagar", "Country Code": "IN", "Population": 10728.0, "Lat": 28.62019, "Lon": 80.08152}], "Kalinga": [{"Name": "Kalinga", "Country Code": "AU", "Population": 2103.0, "Lat": -27.40957, "Lon": 153.05061}], "Kalinin": [{"Name": "Kalinin", "Country Code": "RU", "Population": 3423.0, "Lat": 47.24678, "Lon": 39.51088}], "Kalininaul": [{"Name": "Kalininaul", "Country Code": "RU", "Population": 4752.0, "Lat": 43.07121, "Lon": 46.56679}], "Kaliningrad": [{"Name": "Kaliningrad", "Country Code": "RU", "Population": 475056.0, "Lat": 54.70649, "Lon": 20.51095}], "Kalinino": [{"Name": "Kalinino", "Country Code": "UA", "Population": 1120.0, "Lat": 45.59521, "Lon": 34.2203}, {"Name": "Kalinino", "Country Code": "UA", "Population": 1640.0, "Lat": 45.74262, "Lon": 33.77676}], "Kalininsk": [{"Name": "Kalininsk", "Country Code": "RU", "Population": 18685.0, "Lat": 51.5, "Lon": 44.4758}], "Kalininskaya": [{"Name": "Kalininskaya", "Country Code": "RU", "Population": 13363.0, "Lat": 45.4844, "Lon": 38.66221}], "Kalininskiy": [{"Name": "Kalininskiy", "Country Code": "RU", "Population": 504641.0, "Lat": 59.99675, "Lon": 30.3899}], "Kalinkavichy": [{"Name": "Kalinkavichy", "Country Code": "BY", "Population": 37190.0, "Lat": 52.1323, "Lon": 29.3257}], "Kalinko": [{"Name": "Kalinko", "Country Code": "GN", "Population": 436.0, "Lat": 11.11667, "Lon": -11.18333}], "Kalino": [{"Name": "Kalino", "Country Code": "RU", "Population": 2473.0, "Lat": 58.2504, "Lon": 57.6085}], "Kalinovac": [{"Name": "Kalinovac", "Country Code": "HR", "Population": 1194.0, "Lat": 46.02944, "Lon": 17.11556}], "Kalinovik": [{"Name": "Kalinovik", "Country Code": "BA", "Population": 1095.0, "Lat": 43.50464, "Lon": 18.44649}], "Kalinovka": [{"Name": "Kalinovka", "Country Code": "UA", "Population": 2302.0, "Lat": 45.31658, "Lon": 35.74643}], "Kalinovo": [{"Name": "Kalinovo", "Country Code": "RU", "Population": 2901.0, "Lat": 57.1317, "Lon": 60.1464}], "Kalinovskaya": [{"Name": "Kalinovskaya", "Country Code": "RU", "Population": 8305.0, "Lat": 43.57383, "Lon": 45.5209}], "Kalinovskoye": [{"Name": "Kalinovskoye", "Country Code": "RU", "Population": 3951.0, "Lat": 44.8635, "Lon": 42.9622}], "Kaliori": [{"Name": "Kaliori", "Country Code": "ID", "Population": 0.0, "Lat": -6.7019, "Lon": 111.2475}], "Kalipang": [{"Name": "Kalipang", "Country Code": "ID", "Population": 0.0, "Lat": -6.7241, "Lon": 111.6536}], "Kalipucang": [{"Name": "Kalipucang", "Country Code": "ID", "Population": 0.0, "Lat": -7.6433, "Lon": 108.7526}], "Kalirejo": [{"Name": "Kalirejo", "Country Code": "ID", "Population": 0.0, "Lat": -5.22582, "Lon": 104.96131}], "Kaliro": [{"Name": "Kaliro", "Country Code": "UG", "Population": 0.0, "Lat": 0.89444, "Lon": 33.49944}], "Kalis": [{"Name": "Kalis", "Country Code": "AL", "Population": 0.0, "Lat": 41.83889, "Lon": 20.36667}], "Kaliska": [{"Name": "Kaliska", "Country Code": "PL", "Population": 2268.0, "Lat": 53.90535, "Lon": 18.21885}], "Kalispell": [{"Name": "Kalispell", "Country Code": "US", "Population": 22052.0, "Lat": 48.19579, "Lon": -114.31291}], "Kalisz": [{"Name": "Kalisz", "Country Code": "PL", "Population": 108759.0, "Lat": 51.76109, "Lon": 18.09102}], "Kalisz Pomorski": [{"Name": "Kalisz Pomorski", "Country Code": "PL", "Population": 4110.0, "Lat": 53.29908, "Lon": 15.90631}], "Kaliua": [{"Name": "Kaliua", "Country Code": "TZ", "Population": 12362.0, "Lat": -5.06056, "Lon": 31.79361}], "Kalix": [{"Name": "Kalix", "Country Code": "SE", "Population": 7495.0, "Lat": 65.85298, "Lon": 23.15645}], "Kaliyaganj": [{"Name": "K\u0101liy\u0101ganj", "Country Code": "IN", "Population": 51748.0, "Lat": 25.63442, "Lon": 88.32665}], "Kalk": [{"Name": "Kalk", "Country Code": "DE", "Population": 22802.0, "Lat": 50.94013, "Lon": 7.00605}], "Kalka": [{"Name": "K\u0101lka", "Country Code": "IN", "Population": 32205.0, "Lat": 30.83982, "Lon": 76.94065}], "Kalkaman": [{"Name": "Kalkaman", "Country Code": "KZ", "Population": 5415.0, "Lat": 51.95349, "Lon": 76.02723}], "Kalkan": [{"Name": "Kalkan", "Country Code": "TR", "Population": 3000.0, "Lat": 36.2651, "Lon": 29.41369}], "Kalkandere": [{"Name": "Kalkandere", "Country Code": "TR", "Population": 9115.0, "Lat": 40.92046, "Lon": 40.43692}], "Kalkar": [{"Name": "Kalkar", "Country Code": "DE", "Population": 13944.0, "Lat": 51.73907, "Lon": 6.29101}], "Kalkara": [{"Name": "Kalkara", "Country Code": "MT", "Population": 3059.0, "Lat": 35.88917, "Lon": 14.53278}], "Kalkaska": [{"Name": "Kalkaska", "Country Code": "US", "Population": 2038.0, "Lat": 44.73417, "Lon": -85.17589}], "Kalken": [{"Name": "Kalken", "Country Code": "BE", "Population": 5782.0, "Lat": 51.03836, "Lon": 3.9186}], "Kalkfeld": [{"Name": "Kalkfeld", "Country Code": NaN, "Population": 1656.0, "Lat": -20.88333, "Lon": 16.18333}], "Kalkhorst": [{"Name": "Kalkhorst", "Country Code": "DE", "Population": 1328.0, "Lat": 53.97012, "Lon": 11.04469}], "Kalkie": [{"Name": "Kalkie", "Country Code": "AU", "Population": 2650.0, "Lat": -24.84426, "Lon": 152.38532}], "Kalkim": [{"Name": "Kalk\u0131m", "Country Code": "TR", "Population": 2198.0, "Lat": 39.81167, "Lon": 27.215}], "Kalkrand": [{"Name": "Kalkrand", "Country Code": NaN, "Population": 1467.0, "Lat": -24.07367, "Lon": 17.58635}], "Kall": [{"Name": "Kall", "Country Code": "DE", "Population": 11903.0, "Lat": 50.54223, "Lon": 6.56297}], "Kallakkurichchi": [{"Name": "Kallakkurichchi", "Country Code": "IN", "Population": 40449.0, "Lat": 11.7404, "Lon": 78.959}], "Kallakurichi": [{"Name": "Kallakurichi", "Country Code": "IN", "Population": 1682687.0, "Lat": 11.73379, "Lon": 78.95925}], "Kallangur": [{"Name": "Kallangur", "Country Code": "AU", "Population": 20222.0, "Lat": -27.25204, "Lon": 152.99226}], "Kallar Kahar": [{"Name": "Kallar Kahar", "Country Code": "PK", "Population": 15800.0, "Lat": 32.77998, "Lon": 72.69793}], "Kallaroo": [{"Name": "Kallaroo", "Country Code": "AU", "Population": 5042.0, "Lat": -31.79098, "Lon": 115.75298}], "Kallby": [{"Name": "K\u00e5llby", "Country Code": "FI", "Population": 1083.0, "Lat": 63.62542, "Lon": 22.89594}], "Kallered": [{"Name": "K\u00e5llered", "Country Code": "SE", "Population": 6784.0, "Lat": 57.60992, "Lon": 12.05106}], "Kallidaikurichi": [{"Name": "Kallidaikurichi", "Country Code": "IN", "Population": 25513.0, "Lat": 8.68591, "Lon": 77.46592}], "Kallifoni": [{"Name": "Kallif\u00f3ni", "Country Code": "GR", "Population": 1208.0, "Lat": 39.27712, "Lon": 21.96128}], "Kallifytos": [{"Name": "Kall\u00edfytos", "Country Code": "GR", "Population": 1098.0, "Lat": 41.1728, "Lon": 24.21527}], "Kallikomo": [{"Name": "Kallikomo", "Country Code": "GR", "Population": 1008.0, "Lat": 37.5833, "Lon": 21.5833}], "Kallinge": [{"Name": "Kallinge", "Country Code": "SE", "Population": 4664.0, "Lat": 56.24841, "Lon": 15.28721}], "Kallio": [{"Name": "Kallio", "Country Code": "FI", "Population": 27051.0, "Lat": 60.18427, "Lon": 24.95034}], "Kallista": [{"Name": "Kallista", "Country Code": "AU", "Population": 1418.0, "Lat": -37.89815, "Lon": 145.38226}], "Kallithea": [{"Name": "Kallith\u00e9a", "Country Code": "GR", "Population": 3100.0, "Lat": 40.2739, "Lon": 22.57775}, {"Name": "Kallith\u00e9a", "Country Code": "GR", "Population": 100641.0, "Lat": 37.95, "Lon": 23.7},