{"Per": [{"Name": "P\u00e9r", "Country Code": "HU", "Population": 2372.0, "Lat": 47.61153, "Lon": 17.80632}], "Pera": [{"Name": "P\u00e9ra", "Country Code": "CY", "Population": 1060.0, "Lat": 35.0335, "Lon": 33.25413}, {"Name": "P\u00eara", "Country Code": "PT", "Population": 1951.0, "Lat": 37.12296, "Lon": -8.34115}], "Peracense": [{"Name": "Peracense", "Country Code": "ES", "Population": 108.0, "Lat": 40.64099, "Lon": -1.47075}], "Perach": [{"Name": "Perach", "Country Code": "DE", "Population": 1225.0, "Lat": 48.26667, "Lon": 12.76667}], "Perachora": [{"Name": "Perach\u00f3ra", "Country Code": "GR", "Population": 1141.0, "Lat": 38.03021, "Lon": 22.94902}], "Perafita": [{"Name": "Perafita", "Country Code": "PT", "Population": 12538.0, "Lat": 41.18252, "Lon": -8.2545}], "Perai": [{"Name": "Perai", "Country Code": "GM", "Population": 1026.0, "Lat": 13.38333, "Lon": -14.03333}, {"Name": "Perai", "Country Code": "MY", "Population": 65301.0, "Lat": 5.38333, "Lon": 100.38333}], "Peraia": [{"Name": "Pera\u00eda", "Country Code": "GR", "Population": 18326.0, "Lat": 40.49874, "Lon": 22.92617}], "Peraiyur": [{"Name": "Peraiyur", "Country Code": "IN", "Population": 9244.0, "Lat": 9.73579, "Lon": 77.78955}], "Peral de Arlanza": [{"Name": "Peral de Arlanza", "Country Code": "ES", "Population": 219.0, "Lat": 42.07612, "Lon": -4.07733}], "Peralada": [{"Name": "Peralada", "Country Code": "ES", "Population": 0.0, "Lat": 42.30823, "Lon": 3.0091}], "Peraleda de San Roman": [{"Name": "Peraleda de San Rom\u00e1n", "Country Code": "ES", "Population": 348.0, "Lat": 39.7413, "Lon": -5.38726}], "Peraleda de la Mata": [{"Name": "Peraleda de la Mata", "Country Code": "ES", "Population": 1545.0, "Lat": 39.85288, "Lon": -5.46065}], "Peralejos": [{"Name": "Peralejos", "Country Code": "ES", "Population": 87.0, "Lat": 40.48433, "Lon": -1.03408}], "Peralejos de Abajo": [{"Name": "Peralejos de Abajo", "Country Code": "ES", "Population": 186.0, "Lat": 41.00469, "Lon": -6.36238}], "Peralejos de Arriba": [{"Name": "Peralejos de Arriba", "Country Code": "ES", "Population": 60.0, "Lat": 41.0041, "Lon": -6.33362}], "Peralejos de las Truchas": [{"Name": "Peralejos de las Truchas", "Country Code": "ES", "Population": 167.0, "Lat": 40.59336, "Lon": -1.90953}], "Perales": [{"Name": "Perales", "Country Code": "ES", "Population": 103.0, "Lat": 42.19398, "Lon": -4.58105}, {"Name": "Perales", "Country Code": "PA", "Population": 230.0, "Lat": 7.77687, "Lon": -80.3214}], "Perales de Tajuna": [{"Name": "Perales de Taju\u00f1a", "Country Code": "ES", "Population": 2462.0, "Lat": 40.2313, "Lon": -3.35021}], "Perales del Alfambra": [{"Name": "Perales del Alfambra", "Country Code": "ES", "Population": 303.0, "Lat": 40.63383, "Lon": -1.00181}], "Perales del Puerto": [{"Name": "Perales del Puerto", "Country Code": "ES", "Population": 976.0, "Lat": 40.15596, "Lon": -6.68192}], "Peralta": [{"Name": "Peralta", "Country Code": "DO", "Population": 7236.0, "Lat": 18.58164, "Lon": -70.77029}, {"Name": "Peralta", "Country Code": "ES", "Population": 5722.0, "Lat": 42.33834, "Lon": -1.80035}, {"Name": "Peralta", "Country Code": "MX", "Population": 1134.0, "Lat": 20.4735, "Lon": -101.40811}, {"Name": "Peralta", "Country Code": "US", "Population": 3585.0, "Lat": 34.837, "Lon": -106.69058}], "Peraltilla": [{"Name": "Peraltilla", "Country Code": "ES", "Population": 183.0, "Lat": 42.05407, "Lon": -0.0184}], "Peralveche": [{"Name": "Peralveche", "Country Code": "ES", "Population": 101.0, "Lat": 40.61078, "Lon": -2.44957}], "Perama": [{"Name": "P\u00e9rama", "Country Code": "GR", "Population": 25389.0, "Lat": 37.96775, "Lon": 23.5721}, {"Name": "P\u00e9rama", "Country Code": "GR", "Population": 1841.0, "Lat": 39.69331, "Lon": 20.84656}, {"Name": "P\u00e9rama", "Country Code": "GR", "Population": 1655.0, "Lat": 35.3703, "Lon": 24.70345}, {"Name": "Perama", "Country Code": "GR", "Population": 1021.0, "Lat": 39.58289, "Lon": 19.9122}], "Perambalur": [{"Name": "Perambalur", "Country Code": "IN", "Population": 30799.0, "Lat": 11.23333, "Lon": 78.88333}], "Peramoga": [{"Name": "Peramoga", "Country Code": "BY", "Population": 1423.0, "Lat": 52.3973, "Lon": 31.071}], "Peranamallur": [{"Name": "Peranamall\u016br", "Country Code": "IN", "Population": 5723.0, "Lat": 12.57052, "Lon": 79.43332}], "Peranampattu": [{"Name": "Peran\u0101mpattu", "Country Code": "IN", "Population": 43124.0, "Lat": 12.9343, "Lon": 78.7189}], "Peranap": [{"Name": "Peranap", "Country Code": "ID", "Population": 0.0, "Lat": -0.5449, "Lon": 101.9837}], "Perano": [{"Name": "Perano", "Country Code": "IT", "Population": 451.0, "Lat": 42.1046, "Lon": 14.39581}], "Peranzanes": [{"Name": "Peranzanes", "Country Code": "ES", "Population": 331.0, "Lat": 42.87725, "Lon": -6.63383}], "Perarolo di Cadore": [{"Name": "Perarolo di Cadore", "Country Code": "IT", "Population": 99.0, "Lat": 46.39383, "Lon": 12.35636}], "Peras": [{"Name": "Peras", "Country Code": "MX", "Population": 3511.0, "Lat": 17.35919, "Lon": -98.23718}], "Peravurani": [{"Name": "Peravurani", "Country Code": "IN", "Population": 21663.0, "Lat": 10.29035, "Lon": 79.20156}], "Perbal": [{"Name": "Perb\u00e1l", "Country Code": "HU", "Population": 2167.0, "Lat": 47.58957, "Lon": 18.76099}], "Perbaungan": [{"Name": "Perbaungan", "Country Code": "ID", "Population": 157174.0, "Lat": 3.5679, "Lon": 98.956}], "Perca": [{"Name": "Perca", "Country Code": "IT", "Population": 639.0, "Lat": 46.79343, "Lon": 11.98339}], "Perchau am Sattel": [{"Name": "Perchau am Sattel", "Country Code": "AT", "Population": 304.0, "Lat": 47.1, "Lon": 14.45}], "Perches": [{"Name": "Perches", "Country Code": "HT", "Population": 1889.0, "Lat": 19.52201, "Lon": -71.92323}], "Perchtoldsdorf": [{"Name": "Perchtoldsdorf", "Country Code": "AT", "Population": 15047.0, "Lat": 48.11935, "Lon": 16.26607}], "Percile": [{"Name": "Percile", "Country Code": "IT", "Population": 277.0, "Lat": 42.09497, "Lon": 12.91048}], "Percoto": [{"Name": "Percoto", "Country Code": "IT", "Population": 1542.0, "Lat": 45.97471, "Lon": 13.32304}], "Percut": [{"Name": "Percut", "Country Code": "ID", "Population": 311063.0, "Lat": 3.6253, "Lon": 98.864}], "Percy": [{"Name": "Percy", "Country Code": "FR", "Population": 2236.0, "Lat": 48.91714, "Lon": -1.18916}], "Perdasdefogu": [{"Name": "Perdasdefogu", "Country Code": "IT", "Population": 2042.0, "Lat": 39.67959, "Lon": 9.44082}], "Perdaxius": [{"Name": "Perdaxius", "Country Code": "IT", "Population": 842.0, "Lat": 39.16028, "Lon": 8.61083}], "Perdifumo": [{"Name": "Perdifumo", "Country Code": "IT", "Population": 418.0, "Lat": 40.26694, "Lon": 15.01652}], "Perdiguera": [{"Name": "Perdiguera", "Country Code": "ES", "Population": 610.0, "Lat": 41.75458, "Lon": -0.63148}], "Perdika": [{"Name": "P\u00e9rdika", "Country Code": "GR", "Population": 1476.0, "Lat": 39.36967, "Lon": 20.30419}], "Perdoes": [{"Name": "Perd\u00f5es", "Country Code": "BR", "Population": 17821.0, "Lat": -21.09083, "Lon": -45.09139}], "Perebykivtsi": [{"Name": "Perebykivtsi", "Country Code": "UA", "Population": 2292.0, "Lat": 48.58701, "Lon": 26.13817}], "Perechyn": [{"Name": "Perechyn", "Country Code": "UA", "Population": 6683.0, "Lat": 48.73494, "Lon": 22.47718}], "Peredovaya": [{"Name": "Peredovaya", "Country Code": "RU", "Population": 4204.0, "Lat": 44.11722, "Lon": 41.47556}], "Peregian Beach": [{"Name": "Peregian Beach", "Country Code": "AU", "Population": 3863.0, "Lat": -26.481, "Lon": 153.096}], "Peregian Springs": [{"Name": "Peregian Springs", "Country Code": "AU", "Population": 6887.0, "Lat": -26.48801, "Lon": 153.07577}], "Perego": [{"Name": "Perego", "Country Code": "IT", "Population": 1280.0, "Lat": 45.73758, "Lon": 9.36295}], "Peregu Mare": [{"Name": "Peregu Mare", "Country Code": "RO", "Population": 1770.0, "Lat": 46.23333, "Lon": 20.9}], "Peregu Mic": [{"Name": "Peregu Mic", "Country Code": "RO", "Population": 1047.0, "Lat": 46.25021, "Lon": 20.94885}], "Perehinske": [{"Name": "Perehinske", "Country Code": "UA", "Population": 12681.0, "Lat": 48.81118, "Lon": 24.19196}], "Perehonivka": [{"Name": "Perehonivka", "Country Code": "UA", "Population": 3354.0, "Lat": 48.53218, "Lon": 30.52091}], "Pereiaslav": [{"Name": "Pereiaslav", "Country Code": "UA", "Population": 26273.0, "Lat": 50.06739, "Lon": 31.44969}], "Pereira": [{"Name": "Pereira", "Country Code": "CO", "Population": 467269.0, "Lat": 4.81333, "Lon": -75.69611}], "Pereira Barreto": [{"Name": "Pereira Barreto", "Country Code": "BR", "Population": 22537.0, "Lat": -20.63833, "Lon": -51.10917}], "Pereiro de Aguiar": [{"Name": "Pereiro de Aguiar", "Country Code": "ES", "Population": 5443.0, "Lat": 42.34524, "Lon": -7.80008}], "Perekhrestove": [{"Name": "Perekhrestove", "Country Code": "UA", "Population": 1035.0, "Lat": 47.43529, "Lon": 29.79827}], "Pereleshino": [{"Name": "Perel\u00ebshino", "Country Code": "RU", "Population": 3795.0, "Lat": 51.7378, "Lon": 40.1375}], "Pereleshinskiy": [{"Name": "Perel\u00ebshinskiy", "Country Code": "RU", "Population": 3257.0, "Lat": 51.71767, "Lon": 40.19563}], "Perelhal": [{"Name": "Perelhal", "Country Code": "PT", "Population": 1749.0, "Lat": 41.53075, "Lon": -8.68982}], "Perelyub": [{"Name": "Perelyub", "Country Code": "RU", "Population": 5549.0, "Lat": 51.86292, "Lon": 50.35412}], "Peremetnoe": [{"Name": "Peremetnoe", "Country Code": "KZ", "Population": 4003.0, "Lat": 51.19801, "Lon": 50.85291}], "Peremyshl'": [{"Name": "Peremyshl\u2019", "Country Code": "RU", "Population": 3199.0, "Lat": 54.2638, "Lon": 36.16029}], "Peremyshliany": [{"Name": "Peremyshliany", "Country Code": "UA", "Population": 7284.0, "Lat": 49.67053, "Lon": 24.55657}], "Perenchies": [{"Name": "P\u00e9renchies", "Country Code": "FR", "Population": 7761.0, "Lat": 50.67013, "Lon": 2.97024}], "Perene": [{"Name": "Peren\u00e9", "Country Code": "PE", "Population": 6844.0, "Lat": -10.9451, "Lon": -75.22394}], "Perepravnaya": [{"Name": "Perepravnaya", "Country Code": "RU", "Population": 3186.0, "Lat": 44.3366, "Lon": 40.7849}], "Perere": [{"Name": "P\u00e8r\u00e8r\u00e8", "Country Code": "BJ", "Population": 15927.0, "Lat": 9.79721, "Lon": 2.98403}], "Pereruela": [{"Name": "Pereruela", "Country Code": "ES", "Population": 660.0, "Lat": 41.4165, "Lon": -5.87812}], "Peresadivka": [{"Name": "Peresadivka", "Country Code": "UA", "Population": 3141.0, "Lat": 47.11353, "Lon": 32.1908}], "Pereshchepyne": [{"Name": "Pereshchepyne", "Country Code": "UA", "Population": 9720.0, "Lat": 49.02512, "Lon": 35.36885}], "Peresichna": [{"Name": "Peresichna", "Country Code": "UA", "Population": 6894.0, "Lat": 50.02452, "Lon": 35.97871}], "Pereslavl'-Zalesskiy": [{"Name": "Pereslavl\u2019-Zalesskiy", "Country Code": "RU", "Population": 40283.0, "Lat": 56.73912, "Lon": 38.85966}], "Peresvet": [{"Name": "Peresvet", "Country Code": "RU", "Population": 15000.0, "Lat": 56.42302, "Lon": 38.17612}], "Pereto": [{"Name": "Pereto", "Country Code": "IT", "Population": 693.0, "Lat": 42.05821, "Lon": 13.10231}], "Peretu": [{"Name": "Peretu", "Country Code": "RO", "Population": 7816.0, "Lat": 44.05, "Lon": 25.08333}], "Pereval'noye": [{"Name": "Pereval'noye", "Country Code": "UA", "Population": 3426.0, "Lat": 44.84838, "Lon": 34.31271}], "Perevalsk": [{"Name": "Perevalsk", "Country Code": "UA", "Population": 24817.0, "Lat": 48.43779, "Lon": 38.84384}], "Perevoloki": [{"Name": "Perevoloki", "Country Code": "RU", "Population": 1130.0, "Lat": 53.2458, "Lon": 49.1793}], "Perevolotskiy": [{"Name": "Perevolotskiy", "Country Code": "RU", "Population": 9667.0, "Lat": 51.87633, "Lon": 54.19378}], "Perevoz": [{"Name": "Perevoz", "Country Code": "RU", "Population": 9228.0, "Lat": 55.5957, "Lon": 44.5454}], "Pereyaslovskaya": [{"Name": "Pereyaslovskaya", "Country Code": "RU", "Population": 8542.0, "Lat": 45.84121, "Lon": 39.02379}], "Perez": [{"Name": "P\u00e9rez", "Country Code": "AR", "Population": 24436.0, "Lat": -32.99835, "Lon": -60.76791}, {"Name": "Perez", "Country Code": "PH", "Population": 4788.0, "Lat": 14.19465, "Lon": 121.92636}], "Perez de Galeana": [{"Name": "P\u00e9rez de Galeana", "Country Code": "MX", "Population": 1844.0, "Lat": 19.97933, "Lon": -99.14164}], "Perezville": [{"Name": "Perezville", "Country Code": "US", "Population": 5376.0, "Lat": 26.22452, "Lon": -98.40057}], "Perfilovo": [{"Name": "Perfilovo", "Country Code": "RU", "Population": 1300.0, "Lat": 54.41083, "Lon": 100.48454}], "Perfugas": [{"Name": "Perfugas", "Country Code": "IT", "Population": 2085.0, "Lat": 40.83231, "Lon": 8.88354}], "Perg": [{"Name": "Perg", "Country Code": "AT", "Population": 5812.0, "Lat": 48.25, "Lon": 14.63333}], "Pergamino": [{"Name": "Pergamino", "Country Code": "AR", "Population": 91399.0, "Lat": -33.89101, "Lon": -60.57462}], "Pergamos": [{"Name": "P\u00e9rgamos", "Country Code": "CY", "Population": 15000.0, "Lat": 35.04167, "Lon": 33.70833}], "Pergine Valdarno": [{"Name": "Pergine Valdarno", "Country Code": "IT", "Population": 577.0, "Lat": 43.47028, "Lon": 11.68552}], "Pergine Valsugana": [{"Name": "Pergine Valsugana", "Country Code": "IT", "Population": 11538.0, "Lat": 46.06434, "Lon": 11.23758}], "Pergola": [{"Name": "Pergola", "Country Code": "IT", "Population": 4137.0, "Lat": 43.55485, "Lon": 12.83633}], "Perham": [{"Name": "Perham", "Country Code": "US", "Population": 3278.0, "Lat": 46.5944, "Lon": -95.57254}], "Perho": [{"Name": "Perho", "Country Code": "FI", "Population": 2974.0, "Lat": 63.21667, "Lon": 24.41667}], "Peri": [{"Name": "Peri", "Country Code": "FR", "Population": 1198.0, "Lat": 42.00345, "Lon": 8.92066}], "Periam": [{"Name": "Periam", "Country Code": "RO", "Population": 6563.0, "Lat": 46.05, "Lon": 20.86667}], "Periana": [{"Name": "Periana", "Country Code": "ES", "Population": 3404.0, "Lat": 36.92931, "Lon": -4.19163}], "Periban de Ramos": [{"Name": "Perib\u00e1n de Ramos", "Country Code": "MX", "Population": 15434.0, "Lat": 19.5201, "Lon": -102.41397}], "Pericei": [{"Name": "Pericei", "Country Code": "RO", "Population": 2785.0, "Lat": 47.23333, "Lon": 22.88333}], "Perico": [{"Name": "Perico", "Country Code": "CU", "Population": 24073.0, "Lat": 22.76987, "Lon": -81.0183}], "Pericos": [{"Name": "Pericos", "Country Code": "MX", "Population": 2222.0, "Lat": 22.04925, "Lon": -105.35402}, {"Name": "Pericos", "Country Code": "MX", "Population": 6341.0, "Lat": 25.08093, "Lon": -107.69966}], "Pericotepec": [{"Name": "Pericotepec", "Country Code": "MX", "Population": 1479.0, "Lat": 18.6067, "Lon": -97.63098}], "Peridot": [{"Name": "Peridot", "Country Code": "US", "Population": 1350.0, "Lat": 33.31034, "Lon": -110.45538}], "Perieni": [{"Name": "Perieni", "Country Code": "RO", "Population": 1650.0, "Lat": 47.38469, "Lon": 27.47453}, {"Name": "Perieni", "Country Code": "RO", "Population": 5258.0, "Lat": 46.3, "Lon": 27.61667}], "Perier": [{"Name": "P\u00e9rier", "Country Code": "FR", "Population": 12897.0, "Lat": 43.27755, "Lon": 5.37925}], "Periers": [{"Name": "P\u00e9riers", "Country Code": "FR", "Population": 2647.0, "Lat": 49.18667, "Lon": -1.40762}], "Perieti": [{"Name": "Perie\u0163i", "Country Code": "RO", "Population": 3638.0, "Lat": 44.55, "Lon": 27.21667}, {"Name": "Perie\u0163i", "Country Code": "RO", "Population": 3963.0, "Lat": 44.4, "Lon": 24.55}], "Perignac": [{"Name": "P\u00e9rignac", "Country Code": "FR", "Population": 1041.0, "Lat": 45.62409, "Lon": -0.46513}], "Perignat-les-Sarlieve": [{"Name": "P\u00e9rignat-l\u00e8s-Sarli\u00e8ve", "Country Code": "FR", "Population": 2307.0, "Lat": 45.73657, "Lon": 3.1396}], "Perignat-sur-Allier": [{"Name": "P\u00e9rignat-sur-Allier", "Country Code": "FR", "Population": 1302.0, "Lat": 45.72843, "Lon": 3.23184}], "Perigneux": [{"Name": "P\u00e9rigneux", "Country Code": "FR", "Population": 1250.0, "Lat": 45.44077, "Lon": 4.15569}], "Perigny": [{"Name": "P\u00e9rigny", "Country Code": "FR", "Population": 2087.0, "Lat": 48.69656, "Lon": 2.55537}, {"Name": "P\u00e9rigny", "Country Code": "FR", "Population": 6460.0, "Lat": 46.15447, "Lon": -1.09688}], "Perigueux": [{"Name": "P\u00e9rigueux", "Country Code": "FR", "Population": 34770.0, "Lat": 45.18691, "Lon": 0.71439}], "Perii Brosteni": [{"Name": "Perii Bro\u0219teni", "Country Code": "RO", "Population": 1400.0, "Lat": 44.20336, "Lon": 25.26377}], "Perilla de Castro": [{"Name": "Perilla de Castro", "Country Code": "ES", "Population": 219.0, "Lat": 41.7254, "Lon": -5.87636}], "Perinaldo": [{"Name": "Perinaldo", "Country Code": "IT", "Population": 545.0, "Lat": 43.86689, "Lon": 7.67194}], "Peringat": [{"Name": "Peringat", "Country Code": "MY", "Population": 23288.0, "Lat": 6.03333, "Lon": 102.28333}], "Peris": [{"Name": "Peri\u015f", "Country Code": "RO", "Population": 7235.0, "Lat": 44.68472, "Lon": 26.01389}], "Perisani": [{"Name": "Peri\u015fani", "Country Code": "RO", "Population": 3781.0, "Lat": 45.38333, "Lon": 24.4}], "Perisor": [{"Name": "Peri\u0219or", "Country Code": "RO", "Population": 1743.0, "Lat": 44.14331, "Lon": 23.47509}], "Perisoru": [{"Name": "Peri\u0219oru", "Country Code": "RO", "Population": 1125.0, "Lat": 45.11268, "Lon": 27.49817}, {"Name": "Peri\u015foru", "Country Code": "RO", "Population": 5535.0, "Lat": 44.45, "Lon": 27.55}], "Peristasi": [{"Name": "Per\u00edstasi", "Country Code": "GR", "Population": 2454.0, "Lat": 40.27443, "Lon": 22.54164}], "Peristeri": [{"Name": "Perist\u00e9ri", "Country Code": "GR", "Population": 139981.0, "Lat": 38.01539, "Lon": 23.69187}], "Peristerona": [{"Name": "Perister\u00f3na", "Country Code": "CY", "Population": 2190.0, "Lat": 35.12928, "Lon": 33.07858}], "Perito": [{"Name": "Perito", "Country Code": "IT", "Population": 468.0, "Lat": 40.29854, "Lon": 15.14746}], "Perito Moreno": [{"Name": "Perito Moreno", "Country Code": "AR", "Population": 3588.0, "Lat": -46.5905, "Lon": -70.92574}], "Perivolakion": [{"Name": "Perivol\u00e1kion", "Country Code": "GR", "Population": 1160.0, "Lat": 40.74418, "Lon": 23.03571}], "Perivoli": [{"Name": "Periv\u00f3li", "Country Code": "GR", "Population": 1378.0, "Lat": 39.41936, "Lon": 20.01469}], "Perivolia": [{"Name": "Periv\u00f3lia", "Country Code": "CY", "Population": 1876.0, "Lat": 34.82894, "Lon": 33.58272}, {"Name": "Periv\u00f3lia", "Country Code": "GR", "Population": 3320.0, "Lat": 35.48491, "Lon": 23.99421}], "Periyakulam": [{"Name": "Periyakulam", "Country Code": "IN", "Population": 40131.0, "Lat": 10.12268, "Lon": 77.54372}], "Periyanayakkanpalaiyam": [{"Name": "Periyanayakkanpalaiyam", "Country Code": "IN", "Population": 24894.0, "Lat": 11.15255, "Lon": 76.95159}], "Periyanegamam": [{"Name": "Periyanegamam", "Country Code": "IN", "Population": 7913.0, "Lat": 10.74317, "Lon": 77.10296}], "Periyapatti": [{"Name": "Periyapatti", "Country Code": "IN", "Population": 10647.0, "Lat": 10.75812, "Lon": 77.27087}], "Periyapattinam": [{"Name": "Periyapattinam", "Country Code": "IN", "Population": 9478.0, "Lat": 9.27263, "Lon": 78.90232}], "Periyiali": [{"Name": "Periyi\u00e1li", "Country Code": "GR", "Population": 1616.0, "Lat": 37.94041, "Lon": 22.83946}], "Perk": [{"Name": "Perk", "Country Code": "BE", "Population": 2800.0, "Lat": 50.93571, "Lon": 4.49615}], "Perkam": [{"Name": "Perkam", "Country Code": "DE", "Population": 1411.0, "Lat": 48.85528, "Lon": 12.43979}], "Perkasie": [{"Name": "Perkasie", "Country Code": "US", "Population": 8471.0, "Lat": 40.37205, "Lon": -75.29268}], "Perkata": [{"Name": "Perk\u00e1ta", "Country Code": "HU", "Population": 4166.0, "Lat": 47.04701, "Lon": 18.78734}], "Perkins": [{"Name": "Perkins", "Country Code": "US", "Population": 2857.0, "Lat": 35.97394, "Lon": -97.03364}], "Perkivtsi": [{"Name": "Perkivtsi", "Country Code": "UA", "Population": 1399.0, "Lat": 48.44747, "Lon": 26.65056}], "Perla de Acapulco": [{"Name": "Perla de Acapulco", "Country Code": "MX", "Population": 1527.0, "Lat": 16.7957, "Lon": -91.47793}], "Perleberg": [{"Name": "Perleberg", "Country Code": "DE", "Population": 13102.0, "Lat": 53.07583, "Lon": 11.85739}], "Perledo": [{"Name": "Perledo", "Country Code": "IT", "Population": 608.0, "Lat": 46.01529, "Lon": 9.2956}], "Perlejewo": [{"Name": "Perlejewo", "Country Code": "PL", "Population": 0.0, "Lat": 52.56676, "Lon": 22.56457}], "Perlesreut": [{"Name": "Perlesreut", "Country Code": "DE", "Population": 2971.0, "Lat": 48.78181, "Lon": 13.4384}], "Perletto": [{"Name": "Perletto", "Country Code": "IT", "Population": 64.0, "Lat": 44.59934, "Lon": 8.21304}], "Perlez": [{"Name": "Perlez", "Country Code": "RS", "Population": 4283.0, "Lat": 45.20813, "Lon": 20.38197}], "Perlo": [{"Name": "Perlo", "Country Code": "IT", "Population": 130.0, "Lat": 44.33183, "Lon": 8.08554}], "Perloz": [{"Name": "Perloz", "Country Code": "IT", "Population": 82.0, "Lat": 45.61386, "Lon": 7.80811}], "Perlsdorf": [{"Name": "Perlsdorf", "Country Code": "AT", "Population": 337.0, "Lat": 46.91361, "Lon": 15.81417}], "Perm": [{"Name": "Perm", "Country Code": "RU", "Population": 982419.0, "Lat": 58.01046, "Lon": 56.25017}], "Permatang Kuching": [{"Name": "Permatang Kuching", "Country Code": "MY", "Population": 27191.0, "Lat": 5.46339, "Lon": 100.38144}], "Permet": [{"Name": "P\u00ebrmet", "Country Code": "AL", "Population": 10686.0, "Lat": 40.23361, "Lon": 20.35167}], "Perna": [{"Name": "Pern\u00e5", "Country Code": "FI", "Population": 3938.0, "Lat": 60.44869, "Lon": 26.03187}], "Pernate": [{"Name": "Pernate", "Country Code": "IT", "Population": 3391.0, "Lat": 45.45958, "Lon": 8.67845}], "Pernegg": [{"Name": "Pernegg", "Country Code": "AT", "Population": 207.0, "Lat": 48.73333, "Lon": 15.61667}], "Pernegg an der Mur": [{"Name": "Pernegg an der Mur", "Country Code": "AT", "Population": 706.0, "Lat": 47.35979, "Lon": 15.34236}], "Pernem": [{"Name": "Pernem", "Country Code": "IN", "Population": 5555.0, "Lat": 15.723, "Lon": 73.79511}], "Pernersdorf": [{"Name": "Pernersdorf", "Country Code": "AT", "Population": 348.0, "Lat": 48.7, "Lon": 16.01667}], "Pernes": [{"Name": "Pernes", "Country Code": "FR", "Population": 1667.0, "Lat": 50.48437, "Lon": 2.41253}], "Pernes-les-Fontaines": [{"Name": "Pernes-les-Fontaines", "Country Code": "FR", "Population": 10868.0, "Lat": 43.99802, "Lon": 5.05906}], "Pernik": [{"Name": "Pernik", "Country Code": "BG", "Population": 82467.0, "Lat": 42.6, "Lon": 23.03333}], "Pernioe": [{"Name": "Perni\u00f6", "Country Code": "FI", "Population": 5809.0, "Lat": 60.2, "Lon": 23.13333}], "Pernis": [{"Name": "Pernis", "Country Code": "NL", "Population": 4785.0, "Lat": 51.88833, "Lon": 4.38889}], "Pernitz": [{"Name": "Pernitz", "Country Code": "AT", "Population": 2356.0, "Lat": 47.89759, "Lon": 15.96022}], "Pernocari-Presinaci": [{"Name": "Pernocari-Presinaci", "Country Code": "IT", "Population": 1644.0, "Lat": 38.61184, "Lon": 16.00463}], "Pernumia": [{"Name": "Pernumia", "Country Code": "IT", "Population": 2339.0, "Lat": 45.25899, "Lon": 11.78721}], "Pero": [{"Name": "Pero", "Country Code": "IT", "Population": 9626.0, "Lat": 45.51017, "Lon": 9.08704}, {"Name": "Pero", "Country Code": "IT", "Population": 1104.0, "Lat": 45.70635, "Lon": 12.34867}], "Pero Pinheiro": [{"Name": "Pero Pinheiro", "Country Code": "PT", "Population": 4792.0, "Lat": 38.85783, "Lon": -9.32352}], "Perols": [{"Name": "P\u00e9rols", "Country Code": "FR", "Population": 8753.0, "Lat": 43.5647, "Lon": 3.95034}], "Peromingo": [{"Name": "Peromingo", "Country Code": "ES", "Population": 145.0, "Lat": 40.46386, "Lon": -5.77238}], "Peron": [{"Name": "P\u00e9ron", "Country Code": "FR", "Population": 1729.0, "Lat": 46.19053, "Lon": 5.92524}], "Perondi": [{"Name": "Perondi", "Country Code": "AL", "Population": 2338.0, "Lat": 40.77889, "Lon": 19.92306}], "Peronnas": [{"Name": "P\u00e9ronnas", "Country Code": "FR", "Population": 6411.0, "Lat": 46.18338, "Lon": 5.21052}], "Peronne": [{"Name": "P\u00e9ronne", "Country Code": "FR", "Population": 9011.0, "Lat": 49.93218, "Lon": 2.9363}], "Peronnes": [{"Name": "P\u00e9ronnes", "Country Code": "BE", "Population": 4855.0, "Lat": 50.43782, "Lon": 4.14906}, {"Name": "P\u00e9ronnes", "Country Code": "BE", "Population": 1318.0, "Lat": 50.55156, "Lon": 3.45374}], "Perosa Argentina": [{"Name": "Perosa Argentina", "Country Code": "IT", "Population": 2932.0, "Lat": 44.95909, "Lon": 7.19167}], "Perosa Canavese": [{"Name": "Perosa Canavese", "Country Code": "IT", "Population": 484.0, "Lat": 45.39706, "Lon": 7.83082}], "Perosillo": [{"Name": "Perosillo", "Country Code": "ES", "Population": 25.0, "Lat": 41.39294, "Lon": -4.14115}], "Perote": [{"Name": "Perote", "Country Code": "MX", "Population": 37516.0, "Lat": 19.56233, "Lon": -97.24235}], "Perouges": [{"Name": "P\u00e9rouges", "Country Code": "FR", "Population": 1208.0, "Lat": 45.9044, "Lon": 5.17695}], "Perovo": [{"Name": "Perovo", "Country Code": "UA", "Population": 3890.0, "Lat": 44.92513, "Lon": 34.05753}], "Peroy-les-Gombries": [{"Name": "P\u00e9roy-les-Gombries", "Country Code": "FR", "Population": 1042.0, "Lat": 49.16248, "Lon": 2.84556}], "Perozinho": [{"Name": "Perozinho", "Country Code": "PT", "Population": 6259.0, "Lat": 41.06513, "Lon": -8.58531}], "Perparim": [{"Name": "P\u00ebrparim", "Country Code": "AL", "Population": 0.0, "Lat": 41.05, "Lon": 19.79917}], "Perpignan": [{"Name": "Perpignan", "Country Code": "FR", "Population": 110706.0, "Lat": 42.69764, "Lon": 2.89541}], "Perranarworthal": [{"Name": "Perranarworthal", "Country Code": "GB", "Population": 0.0, "Lat": 50.20575, "Lon": -5.11993}], "Perranporth": [{"Name": "Perranporth", "Country Code": "GB", "Population": 3210.0, "Lat": 50.34377, "Lon": -5.15558}], "Perranwell": [{"Name": "Perranwell", "Country Code": "GB", "Population": 1207.0, "Lat": 50.21333, "Lon": -5.12053}], "Perre": [{"Name": "Perre", "Country Code": "BE", "Population": 3000.0, "Lat": 50.88914, "Lon": 3.86098}], "Perrecy-les-Forges": [{"Name": "Perrecy-les-Forges", "Country Code": "FR", "Population": 1734.0, "Lat": 46.61453, "Lon": 4.2138}], "Perrelos": [{"Name": "Perrelos", "Country Code": "PH", "Population": 10971.0, "Lat": 10.1169, "Lon": 123.6738}], "Perrenjas": [{"Name": "P\u00ebrrenjas", "Country Code": "AL", "Population": 5847.0, "Lat": 41.07306, "Lon": 20.54889}], "Perrenjas-Fshat": [{"Name": "P\u00ebrrenjas-Fshat", "Country Code": "AL", "Population": 4015.0, "Lat": 41.06667, "Lon": 20.53528}], "Perrero": [{"Name": "Perrero", "Country Code": "IT", "Population": 243.0, "Lat": 44.93849, "Lon": 7.11263}], "Perreux": [{"Name": "Perreux", "Country Code": "FR", "Population": 2444.0, "Lat": 46.04004, "Lon": 4.12663}], "Perriers-sur-Andelle": [{"Name": "Perriers-sur-Andelle", "Country Code": "FR", "Population": 1865.0, "Lat": 49.41487, "Lon": 1.37098}], "Perrignier": [{"Name": "Perrignier", "Country Code": "FR", "Population": 1504.0, "Lat": 46.30558, "Lon": 6.43928}], "Perrigny": [{"Name": "Perrigny", "Country Code": "FR", "Population": 1762.0, "Lat": 46.66744, "Lon": 5.58456}], "Perrigny-les-Dijon": [{"Name": "Perrigny-l\u00e8s-Dijon", "Country Code": "FR", "Population": 1703.0, "Lat": 47.26648, "Lon": 5.00628}], "Perris": [{"Name": "Perris", "Country Code": "US", "Population": 74971.0, "Lat": 33.78252, "Lon": -117.22865}], "Perros-Guirec": [{"Name": "Perros-Guirec", "Country Code": "FR", "Population": 8062.0, "Lat": 48.81411, "Lon": -3.4437}], "Perroy": [{"Name": "Perroy", "Country Code": "CH", "Population": 1315.0, "Lat": 46.4669, "Lon": 6.35349}], "Perrusson": [{"Name": "Perrusson", "Country Code": "FR", "Population": 1511.0, "Lat": 47.09873, "Lon": 1.01438}], "Perry": [{"Name": "Perry", "Country Code": "US", "Population": 15457.0, "Lat": 32.45821, "Lon": -83.73157}, {"Name": "Perry", "Country Code": "US", "Population": 1627.0, "Lat": 41.76033, "Lon": -81.14093}, {"Name": "Perry", "Country Code": "US", "Population": 7055.0, "Lat": 30.11766, "Lon": -83.58274}, {"Name": "Perry", "Country Code": "US", "Population": 4702.0, "Lat": 41.46494, "Lon": -112.03245}, {"Name": "Perry", "Country Code": "US", "Population": 3516.0, "Lat": 42.71562, "Lon": -78.00556}, {"Name": "Perry", "Country Code": "US", "Population": 8089.0, "Lat": 41.8386, "Lon": -94.10718}, {"Name": "Perry", "Country Code": "US", "Population": 5097.0, "Lat": 36.28949, "Lon": -97.2881}, {"Name": "Perry", "Country Code": "US", "Population": 2100.0, "Lat": 42.82642, "Lon": -84.21941}], "Perry Hall": [{"Name": "Perry Hall", "Country Code": "US", "Population": 28474.0, "Lat": 39.41261, "Lon": -76.46357}], "Perry Heights": [{"Name": "Perry Heights", "Country Code": "US", "Population": 8441.0, "Lat": 40.79534, "Lon": -81.47345}], "Perry Park": [{"Name": "Perry Park", "Country Code": "US", "Population": 1646.0, "Lat": 39.25666, "Lon": -104.99248}], "Perry Vale": [{"Name": "Perry Vale", "Country Code": "GB", "Population": 15618.0, "Lat": 51.43639, "Lon": -0.04442}], "Perryman": [{"Name": "Perryman", "Country Code": "US", "Population": 2342.0, "Lat": 39.46955, "Lon": -76.2044}], "Perryopolis": [{"Name": "Perryopolis", "Country Code": "US", "Population": 1728.0, "Lat": 40.08702, "Lon": -79.7506}], "Perrysburg": [{"Name": "Perrysburg", "Country Code": "US", "Population": 21423.0, "Lat": 41.557, "Lon": -83.62716}], "Perryton": [{"Name": "Perryton", "Country Code": "US", "Population": 9252.0, "Lat": 36.40003, "Lon": -100.80265}], "Perryville": [{"Name": "Perryville", "Country Code": "US", "Population": 8398.0, "Lat": 37.72422, "Lon": -89.86122}, {"Name": "Perryville", "Country Code": "US", "Population": 4437.0, "Lat": 39.56011, "Lon": -76.07134}, {"Name": "Perryville", "Country Code": "US", "Population": 1432.0, "Lat": 35.00481, "Lon": -92.80267}], "Pers-Jussy": [{"Name": "Pers-Jussy", "Country Code": "FR", "Population": 2386.0, "Lat": 46.10594, "Lon": 6.26955}], "Persan": [{"Name": "Persan", "Country Code": "FR", "Population": 9314.0, "Lat": 49.15335, "Lon": 2.27218}], "Persani": [{"Name": "Per\u0219ani", "Country Code": "RO", "Population": 1104.0, "Lat": 45.7816, "Lon": 25.21285}], "Persembe": [{"Name": "Per\u015fembe", "Country Code": "TR", "Population": 11808.0, "Lat": 41.06556, "Lon": 37.77139}, {"Name": "Per\u015fembe", "Country Code": "TR", "Population": 0.0, "Lat": 41.41867, "Lon": 32.15984}], "Persenbeug": [{"Name": "Persenbeug", "Country Code": "AT", "Population": 1303.0, "Lat": 48.18733, "Lon": 15.08809}], "Perseverance": [{"Name": "Perseverance", "Country Code": "SC", "Population": 6209.0, "Lat": -4.60445, "Lon": 55.46428}], "Perseverancia": [{"Name": "Perseverancia", "Country Code": "MX", "Population": 3883.0, "Lat": 22.2199, "Lon": -97.99627}], "Pershagen": [{"Name": "Pershagen", "Country Code": "SE", "Population": 2235.0, "Lat": 59.15494, "Lon": 17.6534}], "Pershore": [{"Name": "Pershore", "Country Code": "GB", "Population": 7626.0, "Lat": 52.11163, "Lon": -2.07586}], "Pershotravensk": [{"Name": "Pershotravensk", "Country Code": "UA", "Population": 27573.0, "Lat": 48.3479, "Lon": 36.39637}], "Pershotravneve": [{"Name": "Pershotravneve", "Country Code": "UA", "Population": 2046.0, "Lat": 45.48168, "Lon": 29.04623}, {"Name": "Pershotravneve", "Country Code": "UA", "Population": 2350.0, "Lat": 51.39287, "Lon": 28.86837}, {"Name": "Pershotravneve", "Country Code": "UA", "Population": 3689.0, "Lat": 46.74341, "Lon": 30.91669}], "Persianovka": [{"Name": "Persianovka", "Country Code": "RU", "Population": 15730.0, "Lat": 47.52729, "Lon": 39.4193}], "Persico Dosimo": [{"Name": "Persico Dosimo", "Country Code": "IT", "Population": 2657.0, "Lat": 45.18587, "Lon": 10.10517}], "Persinari": [{"Name": "Per\u0219inari", "Country Code": "RO", "Population": 2938.0, "Lat": 44.80185, "Lon": 25.4988}], "Perstejn": [{"Name": "Per\u0161tejn", "Country Code": "CZ", "Population": 1017.0, "Lat": 50.38166, "Lon": 13.1102}], "Perstorp": [{"Name": "Perstorp", "Country Code": "SE", "Population": 5847.0, "Lat": 56.13829, "Lon": 13.39476}], "Persunari": [{"Name": "Per\u0219unari", "Country Code": "RO", "Population": 1039.0, "Lat": 45.05682, "Lon": 26.44784}], "Pertegada": [{"Name": "Pertegada", "Country Code": "IT", "Population": 1899.0, "Lat": 45.72179, "Lon": 13.04379}], "Pertek": [{"Name": "Pertek", "Country Code": "TR", "Population": 6837.0, "Lat": 38.86574, "Lon": 39.32273}], "Pertengo": [{"Name": "Pertengo", "Country Code": "IT", "Population": 305.0, "Lat": 45.23606, "Lon": 8.41651}], "Pertenhall": [{"Name": "Pertenhall", "Country Code": "GB", "Population": 0.0, "Lat": 52.27934, "Lon": -0.41448}], "Perth": [{"Name": "Perth", "Country Code": "AU", "Population": 2192229.0, "Lat": -31.95224, "Lon": 115.8614}, {"Name": "Perth", "Country Code": "AU", "Population": 2907.0, "Lat": -41.57231, "Lon": 147.17096}, {"Name": "Perth", "Country Code": "CA", "Population": 5573.0, "Lat": 44.90011, "Lon": -76.24939}, {"Name": "Perth", "Country Code": "GB", "Population": 47350.0, "Lat": 56.39522, "Lon": -3.43139}, {"Name": "Perth", "Country Code": "US", "Population": 3646.0, "Lat": 43.01757, "Lon": -74.19402}], "Perth Amboy": [{"Name": "Perth Amboy", "Country Code": "US", "Population": 52682.0, "Lat": 40.50677, "Lon": -74.26542}], "Perth city centre": [{"Name": "Perth city centre", "Country Code": "AU", "Population": 13670.0, "Lat": -31.95289, "Lon": 115.85152}], "Perthes": [{"Name": "Perthes", "Country Code": "FR", "Population": 2093.0, "Lat": 48.47821, "Lon": 2.55509}], "Pertica Alta": [{"Name": "Pertica Alta", "Country Code": "IT", "Population": 608.0, "Lat": 45.74239, "Lon": 10.34417}], "Pertica Bassa": [{"Name": "Pertica Bassa", "Country Code": "IT", "Population": 711.0, "Lat": 45.75339, "Lon": 10.37247}], "Pertlstein": [{"Name": "Pertlstein", "Country Code": "AT", "Population": 801.0, "Lat": 46.94056, "Lon": 15.96167}], "Pertosa": [{"Name": "Pertosa", "Country Code": "IT", "Population": 446.0, "Lat": 40.54346, "Lon": 15.45009}], "Pertteli": [{"Name": "Pertteli", "Country Code": "FI", "Population": 3740.0, "Lat": 60.43333, "Lon": 23.26667}], "Pertuis": [{"Name": "Pertuis", "Country Code": "FR", "Population": 19926.0, "Lat": 43.69415, "Lon": 5.50291}], "Pertunmaa": [{"Name": "Pertunmaa", "Country Code": "FI", "Population": 2089.0, "Lat": 61.5, "Lon": 26.48333}], "Pertusa": [{"Name": "Pertusa", "Country Code": "ES", "Population": 127.0, "Lat": 42.00214, "Lon": -0.12732}], "Pertusio": [{"Name": "Pertusio", "Country Code": "IT", "Population": 526.0, "Lat": 45.35565, "Lon": 7.64152}], "Peru": [{"Name": "Peru", "Country Code": "US", "Population": 1575.0, "Lat": 44.50673, "Lon": -70.40534}, {"Name": "Peru", "Country Code": "US", "Population": 1479.0, "Lat": 43.08229, "Lon": -76.40799}, {"Name": "Peru", "Country Code": "US", "Population": 9952.0, "Lat": 41.32753, "Lon": -89.12897}, {"Name": "Peru", "Country Code": "US", "Population": 11060.0, "Lat": 40.75365, "Lon": -86.06888}, {"Name": "Peru", "Country Code": "US", "Population": 1591.0, "Lat": 44.57838, "Lon": -73.5268}], "Peruc": [{"Name": "Peruc", "Country Code": "CZ", "Population": 2109.0, "Lat": 50.3425, "Lon": 13.95986}], "Perugia": [{"Name": "Perugia", "Country Code": "IT", "Population": 120137.0, "Lat": 43.1122, "Lon": 12.38878}], "Perugorria": [{"Name": "Perugorr\u00eda", "Country Code": "AR", "Population": 5685.0, "Lat": -29.34077, "Lon": -58.60826}], "Peruibe": [{"Name": "Peru\u00edbe", "Country Code": "BR", "Population": 63030.0, "Lat": -24.32, "Lon": -46.99833}], "Perumbavoor": [{"Name": "Perumbavoor", "Country Code": "IN", "Population": 26550.0, "Lat": 10.10695, "Lon": 76.47366}], "Perumpavur": [{"Name": "Perump\u0101v\u016br", "Country Code": "IN", "Population": 27105.0, "Lat": 10.11544, "Lon": 76.47611}], "Perundurai": [{"Name": "Perundurai", "Country Code": "IN", "Population": 17488.0, "Lat": 11.27564, "Lon": 77.58794}], "Perungudi": [{"Name": "Perungudi", "Country Code": "IN", "Population": 30363.0, "Lat": 12.96095, "Lon": 80.24094}], "Perur": [{"Name": "Per\u016br", "Country Code": "IN", "Population": 8341.0, "Lat": 10.97519, "Lon": 76.91292}], "Perushtitsa": [{"Name": "Perushtitsa", "Country Code": "BG", "Population": 5350.0, "Lat": 42.05, "Lon": 24.55}], "Perusic": [{"Name": "Peru\u0161i\u0107", "Country Code": "HR", "Population": 752.0, "Lat": 44.64944, "Lon": 15.38333}], "Peruwelz": [{"Name": "P\u00e9ruwelz", "Country Code": "BE", "Population": 16647.0, "Lat": 50.50819, "Lon": 3.59373}], "Pervalka": [{"Name": "Pervalka", "Country Code": "LT", "Population": 3097.0, "Lat": 55.41486, "Lon": 21.09774}], "Pervari": [{"Name": "Pervari", "Country Code": "TR", "Population": 5974.0, "Lat": 37.93573, "Lon": 42.54927}], "Pervoavgustovskiy": [{"Name": "Pervoavgustovskiy", "Country Code": "RU", "Population": 1677.0, "Lat": 52.2264, "Lon": 35.0552}], "Pervomaisc": [{"Name": "Pervomaisc", "Country Code": "MD", "Population": 7300.0, "Lat": 46.73253, "Lon": 29.9617}], "Pervomaisk": [{"Name": "Pervomaisk", "Country Code": "UA", "Population": 36091.0, "Lat": 48.62831, "Lon": 38.56205}], "Pervomaiskyi": [{"Name": "Pervomaiskyi", "Country Code": "UA", "Population": 28510.0, "Lat": 49.37646, "Lon": 36.21848}], "Pervomayka": [{"Name": "Pervomayka", "Country Code": "KZ", "Population": 7874.0, "Lat": 43.37361, "Lon": 76.94}], "Pervomaysk": [{"Name": "Pervomaysk", "Country Code": "RU", "Population": 14810.0, "Lat": 54.8686, "Lon": 43.80347}, {"Name": "Pervomaysk", "Country Code": "UA", "Population": 62426.0, "Lat": 48.04478, "Lon": 30.84784}], "Pervomayskaya": [{"Name": "Pervomayskaya", "Country Code": "RU", "Population": 5026.0, "Lat": 43.40331, "Lon": 45.52343}], "Pervomayske": [{"Name": "Pervomayske", "Country Code": "UA", "Population": 2763.0, "Lat": 47.04274, "Lon": 32.43996}], "Pervomayskiy": [{"Name": "Pervomayskiy", "Country Code": "RU", "Population": 1103.0, "Lat": 55.06696, "Lon": 38.66489}, {"Name": "Pervomayskiy", "Country Code": "RU", "Population": 13196.0, "Lat": 53.2485, "Lon": 40.2871}, {"Name": "Pervomayskiy", "Country Code": "RU", "Population": 10885.0, "Lat": 54.04482, "Lon": 37.50875}, {"Name": "Pervomayskiy", "Country Code": "RU", "Population": 5238.0, "Lat": 52.9173, "Lon": 81.6624}, {"Name": "Pervomayskiy", "Country Code": "RU", "Population": 1526.0, "Lat": 56.61474, "Lon": 43.35825}, {"Name": "Pervomayskiy", "Country Code": "RU", "Population": 13141.0, "Lat": 51.67013, "Lon": 115.62543}], "Pervomayskoye": [{"Name": "Pervomayskoye", "Country Code": "RU", "Population": 5345.0, "Lat": 43.93847, "Lon": 42.476}, {"Name": "Pervomayskoye", "Country Code": "RU", "Population": 6500.0, "Lat": 52.59888, "Lon": 85.25769}, {"Name": "Pervomayskoye", "Country Code": "RU", "Population": 4473.0, "Lat": 60.35922, "Lon": 29.7424}, {"Name": "Pervomayskoye", "Country Code": "RU", "Population": 5817.0, "Lat": 57.0761, "Lon": 86.2313}, {"Name": "Pervomayskoye", "Country Code": "RU", "Population": 9073.0, "Lat": 43.91904, "Lon": 46.71019}, {"Name": "Pervomayskoye", "Country Code": "RU", "Population": 5103.0, "Lat": 53.72111, "Lon": 84.01833}, {"Name": "Pervomayskoye", "Country Code": "UA", "Population": 2247.0, "Lat": 45.11207, "Lon": 34.06478}, {"Name": "Pervomayskoye", "Country Code": "UA", "Population": 2880.0, "Lat": 45.06191, "Lon": 35.16395}, {"Name": "Pervomayskoye", "Country Code": "UA", "Population": 8470.0, "Lat": 45.71744, "Lon": 33.85596}], "Pervorossiyskoye": [{"Name": "Pervorossiyskoye", "Country Code": "KZ", "Population": 2583.0, "Lat": 49.71739, "Lon": 83.8486}], "Pervouralsk": [{"Name": "Pervouralsk", "Country Code": "RU", "Population": 133600.0, "Lat": 56.90528, "Lon": 59.94361}], "Pervoye Maya": [{"Name": "Pervoye Maya", "Country Code": "RU", "Population": 2173.0, "Lat": 56.16403, "Lon": 44.71955}, {"Name": "Pervoye Maya", "Country Code": "RU", "Population": 2210.0, "Lat": 56.41593, "Lon": 43.65221}], "Perwang am Grabensee": [{"Name": "Perwang am Grabensee", "Country Code": "AT", "Population": 381.0, "Lat": 48.00692, "Lon": 13.083}], "Perwez": [{"Name": "Perwez", "Country Code": "BE", "Population": 2632.0, "Lat": 50.62426, "Lon": 4.81354}], "Pery": [{"Name": "P\u00e9ry", "Country Code": "CH", "Population": 1342.0, "Lat": 47.19398, "Lon": 7.24913}], "Perya": [{"Name": "Perya", "Country Code": "IN", "Population": 12659.0, "Lat": 11.83334, "Lon": 75.85408}], "Perzow": [{"Name": "Perz\u00f3w", "Country Code": "PL", "Population": 774.0, "Lat": 51.27625, "Lon": 17.8097}], "Pesac": [{"Name": "Pesac", "Country Code": "RO", "Population": 1983.0, "Lat": 45.9959, "Lon": 20.83522}], "Pesagot": [{"Name": "Pesagot", "Country Code": "PS", "Population": 1903.0, "Lat": 31.89904, "Lon": 35.22417}], "Pesaro": [{"Name": "Pesaro", "Country Code": "IT", "Population": 77241.0, "Lat": 43.90921, "Lon": 12.9164}], "Pesca": [{"Name": "Pesca", "Country Code": "CO", "Population": 5113.0, "Lat": 5.55, "Lon": -73.05}], "Pescaderia": [{"Name": "Pescader\u00eda", "Country Code": "DO", "Population": 2116.0, "Lat": 18.26766, "Lon": -71.16612}], "Pescaglia": [{"Name": "Pescaglia", "Country Code": "IT", "Population": 207.0, "Lat": 43.96517, "Lon": 10.41292}], "Pescantina": [{"Name": "Pescantina", "Country Code": "IT", "Population": 11743.0, "Lat": 45.48548, "Lon": 10.86796}], "Pescara": [{"Name": "Pescara", "Country Code": "IT", "Population": 119554.0, "Lat": 42.4584, "Lon": 14.20283}], "Pescarolo": [{"Name": "Pescarolo", "Country Code": "IT", "Population": 1164.0, "Lat": 45.19387, "Lon": 10.18647}], "Pescasseroli": [{"Name": "Pescasseroli", "Country Code": "IT", "Population": 2224.0, "Lat": 41.80343, "Lon": 13.78707}], "Pescate": [{"Name": "Pescate", "Country Code": "IT", "Population": 2188.0, "Lat": 45.83348, "Lon": 9.39395}], "Pesceana": [{"Name": "Pesceana", "Country Code": "RO", "Population": 2017.0, "Lat": 44.87333, "Lon": 24.134}], "Peschadoires": [{"Name": "Peschadoires", "Country Code": "FR", "Population": 2060.0, "Lat": 45.82622, "Lon": 3.49255}], "Peschanokopskoye": [{"Name": "Peschanokopskoye", "Country Code": "RU", "Population": 11340.0, "Lat": 46.19517, "Lon": 41.08143}], "Peschanoye": [{"Name": "Peschanoye", "Country Code": "UA", "Population": 820.0, "Lat": 44.84342, "Lon": 33.60921}], "Pesche": [{"Name": "Pesche", "Country Code": "IT", "Population": 1363.0, "Lat": 41.60552, "Lon": 14.2762}], "Peschici": [{"Name": "Peschici", "Country Code": "IT", "Population": 3396.0, "Lat": 41.94521, "Lon": 16.01612}], "Peschiera del Garda": [{"Name": "Peschiera del Garda", "Country Code": "IT", "Population": 7733.0, "Lat": 45.43912, "Lon": 10.68614}], "Pescia": [{"Name": "Pescia", "Country Code": "IT", "Population": 11567.0, "Lat": 43.8871, "Lon": 10.68849}], "Pescia Romana": [{"Name": "Pescia Romana", "Country Code": "IT", "Population": 1013.0, "Lat": 42.39963, "Lon": 11.49651}], "Pescina": [{"Name": "Pescina", "Country Code": "IT", "Population": 3492.0, "Lat": 42.02351, "Lon": 13.65116}], "Pesco Sannita": [{"Name": "Pesco Sannita", "Country Code": "IT", "Population": 1125.0, "Lat": 41.23273, "Lon": 14.81122}], "Pescocostanzo": [{"Name": "Pescocostanzo", "Country Code": "IT", "Population": 1055.0, "Lat": 41.88722, "Lon": 14.06614}], "Pescolanciano": [{"Name": "Pescolanciano", "Country Code": "IT", "Population": 857.0, "Lat": 41.67972, "Lon": 14.33658}], "Pescopagano": [{"Name": "Pescopagano", "Country Code": "IT", "Population": 1851.0, "Lat": 40.83494, "Lon": 15.39946}], "Pescopennataro": [{"Name": "Pescopennataro", "Country Code": "IT", "Population": 281.0, "Lat": 41.87777, "Lon": 14.29398}], "Pescorocchiano": [{"Name": "Pescorocchiano", "Country Code": "IT", "Population": 599.0, "Lat": 42.20623, "Lon": 13.14715}], "Pescosansonesco Nuovo": [{"Name": "Pescosansonesco Nuovo", "Country Code": "IT", "Population": 213.0, "Lat": 42.25524, "Lon": 13.8848}], "Pescosolido": [{"Name": "Pescosolido", "Country Code": "IT", "Population": 652.0, "Lat": 41.74864, "Lon": 13.6569}], "Pescueza": [{"Name": "Pescueza", "Country Code": "ES", "Population": 170.0, "Lat": 39.91807, "Lon": -6.64589}], "Pese": [{"Name": "Pes\u00e9", "Country Code": "PA", "Population": 2565.0, "Lat": 7.90863, "Lon": -80.61433}], "Peseggia-Gardigiano": [{"Name": "Peseggia-Gardigiano", "Country Code": "IT", "Population": 4798.0, "Lat": 45.56167, "Lon": 12.17944}], "Peseux": [{"Name": "Peseux", "Country Code": "CH", "Population": 5716.0, "Lat": 46.98704, "Lon": 6.88903}], "Peshawar": [{"Name": "Peshawar", "Country Code": "PK", "Population": 1218773.0, "Lat": 34.008, "Lon": 71.57849}], "Peshki": [{"Name": "Peshki", "Country Code": "RU", "Population": 1063.0, "Lat": 56.13333, "Lon": 37.06667}], "Peshkopi": [{"Name": "Peshkopi", "Country Code": "AL", "Population": 14848.0, "Lat": 41.685, "Lon": 20.42889}], "Peshkovo": [{"Name": "Peshkovo", "Country Code": "RU", "Population": 3596.0, "Lat": 47.01867, "Lon": 39.38845}], "Peshtera": [{"Name": "Peshtera", "Country Code": "BG", "Population": 18676.0, "Lat": 42.03372, "Lon": 24.29995}], "Peshtigo": [{"Name": "Peshtigo", "Country Code": "US", "Population": 3430.0, "Lat": 45.05443, "Lon": -87.74927}], "Peski": [{"Name": "Peski", "Country Code": "RU", "Population": 3705.0, "Lat": 55.21626, "Lon": 38.76262}], "Peskovka": [{"Name": "Peskovka", "Country Code": "RU", "Population": 6746.0, "Lat": 59.04478, "Lon": 52.36057}], "Pesmes": [{"Name": "Pesmes", "Country Code": "FR", "Population": 1117.0, "Lat": 47.28008, "Lon": 5.56698}], "Pesnica": [{"Name": "Pesnica", "Country Code": "SI", "Population": 913.0, "Lat": 46.60694, "Lon": 15.67667}], "Peso da Regua": [{"Name": "Peso da R\u00e9gua", "Country Code": "PT", "Population": 5048.0, "Lat": 41.16318, "Lon": -7.78901}], "Pesochnoye": [{"Name": "Pesochnoye", "Country Code": "RU", "Population": 3005.0, "Lat": 58.00597, "Lon": 39.17717}], "Pesochnyy": [{"Name": "Pesochnyy", "Country Code": "RU", "Population": 8130.0, "Lat": 60.12295, "Lon": 30.16404}], "Pesoz": [{"Name": "Pesoz", "Country Code": "ES", "Population": 214.0, "Lat": 43.25, "Lon": -6.86667}], "Pespire": [{"Name": "Pespire", "Country Code": "HN", "Population": 3172.0, "Lat": 13.59222, "Lon": -87.36167}], "Pesqueira": [{"Name": "Pesqueira", "Country Code": "BR", "Population": 41896.0, "Lat": -8.35778, "Lon": -36.69639}, {"Name": "Pesqueira", "Country Code": "MX", "Population": 5699.0, "Lat": 29.37972, "Lon": -110.89611}], "Pesquera": [{"Name": "Pesquera", "Country Code": "ES", "Population": 84.0, "Lat": 43.08223, "Lon": -4.07932}], "Pesqueria": [{"Name": "Pesquer\u00eda", "Country Code": "MX", "Population": 5465.0, "Lat": 25.78543, "Lon": -100.05098}], "Pessac": [{"Name": "Pessac", "Country Code": "FR", "Population": 57944.0, "Lat": 44.80565, "Lon": -0.6324}], "Pessano Con Bornago": [{"Name": "Pessano Con Bornago", "Country Code": "IT", "Population": 8524.0, "Lat": 45.54937, "Lon": 9.38145}], "Pessina Cremonese": [{"Name": "Pessina Cremonese", "Country Code": "IT", "Population": 315.0, "Lat": 45.18505, "Lon": 10.24815}], "Pessinetto": [{"Name": "Pessinetto", "Country Code": "IT", "Population": 456.0, "Lat": 45.28675, "Lon": 7.41531}], "Pessione": [{"Name": "Pessione", "Country Code": "IT", "Population": 1318.0, "Lat": 44.96504, "Lon": 7.84115}], "Pesteana Jiu": [{"Name": "Pe\u0219teana Jiu", "Country Code": "RO", "Population": 2157.0, "Lat": 44.84695, "Lon": 23.30401}], "Pesteana de Jos": [{"Name": "Pe\u0219teana de Jos", "Country Code": "RO", "Population": 1231.0, "Lat": 44.83333, "Lon": 23.26974}], "Pestera": [{"Name": "Pe\u015ftera", "Country Code": "RO", "Population": 3496.0, "Lat": 44.18333, "Lon": 28.13333}], "Pestis": [{"Name": "Pe\u0219ti\u0219", "Country Code": "RO", "Population": 1468.0, "Lat": 47.07252, "Lon": 22.41226}], "Pestisani": [{"Name": "Pe\u015fti\u015fani", "Country Code": "RO", "Population": 4187.0, "Lat": 45.06667, "Lon": 23.03333}], "Pestisu Mare": [{"Name": "Pe\u0219ti\u0219u Mare", "Country Code": "RO", "Population": 1293.0, "Lat": 45.80192, "Lon": 22.92704}], "Pestisu Mic": [{"Name": "Pe\u015fti\u015fu Mic", "Country Code": "RO", "Population": 1272.0, "Lat": 45.8, "Lon": 22.88333}], "Pestovo": [{"Name": "Pestovo", "Country Code": "RU", "Population": 15910.0, "Lat": 58.59382, "Lon": 35.80244}], "Pestravka": [{"Name": "Pestravka", "Country Code": "RU", "Population": 6623.0, "Lat": 52.3982, "Lon": 49.961}], "Pestretsy": [{"Name": "Pestretsy", "Country Code": "RU", "Population": 7311.0, "Lat": 55.75313, "Lon": 49.65454}], "Pestyaki": [{"Name": "Pestyaki", "Country Code": "RU", "Population": 4172.0, "Lat": 56.70914, "Lon": 42.66952}], "Peta": [{"Name": "P\u00e9ta", "Country Code": "GR", "Population": 1952.0, "Lat": 39.16667, "Lon": 21.03472}], "Petacalco": [{"Name": "Petacalco", "Country Code": "MX", "Population": 2715.0, "Lat": 17.98167, "Lon": -102.10841}], "Petacciato": [{"Name": "Petacciato", "Country Code": "IT", "Population": 2858.0, "Lat": 42.00827, "Lon": 14.86026}], "Petaejaevesi": [{"Name": "Pet\u00e4j\u00e4vesi", "Country Code": "FI", "Population": 3610.0, "Lat": 62.25, "Lon": 25.2}], "Petah Tiqva": [{"Name": "Peta\u1e96 Tiqva", "Country Code": "IL", "Population": 253529.0, "Lat": 32.08707, "Lon": 34.88747}], "Petakbehandang": [{"Name": "Petakbehandang", "Country Code": "ID", "Population": 0.0, "Lat": -2.0775, "Lon": 113.4364}], "Petal": [{"Name": "Petal", "Country Code": "US", "Population": 10701.0, "Lat": 31.34656, "Lon": -89.26006}], "Petalcingo": [{"Name": "Petalcingo", "Country Code": "MX", "Population": 6775.0, "Lat": 17.22715, "Lon": -92.41511}], "Petaling Jaya": [{"Name": "Petaling Jaya", "Country Code": "MY", "Population": 902086.0, "Lat": 3.10726, "Lon": 101.60671}], "Petaluma": [{"Name": "Petaluma", "Country Code": "US", "Population": 60438.0, "Lat": 38.23242, "Lon": -122.63665}], "Petange": [{"Name": "P\u00e9tange", "Country Code": "LU", "Population": 7187.0, "Lat": 49.55833, "Lon": 5.88056}], "Petani": [{"Name": "Petani", "Country Code": "ID", "Population": 0.0, "Lat": 0.32884, "Lon": 128.6527}], "Petapa": [{"Name": "Petapa", "Country Code": "GT", "Population": 135447.0, "Lat": 14.50189, "Lon": -90.56196}, {"Name": "Petapa", "Country Code": "MX", "Population": 2322.0, "Lat": 16.8206, "Lon": -95.11913}], "Petaquillas": [{"Name": "Petaquillas", "Country Code": "MX", "Population": 9801.0, "Lat": 17.48636, "Lon": -99.45633}], "Petare": [{"Name": "Petare", "Country Code": "VE", "Population": 364684.0, "Lat": 10.47679, "Lon": -66.80786}], "Petatlan": [{"Name": "Petatl\u00e1n", "Country Code": "MX", "Population": 21659.0, "Lat": 17.53768, "Lon": -101.26798}], "Petauke": [{"Name": "Petauke", "Country Code": "ZM", "Population": 19296.0, "Lat": -14.24117, "Lon": 31.31975}], "Petawawa": [{"Name": "Petawawa", "Country Code": "CA", "Population": 17187.0, "Lat": 45.89452, "Lon": -77.28007}], "Pete": [{"Name": "P\u00e9t\u00e9", "Country Code": "SN", "Population": 4211.0, "Lat": 16.10798, "Lon": -13.94973}], "Petegem": [{"Name": "Petegem", "Country Code": "BE", "Population": 2060.0, "Lat": 50.83333, "Lon": 3.55}], "Petegem-aan-de-Leie": [{"Name": "Petegem-aan-de-Leie", "Country Code": "BE", "Population": 10332.0, "Lat": 50.96667, "Lon": 3.53333}], "Petegem-aan-de-Schelde": [{"Name": "Petegem-aan-de-Schelde", "Country Code": "BE", "Population": 2060.0, "Lat": 50.83344, "Lon": 3.55609}], "Peteinos": [{"Name": "Petein\u00f3s", "Country Code": "GR", "Population": 1014.0, "Lat": 41.10056, "Lon": 24.89847}], "Petelea": [{"Name": "Petelea", "Country Code": "RO", "Population": 2735.0, "Lat": 46.72892, "Lon": 24.70654}], "Petenou": [{"Name": "P\u00e9t\u00e9nou", "Country Code": "CI", "Population": 1479.0, "Lat": 7.84199, "Lon": -5.41376}], "Peteranec": [{"Name": "Peteranec", "Country Code": "HR", "Population": 1240.0, "Lat": 46.19222, "Lon": 16.89167}], "Peterborough": [{"Name": "Peterborough", "Country Code": "AU", "Population": 1530.0, "Lat": -32.97205, "Lon": 138.84073}, {"Name": "Peterborough", "Country Code": "CA", "Population": 81032.0, "Lat": 44.30012, "Lon": -78.31623}, {"Name": "Peterborough", "Country Code": "GB", "Population": 163379.0, "Lat": 52.57364, "Lon": -0.24777}, {"Name": "Peterborough", "Country Code": "US", "Population": 3103.0, "Lat": 42.87064, "Lon": -71.95175}], "Peterculter": [{"Name": "Peterculter", "Country Code": "GB", "Population": 4560.0, "Lat": 57.09929, "Lon": -2.26588}], "Peterhead": [{"Name": "Peterhead", "Country Code": "AU", "Population": 1097.0, "Lat": -34.83118, "Lon": 138.49892}, {"Name": "Peterhead", "Country Code": "GB", "Population": 18450.0, "Lat": 57.50517, "Lon": -1.78435}], "Peterhof": [{"Name": "Peterhof", "Country Code": "RU", "Population": 73199.0, "Lat": 59.88333, "Lon": 29.9}], "Peteri": [{"Name": "P\u00e9teri", "Country Code": "HU", "Population": 1970.0, "Lat": 47.39104, "Lon": 19.40981}], "Peterlee": [{"Name": "Peterlee", "Country Code": "GB", "Population": 37015.0, "Lat": 54.76032, "Lon": -1.33649}], "Petersaurach": [{"Name": "Petersaurach", "Country Code": "DE", "Population": 5116.0, "Lat": 49.3, "Lon": 10.75}], "Petersburg": [{"Name": "Petersburg", "Country Code": "US", "Population": 2948.0, "Lat": 56.8125, "Lon": -132.95556}, {"Name": "Petersburg", "Country Code": "US", "Population": 1131.0, "Lat": 41.90116, "Lon": -83.71494}, {"Name": "Petersburg", "Country Code": "US", "Population": 2347.0, "Lat": 38.49199, "Lon": -87.27862}, {"Name": "Petersburg", "Country Code": "US", "Population": 32477.0, "Lat": 37.22793, "Lon": -77.40193}, {"Name": "Petersburg", "Country Code": "US", "Population": 2520.0, "Lat": 38.99261, "Lon": -79.12392}, {"Name": "Petersburg", "Country Code": "US", "Population": 2190.0, "Lat": 40.01172, "Lon": -89.84817}, {"Name": "Petersburg", "Country Code": "US", "Population": 1131.0, "Lat": 33.86952, "Lon": -101.59739}], "Petersdorf": [{"Name": "Petersdorf", "Country Code": "DE", "Population": 1719.0, "Lat": 48.51667, "Lon": 11.03333}], "Petersfield": [{"Name": "Petersfield", "Country Code": "GB", "Population": 14974.0, "Lat": 51.00495, "Lon": -0.93375}, {"Name": "Petersfield", "Country Code": "JM", "Population": 2255.0, "Lat": 18.26158, "Lon": -78.07117}], "Petershagen": [{"Name": "Petershagen", "Country Code": "DE", "Population": 27090.0, "Lat": 52.37513, "Lon": 8.96538}, {"Name": "Petershagen", "Country Code": "DE", "Population": 12931.0, "Lat": 52.52078, "Lon": 13.78748}], "Petersham": [{"Name": "Petersham", "Country Code": "AU", "Population": 8040.0, "Lat": -33.8946, "Lon": 151.15495}], "Petershausen": [{"Name": "Petershausen", "Country Code": "DE", "Population": 5965.0, "Lat": 48.40967, "Lon": 11.47056}], "Petershausen-Ost": [{"Name": "Petershausen-Ost", "Country Code": "DE", "Population": 7248.0, "Lat": 47.6721, "Lon": 9.191}], "Petershausen-West": [{"Name": "Petershausen-West", "Country Code": "DE", "Population": 16021.0, "Lat": 47.67411, "Lon": 9.17787}], "Petervasara": [{"Name": "P\u00e9terv\u00e1s\u00e1ra", "Country Code": "HU", "Population": 2568.0, "Lat": 48.01667, "Lon": 20.1}], "Peteye": [{"Name": "P\u00e9t\u00e9y\u00e9", "Country Code": "CI", "Population": 1787.0, "Lat": 8.39416, "Lon": -3.09348}], "Petfuerdo": [{"Name": "P\u00e9tf\u00fcrd\u0151", "Country Code": "HU", "Population": 4877.0, "Lat": 47.16667, "Lon": 18.11667}], "Petigny": [{"Name": "Petigny", "Country Code": "BE", "Population": 1033.0, "Lat": 50.05739, "Lon": 4.53307}], "Petilia Policastro": [{"Name": "Petilia Policastro", "Country Code": "IT", "Population": 5704.0, "Lat": 39.11293, "Lon": 16.78167}], "Petilla de Aragon": [{"Name": "Petilla de Arag\u00f3n", "Country Code": "ES", "Population": 32.0, "Lat": 42.45, "Lon": -1.11667}], "Petimpe": [{"Name": "P\u00e9timp\u00e9", "Country Code": "CI", "Population": 2320.0, "Lat": 5.71885, "Lon": -5.21054}], "Petin": [{"Name": "Pet\u00edn", "Country Code": "ES", "Population": 1088.0, "Lat": 42.38191, "Lon": -7.12899}], "Petina": [{"Name": "Petina", "Country Code": "IT", "Population": 1178.0, "Lat": 40.53211, "Lon": 15.37346}], "Petionville": [{"Name": "P\u00e9tionville", "Country Code": "HT", "Population": 283052.0, "Lat": 18.5125, "Lon": -72.28528}], "Petit": [{"Name": "Petit", "Country Code": "CI", "Population": 3480.0, "Lat": 5.66919, "Lon": -5.34348}, {"Name": "Petit", "Country Code": "CI", "Population": 1525.0, "Lat": 7.02541, "Lon": -7.43438}], "Petit Badien": [{"Name": "Petit Badien", "Country Code": "CI", "Population": 8987.0, "Lat": 5.2567, "Lon": -4.63988}], "Petit Fenis": [{"Name": "Petit Fenis", "Country Code": "IT", "Population": 59.0, "Lat": 45.75115, "Lon": 7.46391}], "Petit Grabo": [{"Name": "Petit Grabo", "Country Code": "CI", "Population": 16054.0, "Lat": 5.26902, "Lon": -7.31421}], "Petit Raffray": [{"Name": "Petit Raffray", "Country Code": "MU", "Population": 9410.0, "Lat": -20.02022, "Lon": 57.62296}], "Petit Trou de Nippes": [{"Name": "Petit Trou de Nippes", "Country Code": "HT", "Population": 2130.0, "Lat": 18.52535, "Lon": -73.50815}], "Petit Valley": [{"Name": "Petit Valley", "Country Code": "TT", "Population": 8140.0, "Lat": 10.69974, "Lon": -61.54717}], "Petit Yapo": [{"Name": "Petit Yapo", "Country Code": "CI", "Population": 1923.0, "Lat": 5.79486, "Lon": -4.13626}], "Petit-Bondoukou": [{"Name": "Petit-Bondoukou", "Country Code": "CI", "Population": 4889.0, "Lat": 5.60407, "Lon": -6.64765}], "Petit-Bourg": [{"Name": "Petit-Bourg", "Country Code": "GP", "Population": 24994.0, "Lat": 16.19163, "Lon": -61.5914}], "Petit-Canal": [{"Name": "Petit-Canal", "Country Code": "GP", "Population": 8554.0, "Lat": 16.37913, "Lon": -61.48716}], "Petit-Couronne": [{"Name": "Petit-Couronne", "Country Code": "FR", "Population": 8761.0, "Lat": 49.38333, "Lon": 1.01667}], "Petit-Guiglo": [{"Name": "Petit-Guiglo", "Country Code": "CI", "Population": 2337.0, "Lat": 6.35186, "Lon": -8.21802}], "Petit-Mars": [{"Name": "Petit-Mars", "Country Code": "FR", "Population": 2629.0, "Lat": 47.39439, "Lon": -1.45492}], "Petit-Nado": [{"Name": "Petit-Nado", "Country Code": "CI", "Population": 1252.0, "Lat": 4.76201, "Lon": -6.80805}], "Petit-Noir": [{"Name": "Petit-Noir", "Country Code": "FR", "Population": 1002.0, "Lat": 46.93333, "Lon": 5.33333}], "Petit-Pedro": [{"Name": "Petit-P\u00e9dro", "Country Code": "CI", "Population": 3514.0, "Lat": 4.77349, "Lon": -6.55203}], "Petit-Rechain": [{"Name": "Petit-Rechain", "Country Code": "BE", "Population": 3522.0, "Lat": 50.61489, "Lon": 5.83417}], "Petit-Rederching": [{"Name": "Petit-R\u00e9derching", "Country Code": "FR", "Population": 1511.0, "Lat": 49.05494, "Lon": 7.3064}], "Petite Anse": [{"Name": "Petite Anse", "Country Code": "HT", "Population": 1539.0, "Lat": 19.63011, "Lon": -73.15499}], "Petite Case Noyale": [{"Name": "Petite Case Noyale", "Country Code": "MU", "Population": 1525.0, "Lat": -20.39306, "Lon": 57.365}], "Petite Riviere": [{"Name": "Petite Rivi\u00e8re", "Country Code": "MU", "Population": 5331.0, "Lat": -20.19551, "Lon": 57.44592}], "Petite Riviere de Nippes": [{"Name": "Petite Rivi\u00e8re de Nippes", "Country Code": "HT", "Population": 1794.0, "Lat": 18.47611, "Lon": -73.23495}], "Petite-Bourgogne": [{"Name": "Petite-Bourgogne", "Country Code": "CA", "Population": 10000.0, "Lat": 45.48867, "Lon": -73.56812}], "Petite-Foret": [{"Name": "Petite-For\u00eat", "Country Code": "FR", "Population": 5017.0, "Lat": 50.36667, "Lon": 3.48333}], "Petite-Ile": [{"Name": "Petite-\u00cele", "Country Code": "RE", "Population": 12617.0, "Lat": -21.35327, "Lon": 55.56427}], "Petite-Rosselle": [{"Name": "Petite-Rosselle", "Country Code": "FR", "Population": 6973.0, "Lat": 49.21177, "Lon": 6.85607}], "Petites Anses": [{"Name": "Petites Anses", "Country Code": "GP", "Population": 1314.0, "Lat": 15.84993, "Lon": -61.64457}], "Petitgoa I": [{"Name": "Petitgoa I", "Country Code": "CI", "Population": 16457.0, "Lat": 6.12024, "Lon": -6.71253}], "Petiville": [{"Name": "Petiville", "Country Code": "FR", "Population": 1014.0, "Lat": 49.46078, "Lon": 0.5874}], "Petkovci": [{"Name": "Petkovci", "Country Code": "BA", "Population": 2212.0, "Lat": 44.46849, "Lon": 19.07466}], "Petkovica": [{"Name": "Petkovica", "Country Code": "RS", "Population": 1227.0, "Lat": 44.66627, "Lon": 19.43923}], "Petlad": [{"Name": "Petl\u0101d", "Country Code": "IN", "Population": 51819.0, "Lat": 22.47681, "Lon": 72.79995}], "Petlalcingo": [{"Name": "Petlalcingo", "Country Code": "MX", "Population": 2621.0, "Lat": 18.08463, "Lon": -97.9175}], "Petlawad": [{"Name": "Petl\u0101wad", "Country Code": "IN", "Population": 13260.0, "Lat": 23.01102, "Lon": 74.79772}], "Petlovac": [{"Name": "Petlovac", "Country Code": "HR", "Population": 532.0, "Lat": 45.75833, "Lon": 18.52806}], "Petnehaza": [{"Name": "Petneh\u00e1za", "Country Code": "HU", "Population": 1993.0, "Lat": 48.06084, "Lon": 22.07485}], "Petnjica": [{"Name": "Petnjica", "Country Code": "ME", "Population": 0.0, "Lat": 42.90889, "Lon": 19.96444}], "Peto": [{"Name": "Peto", "Country Code": "MX", "Population": 19821.0, "Lat": 20.12776, "Lon": -88.92282}], "Petoa": [{"Name": "Petoa", "Country Code": "HN", "Population": 1067.0, "Lat": 15.26939, "Lon": -88.28878}], "Petofibanya": [{"Name": "Pet\u0151fib\u00e1nya", "Country Code": "HU", "Population": 3061.0, "Lat": 47.7696, "Lon": 19.69988}], "Petone": [{"Name": "Petone", "Country Code": "NZ", "Population": 8230.0, "Lat": -41.22827, "Lon": 174.87019}], "Petonkaha": [{"Name": "P\u00e9tonkaha", "Country Code": "CI", "Population": 1877.0, "Lat": 8.8081, "Lon": -5.39358}], "Petoosang": [{"Name": "Petoosang", "Country Code": "ID", "Population": 0.0, "Lat": -3.4277, "Lon": 118.9906}], "Petoskey": [{"Name": "Petoskey", "Country Code": "US", "Population": 5719.0, "Lat": 45.37334, "Lon": -84.95533}], "Petra": [{"Name": "Petra", "Country Code": "ES", "Population": 2707.0, "Lat": 39.61351, "Lon": 3.11312}, {"Name": "P\u00e9tra", "Country Code": "GR", "Population": 1299.0, "Lat": 39.32682, "Lon": 26.17648}], "Petra-Dubrava": [{"Name": "Petra-Dubrava", "Country Code": "RU", "Population": 6078.0, "Lat": 53.29613, "Lon": 50.36554}], "Petrachioaia": [{"Name": "Petr\u0103chioaia", "Country Code": "RO", "Population": 2866.0, "Lat": 44.58099, "Lon": 26.31269}], "Petralia Soprana": [{"Name": "Petralia Soprana", "Country Code": "IT", "Population": 1074.0, "Lat": 37.80064, "Lon": 14.10813}], "Petralia Sottana": [{"Name": "Petralia Sottana", "Country Code": "IT", "Population": 2738.0, "Lat": 37.80919, "Lon": 14.09293}], "Petran": [{"Name": "Petran", "Country Code": "AL", "Population": 0.0, "Lat": 40.20944, "Lon": 20.41833}], "Petranka": [{"Name": "Petranka", "Country Code": "UA", "Population": 2929.0, "Lat": 48.90526, "Lon": 24.30618}], "Petrashivka": [{"Name": "Petrashivka", "Country Code": "UA", "Population": 2008.0, "Lat": 48.1, "Lon": 26.1}], "Petrele": [{"Name": "Petrel\u00eb", "Country Code": "AL", "Population": 0.0, "Lat": 41.25306, "Lon": 19.85306}], "Petrella Salto": [{"Name": "Petrella Salto", "Country Code": "IT", "Population": 260.0, "Lat": 42.29405, "Lon": 13.06794}], "Petrella Tifernina": [{"Name": "Petrella Tifernina", "Country Code": "IT", "Population": 1097.0, "Lat": 41.69135, "Lon": 14.69751}], "Petres": [{"Name": "Petr\u00e9s", "Country Code": "ES", "Population": 867.0, "Lat": 39.68333, "Lon": -0.3}], "Petresti": [{"Name": "Petre\u015fti", "Country Code": "RO", "Population": 6020.0, "Lat": 44.65, "Lon": 25.33333}, {"Name": "Petre\u015fti", "Country Code": "RO", "Population": 1646.0, "Lat": 47.6, "Lon": 22.36667}, {"Name": "Petre\u0219ti", "Country Code": "RO", "Population": 4120.0, "Lat": 45.92102, "Lon": 23.56083}, {"Name": "Petre\u0219ti", "Country Code": "RO", "Population": 1014.0, "Lat": 45.04364, "Lon": 24.88989}], "Petrestii de Jos": [{"Name": "Petre\u015ftii de Jos", "Country Code": "RO", "Population": 1861.0, "Lat": 46.58333, "Lon": 23.65}], "Petreu": [{"Name": "Petreu", "Country Code": "RO", "Population": 1517.0, "Lat": 47.33738, "Lon": 22.29607}], "Petriano": [{"Name": "Petriano", "Country Code": "IT", "Population": 303.0, "Lat": 43.77935, "Lon": 12.73214}], "Petricani": [{"Name": "Petricani", "Country Code": "RO", "Population": 5580.0, "Lat": 47.16667, "Lon": 26.46667}], "Petrich": [{"Name": "Petrich", "Country Code": "BG", "Population": 30722.0, "Lat": 41.39846, "Lon": 23.20702}], "Petrie": [{"Name": "Petrie", "Country Code": "AU", "Population": 8494.0, "Lat": -27.26667, "Lon": 152.98333}], "Petrie Terrace": [{"Name": "Petrie Terrace", "Country Code": "AU", "Population": 1091.0, "Lat": -27.46298, "Lon": 153.01312}], "Petrignano": [{"Name": "Petrignano", "Country Code": "IT", "Population": 3184.0, "Lat": 43.10269, "Lon": 12.53239}], "Petrijanec": [{"Name": "Petrijanec", "Country Code": "HR", "Population": 1349.0, "Lat": 46.34917, "Lon": 16.225}], "Petrijevci": [{"Name": "Petrijevci", "Country Code": "HR", "Population": 1948.0, "Lat": 45.61278, "Lon": 18.53528}], "Petrikov": [{"Name": "Petrikov", "Country Code": "UA", "Population": 3033.0, "Lat": 49.52782, "Lon": 25.58097}], "Petrila": [{"Name": "Petrila", "Country Code": "RO", "Population": 25234.0, "Lat": 45.45, "Lon": 23.41667}], "Petrinja": [{"Name": "Petrinja", "Country Code": "HR", "Population": 12963.0, "Lat": 45.4375, "Lon": 16.29}], "Petriolo": [{"Name": "Petriolo", "Country Code": "IT", "Population": 1294.0, "Lat": 43.22141, "Lon": 13.46173}], "Petris": [{"Name": "Petri\u015f", "Country Code": "RO", "Population": 1842.0, "Lat": 46.05, "Lon": 22.38333}, {"Name": "Petri\u0219", "Country Code": "RO", "Population": 1090.0, "Lat": 47.10301, "Lon": 24.62314}], "Petritoli": [{"Name": "Petritoli", "Country Code": "IT", "Population": 783.0, "Lat": 43.06809, "Lon": 13.66385}], "Petritor - Nord": [{"Name": "Petritor - Nord", "Country Code": "DE", "Population": 5900.0, "Lat": 52.27712, "Lon": 10.50161}], "Petritor - Ost": [{"Name": "Petritor - Ost", "Country Code": "DE", "Population": 9556.0, "Lat": 52.26841, "Lon": 10.50717}], "Petritor - West": [{"Name": "Petritor - West", "Country Code": "DE", "Population": 3508.0, "Lat": 52.26609, "Lon": 10.49382}], "Petrivka": [{"Name": "Petrivka", "Country Code": "UA", "Population": 1160.0, "Lat": 46.99814, "Lon": 31.76372}, {"Name": "Petrivka", "Country Code": "UA", "Population": 1031.0, "Lat": 46.31283, "Lon": 29.95259}, {"Name": "Petrivka", "Country Code": "UA", "Population": 4595.0, "Lat": 46.9108, "Lon": 30.72167}], "Petrivsk": [{"Name": "Petrivsk", "Country Code": "UA", "Population": 1410.0, "Lat": 46.44711, "Lon": 28.9701}], "Petrivske": [{"Name": "Petrivske", "Country Code": "UA", "Population": 3275.0, "Lat": 49.17421, "Lon": 36.89548}], "Petrizzi": [{"Name": "Petrizzi", "Country Code": "IT", "Population": 946.0, "Lat": 38.70179, "Lon": 16.47187}], "Petro-Slavyanka": [{"Name": "Petro-Slavyanka", "Country Code": "RU", "Population": 1308.0, "Lat": 59.80222, "Lon": 30.50694}], "Petrochori": [{"Name": "Petroch\u00f3ri", "Country Code": "GR", "Population": 1052.0, "Lat": 41.08742, "Lon": 24.84092}], "Petrodolynske": [{"Name": "Petrodolynske", "Country Code": "UA", "Population": 3118.0, "Lat": 46.43382, "Lon": 30.40377}], "Petrodvorets": [{"Name": "Petrodvorets", "Country Code": "RU", "Population": 61973.0, "Lat": 59.89565, "Lon": 29.80145}], "Petrogradka": [{"Name": "Petrogradka", "Country Code": "RU", "Population": 130455.0, "Lat": 59.96567, "Lon": 30.31154}], "Petrokamenskoye": [{"Name": "Petrokamenskoye", "Country Code": "RU", "Population": 3688.0, "Lat": 57.716, "Lon": 60.6484}], "Petrola": [{"Name": "P\u00e9trola", "Country Code": "ES", "Population": 874.0, "Lat": 38.82628, "Lon": -1.55662}], "Petrolia": [{"Name": "Petrolia", "Country Code": "CA", "Population": 5375.0, "Lat": 42.86678, "Lon": -82.14981}], "Petrolina": [{"Name": "Petrolina", "Country Code": "BR", "Population": 194650.0, "Lat": -9.39861, "Lon": -40.50083}], "Petrolina de Goias": [{"Name": "Petrolina de Goi\u00e1s", "Country Code": "BR", "Population": 7710.0, "Lat": -16.095, "Lon": -49.33806}], "Petrona": [{"Name": "Petron\u00e0", "Country Code": "IT", "Population": 2448.0, "Lat": 39.0437, "Lon": 16.75796}], "Petronell-Carnuntum": [{"Name": "Petronell-Carnuntum", "Country Code": "AT", "Population": 1245.0, "Lat": 48.11296, "Lon": 16.86582}], "Petronou": [{"Name": "Petronou", "Country Code": "CI", "Population": 1003.0, "Lat": 7.7875, "Lon": -3.69306}], "Petropavl": [{"Name": "Petropavl", "Country Code": "KZ", "Population": 200920.0, "Lat": 54.86667, "Lon": 69.15}], "Petropavlivka": [{"Name": "Petropavlivka", "Country Code": "UA", "Population": 1120.0, "Lat": 46.34171, "Lon": 29.56007}, {"Name": "Petropavlivka", "Country Code": "UA", "Population": 6944.0, "Lat": 48.46353, "Lon": 36.43061}], "Petropavlovka": [{"Name": "Petropavlovka", "Country Code": "RU", "Population": 7582.0, "Lat": 50.6114, "Lon": 105.3196}], "Petropavlovsk-Kamchatsky": [{"Name": "Petropavlovsk-Kamchatsky", "Country Code": "RU", "Population": 181216.0, "Lat": 53.06393, "Lon": 158.62751}], "Petropavlovskaya": [{"Name": "Petropavlovskaya", "Country Code": "RU", "Population": 6632.0, "Lat": 45.08189, "Lon": 40.45125}, {"Name": "Petropavlovskaya", "Country Code": "RU", "Population": 3686.0, "Lat": 43.38007, "Lon": 45.82816}], "Petropavlovskoye": [{"Name": "Petropavlovskoye", "Country Code": "RU", "Population": 2839.0, "Lat": 52.0712, "Lon": 84.107}], "Petropolis": [{"Name": "Petr\u00f3polis", "Country Code": "BR", "Population": 272691.0, "Lat": -22.505, "Lon": -43.17861}], "Petrosani": [{"Name": "Petro\u015fani", "Country Code": "RO", "Population": 44187.0, "Lat": 45.41667, "Lon": 23.36667}], "Petrosino": [{"Name": "Petrosino", "Country Code": "IT", "Population": 6761.0, "Lat": 37.71271, "Lon": 12.49964}, {"Name": "Petrosino", "Country Code": "IT", "Population": 1193.0, "Lat": 37.88392, "Lon": 14.79912}], "Petrosnita": [{"Name": "Petro\u0219ni\u021ba", "Country Code": "RO", "Population": 1050.0, "Lat": 45.32351, "Lon": 22.2592}], "Petroupolis": [{"Name": "Petro\u00fapolis", "Country Code": "GR", "Population": 58979.0, "Lat": 38.04187, "Lon": 23.68494}], "Petroussa": [{"Name": "Petro\u00fassa", "Country Code": "GR", "Population": 1985.0, "Lat": 41.1947, "Lon": 24.01731}], "Petrov": [{"Name": "Petrov", "Country Code": "CZ", "Population": 1354.0, "Lat": 48.88196, "Lon": 17.2781}], "Petrov Val": [{"Name": "Petrov Val", "Country Code": "RU", "Population": 14853.0, "Lat": 50.14337, "Lon": 45.20958}], "Petrova": [{"Name": "Petrova", "Country Code": "RO", "Population": 2664.0, "Lat": 47.82981, "Lon": 24.21533}], "Petrovac": [{"Name": "Petrovac", "Country Code": "RS", "Population": 0.0, "Lat": 44.37694, "Lon": 21.41917}], "Petrovac na Moru": [{"Name": "Petrovac na Moru", "Country Code": "ME", "Population": 1485.0, "Lat": 42.20556, "Lon": 18.9425}], "Petrovaradin": [{"Name": "Petrovaradin", "Country Code": "RS", "Population": 13917.0, "Lat": 45.24667, "Lon": 19.87944}], "Petrove": [{"Name": "Petrove", "Country Code": "UA", "Population": 7150.0, "Lat": 48.33809, "Lon": 33.2653}], "Petrovec": [{"Name": "\u041f\u0435\u0442\u0440\u043e\u0432\u0435\u0446", "Country Code": "MK", "Population": 8298.0, "Lat": 41.93889, "Lon": 21.615}], "Petrovice": [{"Name": "Petrovice", "Country Code": "CZ", "Population": 1362.0, "Lat": 49.55426, "Lon": 14.33737}], "Petrovice u Karvine": [{"Name": "Petrovice u Karvin\u00e9", "Country Code": "CZ", "Population": 4874.0, "Lat": 49.89587, "Lon": 18.54779}], "Petrovirivka": [{"Name": "Petrovirivka", "Country Code": "UA", "Population": 2954.0, "Lat": 47.22875, "Lon": 30.33144}], "Petrovka": [{"Name": "Petrovka", "Country Code": "UA", "Population": 6714.0, "Lat": 45.49776, "Lon": 34.28816}], "Petrovo": [{"Name": "Petrovo", "Country Code": "BA", "Population": 0.0, "Lat": 44.62804, "Lon": 18.35323}], "Petrovo-Dal'neye": [{"Name": "Petrovo-Dal\u2019neye", "Country Code": "RU", "Population": 2850.0, "Lat": 55.74679, "Lon": 37.17347}], "Petrovsk": [{"Name": "Petrovsk", "Country Code": "RU", "Population": 5324.0, "Lat": 57.01039, "Lon": 39.26928}, {"Name": "Petrovsk", "Country Code": "RU", "Population": 33622.0, "Lat": 52.30639, "Lon": 45.39167}], "Petrovsk-Zabaykal'skiy": [{"Name": "Petrovsk-Zabaykal\u2019skiy", "Country Code": "RU", "Population": 19713.0, "Lat": 51.2753, "Lon": 108.84301}], "Petrovskaya": [{"Name": "Petrovskaya", "Country Code": "RU", "Population": 13340.0, "Lat": 45.43139, "Lon": 37.955}, {"Name": "Petrovskaya", "Country Code": "RU", "Population": 30000.0, "Lat": 55.55, "Lon": 37.78333}], "Petrovske": [{"Name": "Petrovske", "Country Code": "UA", "Population": 12642.0, "Lat": 48.29662, "Lon": 38.87892}], "Petrovskiy": [{"Name": "Petrovskiy", "Country Code": "RU", "Population": 1304.0, "Lat": 52.24159, "Lon": 40.64976}, {"Name": "Petrovskiy", "Country Code": "RU", "Population": 2943.0, "Lat": 56.6421, "Lon": 40.32026}], "Petrovsko": [{"Name": "Petrovsko", "Country Code": "HR", "Population": 197.0, "Lat": 46.16806, "Lon": 15.84083}], "Petrovskoye": [{"Name": "Petrovskoye", "Country Code": "RU", "Population": 0.0, "Lat": 56.69755, "Lon": 28.645}], "Petrozavodsk": [{"Name": "Petrozavodsk", "Country Code": "RU", "Population": 279190.0, "Lat": 61.78491, "Lon": 34.34691}], "Petruro Irpino": [{"Name": "Petruro Irpino", "Country Code": "IT", "Population": 247.0, "Lat": 41.03192, "Lon": 14.79754}], "Petrusville": [{"Name": "Petrusville", "Country Code": "ZA", "Population": 0.0, "Lat": -30.08113, "Lon": 24.6593}], "Petrvald": [{"Name": "Pet\u0159vald", "Country Code": "CZ", "Population": 1735.0, "Lat": 49.70872, "Lon": 18.15719}, {"Name": "Pet\u0159vald", "Country Code": "CZ", "Population": 6854.0, "Lat": 49.831, "Lon": 18.3894}], "Petrykivka": [{"Name": "Petrykivka", "Country Code": "UA", "Population": 4896.0, "Lat": 48.7279, "Lon": 34.62837}], "Petten": [{"Name": "Petten", "Country Code": "NL", "Population": 1640.0, "Lat": 52.76667, "Lon": 4.66111}], "Pettenasco": [{"Name": "Pettenasco", "Country Code": "IT", "Population": 1133.0, "Lat": 45.81657, "Lon": 8.40702}], "Pettenbach": [{"Name": "Pettenbach", "Country Code": "AT", "Population": 1506.0, "Lat": 47.96016, "Lon": 14.01692}], "Pettendorf": [{"Name": "Pettendorf", "Country Code": "DE", "Population": 3268.0, "Lat": 49.35475, "Lon": 12.35926}], "Pettinengo": [{"Name": "Pettinengo", "Country Code": "IT", "Population": 1599.0, "Lat": 45.61306, "Lon": 8.10422}], "Pettineo": [{"Name": "Pettineo", "Country Code": "IT", "Population": 1362.0, "Lat": 37.96793, "Lon": 14.29118}], "Petting": [{"Name": "Petting", "Country Code": "DE", "Population": 2346.0, "Lat": 47.91232, "Lon": 12.81512}], "Pettnau": [{"Name": "Pettnau", "Country Code": "AT", "Population": 1047.0, "Lat": 47.29204, "Lon": 11.15962}], "Pettneu": [{"Name": "Pettneu", "Country Code": "AT", "Population": 1141.0, "Lat": 47.14595, "Lon": 10.33655}], "Petton": [{"Name": "Petton", "Country Code": "GB", "Population": 0.0, "Lat": 52.83333, "Lon": -2.83333}], "Pettoranello del Molise": [{"Name": "Pettoranello del Molise", "Country Code": "IT", "Population": 351.0, "Lat": 41.57331, "Lon": 14.27839}], "Pettorano sul Gizio": [{"Name": "Pettorano sul Gizio", "Country Code": "IT", "Population": 515.0, "Lat": 41.97326, "Lon": 13.96001}], "Pettorazza Grimani": [{"Name": "Pettorazza Grimani", "Country Code": "IT", "Population": 1231.0, "Lat": 45.13585, "Lon": 11.98779}], "Pettstadt": [{"Name": "Pettstadt", "Country Code": "DE", "Population": 1886.0, "Lat": 49.82996, "Lon": 10.92839}], "Petukhovo": [{"Name": "Petukhovo", "Country Code": "RU", "Population": 12367.0, "Lat": 55.06917, "Lon": 67.90194}], "Petushki": [{"Name": "Petushki", "Country Code": "RU", "Population": 15866.0, "Lat": 55.92721, "Lon": 39.46072}], "Petworth": [{"Name": "Petworth", "Country Code": "GB", "Population": 2544.0, "Lat": 50.98669, "Lon": -0.61}], "Petyonara": [{"Name": "P\u00e9tyonara", "Country Code": "CI", "Population": 5225.0, "Lat": 8.43064, "Lon": -5.11429}], "Petzenkirchen": [{"Name": "Petzenkirchen", "Country Code": "AT", "Population": 1311.0, "Lat": 48.14693, "Lon": 15.15465}], "Peuerbach": [{"Name": "Peuerbach", "Country Code": "AT", "Population": 1475.0, "Lat": 48.3453, "Lon": 13.77205}], "Peujard": [{"Name": "Peujard", "Country Code": "FR", "Population": 1606.0, "Lat": 45.0368, "Lon": -0.43977}], "Peukanbada": [{"Name": "Peukanbada", "Country Code": "ID", "Population": 0.0, "Lat": 5.53606, "Lon": 95.2284}], "Peuleumat": [{"Name": "Peuleumat", "Country Code": "ID", "Population": 0.0, "Lat": 3.52725, "Lon": 97.03086}], "Peureulak": [{"Name": "Peureulak", "Country Code": "ID", "Population": 0.0, "Lat": 4.8098, "Lon": 97.8902}], "Peutie": [{"Name": "Peutie", "Country Code": "BE", "Population": 2667.0, "Lat": 50.92998, "Lon": 4.45187}], "Pevek": [{"Name": "Pevek", "Country Code": "RU", "Population": 4837.0, "Lat": 69.70287, "Lon": 170.29993}], "Pevely": [{"Name": "Pevely", "Country Code": "US", "Population": 5652.0, "Lat": 38.28339, "Lon": -90.39512}], "Pevensey": [{"Name": "Pevensey", "Country Code": "GB", "Population": 3152.0, "Lat": 50.81966, "Lon": 0.33963}], "Pevensey Bay": [{"Name": "Pevensey Bay", "Country Code": "GB", "Population": 2864.0, "Lat": 50.81242, "Lon": 0.34864}], "Peveragno": [{"Name": "Peveragno", "Country Code": "IT", "Population": 2604.0, "Lat": 44.3206, "Lon": 7.61859}], "Pewaukee": [{"Name": "Pewaukee", "Country Code": "US", "Population": 8208.0, "Lat": 43.08057, "Lon": -88.2612}], "Pewee Valley": [{"Name": "Pewee Valley", "Country Code": "US", "Population": 1529.0, "Lat": 38.31062, "Lon": -85.48746}], "Pewel Slemienska": [{"Name": "Pewel \u015alemie\u0144ska", "Country Code": "PL", "Population": 1555.0, "Lat": 49.68968, "Lon": 19.33431}], "Pewel Wielka": [{"Name": "Pewel Wielka", "Country Code": "PL", "Population": 1548.0, "Lat": 49.67457, "Lon": 19.37482}], "Pewsey": [{"Name": "Pewsey", "Country Code": "GB", "Population": 3634.0, "Lat": 51.33855, "Lon": -1.76545}], "Peymeinade": [{"Name": "Peymeinade", "Country Code": "FR", "Population": 7465.0, "Lat": 43.64244, "Lon": 6.87583}], "Peynier": [{"Name": "Peynier", "Country Code": "FR", "Population": 3059.0, "Lat": 43.44837, "Lon": 5.64139}], "Peypin": [{"Name": "Peypin", "Country Code": "FR", "Population": 5133.0, "Lat": 43.38503, "Lon": 5.57788}], "Peyrat-de-Bellac": [{"Name": "Peyrat-de-Bellac", "Country Code": "FR", "Population": 1168.0, "Lat": 46.14183, "Lon": 1.03686}], "Peyrat-le-Chateau": [{"Name": "Peyrat-le-Ch\u00e2teau", "Country Code": "FR", "Population": 1140.0, "Lat": 45.81376, "Lon": 1.7726}], "Peyrehorade": [{"Name": "Peyrehorade", "Country Code": "FR", "Population": 3419.0, "Lat": 43.54496, "Lon": -1.10068}], "Peyrestortes": [{"Name": "Peyrestortes", "Country Code": "FR", "Population": 1561.0, "Lat": 42.75395, "Lon": 2.85102}], "Peyriac-Minervois": [{"Name": "Peyriac-Minervois", "Country Code": "FR", "Population": 1070.0, "Lat": 43.29091, "Lon": 2.56591}], "Peyriac-de-Mer": [{"Name": "Peyriac-de-Mer", "Country Code": "FR", "Population": 1032.0, "Lat": 43.08715, "Lon": 2.95725}], "Peyrilhac": [{"Name": "Peyrilhac", "Country Code": "FR", "Population": 1105.0, "Lat": 45.95067, "Lon": 1.13403}], "Peyrins": [{"Name": "Peyrins", "Country Code": "FR", "Population": 2478.0, "Lat": 45.09331, "Lon": 5.04513}], "Peyrolles-en-Provence": [{"Name": "Peyrolles-en-Provence", "Country Code": "FR", "Population": 4084.0, "Lat": 43.64545, "Lon": 5.58492}], "Peyruis": [{"Name": "Peyruis", "Country Code": "FR", "Population": 2375.0, "Lat": 44.0288, "Lon": 5.94032}], "Peza e Madhe": [{"Name": "Peza e Madhe", "Country Code": "AL", "Population": 0.0, "Lat": 41.2175, "Lon": 19.69611}], "Pezenas": [{"Name": "P\u00e9zenas", "Country Code": "FR", "Population": 8647.0, "Lat": 43.45997, "Lon": 3.42258}], "Pezens": [{"Name": "Pezens", "Country Code": "FR", "Population": 1372.0, "Lat": 43.25446, "Lon": 2.26868}], "Pezilla-la-Riviere": [{"Name": "P\u00e9zilla-la-Rivi\u00e8re", "Country Code": "FR", "Population": 3002.0, "Lat": 42.69488, "Lon": 2.77018}], "Pezinok": [{"Name": "Pezinok", "Country Code": "SK", "Population": 21343.0, "Lat": 48.28986, "Lon": 17.26664}], "Pezmatlan": [{"Name": "Pezmatl\u00e1n", "Country Code": "MX", "Population": 1375.0, "Lat": 19.84664, "Lon": -97.48529}], "Pezoan": [{"Name": "P\u00e9zoan", "Country Code": "CI", "Population": 2732.0, "Lat": 6.45925, "Lon": -6.57062}], "Pezuela de las Torres": [{"Name": "Pezuela de las Torres", "Country Code": "ES", "Population": 481.0, "Lat": 40.41613, "Lon": -3.17363}], "Pezzan": [{"Name": "Pezzan", "Country Code": "IT", "Population": 1120.0, "Lat": 45.69341, "Lon": 12.09616}], "Pezzana": [{"Name": "Pezzana", "Country Code": "IT", "Population": 1282.0, "Lat": 45.26152, "Lon": 8.48396}], "Pezzano-Filetta": [{"Name": "Pezzano-Filetta", "Country Code": "IT", "Population": 2434.0, "Lat": 40.69773, "Lon": 14.86971}], "Pezzaze": [{"Name": "Pezzaze", "Country Code": "IT", "Population": 1613.0, "Lat": 45.77629, "Lon": 10.23597}], "Pezze di Greco": [{"Name": "Pezze di Greco", "Country Code": "IT", "Population": 4917.0, "Lat": 40.81004, "Lon": 17.41333}], "Pezzolo Valle Uzzone": [{"Name": "Pezzolo Valle Uzzone", "Country Code": "IT", "Population": 51.0, "Lat": 44.53874, "Lon": 8.19394}], "Pfaeffikon": [{"Name": "Pf\u00e4ffikon", "Country Code": "CH", "Population": 7310.0, "Lat": 47.20109, "Lon": 8.77816}], "Pfaeffikon / Irgenhausen": [{"Name": "Pf\u00e4ffikon / Irgenhausen", "Country Code": "CH", "Population": 2032.0, "Lat": 47.3624, "Lon": 8.79265}], "Pfaeffikon / Pfaeffikon (Dorfkern)": [{"Name": "Pf\u00e4ffikon / Pf\u00e4ffikon (Dorfkern)", "Country Code": "CH", "Population": 5595.0, "Lat": 47.36943, "Lon": 8.78309}], "Pfaffen-Schwabenheim": [{"Name": "Pfaffen-Schwabenheim", "Country Code": "DE", "Population": 1310.0, "Lat": 49.85, "Lon": 7.95}], "Pfaffenhausen": [{"Name": "Pfaffenhausen", "Country Code": "DE", "Population": 2429.0, "Lat": 48.11878, "Lon": 10.45504}], "Pfaffenheim": [{"Name": "Pfaffenheim", "Country Code": "FR", "Population": 1248.0, "Lat": 47.98567, "Lon": 7.28928}], "Pfaffenhofen": [{"Name": "Pfaffenhofen", "Country Code": "AT", "Population": 1102.0, "Lat": 47.3, "Lon": 11.08333}, {"Name": "Pfaffenhofen", "Country Code": "DE", "Population": 1717.0, "Lat": 48.39334, "Lon": 11.20563}, {"Name": "Pfaffenhofen", "Country Code": "DE", "Population": 2342.0, "Lat": 49.06444, "Lon": 8.97639}], "Pfaffenhofen an der Ilm": [{"Name": "Pfaffenhofen an der Ilm", "Country Code": "DE", "Population": 23192.0, "Lat": 48.53053, "Lon": 11.505}], "Pfaffenhofen an der Roth": [{"Name": "Pfaffenhofen an der Roth", "Country Code": "DE", "Population": 7158.0, "Lat": 48.35454, "Lon": 10.16184}], "Pfaffenhoffen": [{"Name": "Pfaffenhoffen", "Country Code": "FR", "Population": 2629.0, "Lat": 48.8422, "Lon": 7.60714}], "Pfaffenweiler": [{"Name": "Pfaffenweiler", "Country Code": "DE", "Population": 2529.0, "Lat": 47.93333, "Lon": 7.75}], "Pfaffhausen": [{"Name": "Pfaffhausen", "Country Code": "CH", "Population": 1684.0, "Lat": 47.36476, "Lon": 8.62375}], "Pfaffikon": [{"Name": "Pf\u00e4ffikon", "Country Code": "CH", "Population": 7994.0, "Lat": 47.36453, "Lon": 8.79202}], "Pfaffing": [{"Name": "Pfaffing", "Country Code": "AT", "Population": 150.0, "Lat": 48.018, "Lon": 13.47507}, {"Name": "Pfaffing", "Country Code": "DE", "Population": 3782.0, "Lat": 48.05456, "Lon": 12.10917}], "Pfaffnau": [{"Name": "Pfaffnau", "Country Code": "CH", "Population": 2047.0, "Lat": 47.22772, "Lon": 7.89719}], "Pfaffroda": [{"Name": "Pfaffroda", "Country Code": "DE", "Population": 3187.0, "Lat": 50.86134, "Lon": 12.51497}], "Pfaffstaetten": [{"Name": "Pfaffst\u00e4tten", "Country Code": "AT", "Population": 3458.0, "Lat": 48.01737, "Lon": 16.26354}], "Pfakofen": [{"Name": "Pfakofen", "Country Code": "DE", "Population": 1531.0, "Lat": 48.85822, "Lon": 12.22744}], "Pfalzgrafenweiler": [{"Name": "Pfalzgrafenweiler", "Country Code": "DE", "Population": 7038.0, "Lat": 48.5265, "Lon": 8.56582}], "Pfarrkirchen": [{"Name": "Pfarrkirchen", "Country Code": "DE", "Population": 11894.0, "Lat": 48.43205, "Lon": 12.93812}], "Pfarrkirchen bei Bad Hall": [{"Name": "Pfarrkirchen bei Bad Hall", "Country Code": "AT", "Population": 801.0, "Lat": 48.03046, "Lon": 14.19914}], "Pfarrweisach": [{"Name": "Pfarrweisach", "Country Code": "DE", "Population": 1608.0, "Lat": 50.15, "Lon": 10.73333}], "Pfarrwerfen": [{"Name": "Pfarrwerfen", "Country Code": "AT", "Population": 0.0, "Lat": 47.45729, "Lon": 13.20531}], "Pfastatt": [{"Name": "Pfastatt", "Country Code": "FR", "Population": 8354.0, "Lat": 47.76915, "Lon": 7.30295}], "Pfatter": [{"Name": "Pfatter", "Country Code": "DE", "Population": 3059.0, "Lat": 48.96309, "Lon": 12.38254}], "Pfedelbach": [{"Name": "Pfedelbach", "Country Code": "DE", "Population": 8879.0, "Lat": 49.17806, "Lon": 9.505}], "Pfeffelbach": [{"Name": "Pfeffelbach", "Country Code": "DE", "Population": 1001.0, "Lat": 49.53948, "Lon": 7.32768}], "Pfeffenhausen": [{"Name": "Pfeffenhausen", "Country Code": "DE", "Population": 4770.0, "Lat": 48.66466, "Lon": 11.96594}], "Pfeffingen": [{"Name": "Pfeffingen", "Country Code": "CH", "Population": 2201.0, "Lat": 47.45984, "Lon": 7.58975}], "Pfetterhouse": [{"Name": "Pfetterhouse", "Country Code": "FR", "Population": 1020.0, "Lat": 47.50128, "Lon": 7.16598}], "Pflach": [{"Name": "Pflach", "Country Code": "AT", "Population": 888.0, "Lat": 47.51667, "Lon": 10.71667}], "Pflugerville": [{"Name": "Pflugerville", "Country Code": "US", "Population": 57122.0, "Lat": 30.43937, "Lon": -97.62}], "Pfofeld": [{"Name": "Pfofeld", "Country Code": "DE", "Population": 1441.0, "Lat": 49.1059, "Lon": 10.83664}], "Pfons": [{"Name": "Pfons", "Country Code": "AT", "Population": 602.0, "Lat": 47.14201, "Lon": 11.46071}], "Pforzen": [{"Name": "Pforzen", "Country Code": "DE", "Population": 2130.0, "Lat": 47.92997, "Lon": 10.61357}], "Pforzheim": [{"Name": "Pforzheim", "Country Code": "DE", "Population": 119313.0, "Lat": 48.88436, "Lon": 8.69892}], "Pfreimd": [{"Name": "Pfreimd", "Country Code": "DE", "Population": 5565.0, "Lat": 49.49114, "Lon": 12.18069}], "Pfronstetten": [{"Name": "Pfronstetten", "Country Code": "DE", "Population": 1581.0, "Lat": 48.27641, "Lon": 9.35995}], "Pfronten": [{"Name": "Pfronten", "Country Code": "DE", "Population": 7890.0, "Lat": 47.5822, "Lon": 10.54962}], "Pfulgriesheim": [{"Name": "Pfulgriesheim", "Country Code": "FR", "Population": 1237.0, "Lat": 48.64403, "Lon": 7.67086}], "Pfullendorf": [{"Name": "Pfullendorf", "Country Code": "DE", "Population": 13258.0, "Lat": 47.9261, "Lon": 9.2578}], "Pfullingen": [{"Name": "Pfullingen", "Country Code": "DE", "Population": 18269.0, "Lat": 48.46458, "Lon": 9.22796}], "Pfunds": [{"Name": "Pfunds", "Country Code": "AT", "Population": 2602.0, "Lat": 46.96667, "Lon": 10.55}], "Pfungen": [{"Name": "Pfungen", "Country Code": "CH", "Population": 2369.0, "Lat": 47.51394, "Lon": 8.6423}], "Pfungstadt": [{"Name": "Pfungstadt", "Country Code": "DE", "Population": 25084.0, "Lat": 49.80557, "Lon": 8.60307}], "Pfyn": [{"Name": "Pfyn", "Country Code": "CH", "Population": 1839.0, "Lat": 47.59693, "Lon": 8.9542}], "Pha Khao": [{"Name": "Pha Khao", "Country Code": "TH", "Population": 0.0, "Lat": 17.06507, "Lon": 102.02965}], "Phachi": [{"Name": "Phachi", "Country Code": "TH", "Population": 0.0, "Lat": 14.44914, "Lon": 100.72833}], "Phaeton": [{"Name": "Pha\u00ebton", "Country Code": "HT", "Population": 2297.0, "Lat": 19.67525, "Lon": -71.89691}], "Phagwara": [{"Name": "Phagw\u0101ra", "Country Code": "IN", "Population": 100146.0, "Lat": 31.22452, "Lon": 75.77387}], "Phai Sali": [{"Name": "Phai Sali", "Country Code": "TH", "Population": 13088.0, "Lat": 15.60003, "Lon": 100.64937}], "Phak Hai": [{"Name": "Phak Hai", "Country Code": "TH", "Population": 19386.0, "Lat": 14.45736, "Lon": 100.36989}], "Phakamisa": [{"Name": "Phakamisa", "Country Code": "ZA", "Population": 8806.0, "Lat": -32.93328, "Lon": 27.4571}], "Phakdi Chumphon": [{"Name": "Phakdi Chumphon", "Country Code": "TH", "Population": 0.0, "Lat": 15.90517, "Lon": 101.42228}], "Phalaborwa": [{"Name": "Phalaborwa", "Country Code": "ZA", "Population": 109468.0, "Lat": -23.94299, "Lon": 31.14107}], "Phalauda": [{"Name": "Phalauda", "Country Code": "IN", "Population": 18545.0, "Lat": 29.18824, "Lon": 77.82996}], "Phalempin": [{"Name": "Phalempin", "Country Code": "FR", "Population": 4719.0, "Lat": 50.51691, "Lon": 3.01584}], "Phalia": [{"Name": "Phalia", "Country Code": "PK", "Population": 24789.0, "Lat": 32.43104, "Lon": 73.579}], "Phalodi": [{"Name": "Phalodi", "Country Code": "IN", "Population": 46788.0, "Lat": 27.13102, "Lon": 72.36826}], "Phalombe": [{"Name": "Phalombe", "Country Code": "MW", "Population": 7040.0, "Lat": -15.80635, "Lon": 35.65067}], "Phalsbourg": [{"Name": "Phalsbourg", "Country Code": "FR", "Population": 4663.0, "Lat": 48.76771, "Lon": 7.2582}], "Phaltan": [{"Name": "Phaltan", "Country Code": "IN", "Population": 53202.0, "Lat": 17.99113, "Lon": 74.43177}], "Phan": [{"Name": "Phan", "Country Code": "TH", "Population": 0.0, "Lat": 19.55395, "Lon": 99.74045}], "Phan Rang-Thap Cham": [{"Name": "Phan Rang-Th\u00e1p Ch\u00e0m", "Country Code": "VN", "Population": 91520.0, "Lat": 11.56432, "Lon": 108.98858}], "Phan Thiet": [{"Name": "Phan Thi\u1ebft", "Country Code": "VN", "Population": 160652.0, "Lat": 10.92889, "Lon": 108.10208}], "Phan Thong": [{"Name": "Phan Thong", "Country Code": "TH", "Population": 18708.0, "Lat": 13.46804, "Lon": 101.09532}], "Phana": [{"Name": "Phana", "Country Code": "TH", "Population": 0.0, "Lat": 15.68231, "Lon": 104.84603}], "Phanat Nikhom": [{"Name": "Phanat Nikhom", "Country Code": "TH", "Population": 21924.0, "Lat": 13.44581, "Lon": 101.18445}], "Phang Khon": [{"Name": "Phang Khon", "Country Code": "TH", "Population": 0.0, "Lat": 17.39051, "Lon": 103.71692}], "Phang Nga": [{"Name": "Phang Nga", "Country Code": "TH", "Population": 9676.0, "Lat": 8.45091, "Lon": 98.52985}], "Phanna Nikhom": [{"Name": "Phanna Nikhom", "Country Code": "TH", "Population": 0.0, "Lat": 17.35245, "Lon": 103.85032}], "Phanom": [{"Name": "Phanom", "Country Code": "TH", "Population": 0.0, "Lat": 8.85475, "Lon": 98.81267}], "Phanom Dong Rak": [{"Name": "Phanom Dong Rak", "Country Code": "TH", "Population": 0.0, "Lat": 14.44575, "Lon": 103.30508}], "Phanom Phrai": [{"Name": "Phanom Phrai", "Country Code": "TH", "Population": 0.0, "Lat": 15.67783, "Lon": 104.11025}], "Phanom Sarakham": [{"Name": "Phanom Sarakham", "Country Code": "TH", "Population": 16057.0, "Lat": 13.74872, "Lon": 101.34888}], "Phanom Thuan": [{"Name": "Phanom Thuan", "Country Code": "TH", "Population": 12469.0, "Lat": 14.13031, "Lon": 99.69858}], "Phaphund": [{"Name": "Phaph\u016bnd", "Country Code": "IN", "Population": 16675.0, "Lat": 26.59888, "Lon": 79.46437}], "Phara": [{"Name": "Phara", "Country Code": "PE", "Population": 0.0, "Lat": -14.15167, "Lon": -69.66306}], "Phariha": [{"Name": "Pharih\u0101", "Country Code": "IN", "Population": 6380.0, "Lat": 27.32166, "Lon": 78.47267}], "Pharr": [{"Name": "Pharr", "Country Code": "US", "Population": 76538.0, "Lat": 26.1948, "Lon": -98.18362}], "Phasi Charoen": [{"Name": "Phasi Charoen", "Country Code": "TH", "Population": 122070.0, "Lat": 13.71466, "Lon": 100.43691}], "Phat Diem": [{"Name": "Ph\u00e1t Di\u1ec7m", "Country Code": "VN", "Population": 0.0, "Lat": 20.09054, "Lon": 106.08323}], "Phato": [{"Name": "Phato", "Country Code": "TH", "Population": 0.0, "Lat": 9.79089, "Lon": 98.77658}], "Phatthalung": [{"Name": "Phatthalung", "Country Code": "TH", "Population": 43522.0, "Lat": 7.61786, "Lon": 100.07792}], "Phatthana Nikhom": [{"Name": "Phatthana Nikhom", "Country Code": "TH", "Population": 0.0, "Lat": 14.85647, "Lon": 100.98459}], "Phaweni": [{"Name": "Phaweni", "Country Code": "ZA", "Population": 2077.0, "Lat": -22.88181, "Lon": 30.77882}], "Phaya Mengrai": [{"Name": "Phaya Mengrai", "Country Code": "TH", "Population": 0.0, "Lat": 19.84922, "Lon": 100.15358}], "Phaya Thai": [{"Name": "Phaya Thai", "Country Code": "TH", "Population": 0.0, "Lat": 13.78005, "Lon": 100.54275}], "Phayakkhaphum Phisai": [{"Name": "Phayakkhaphum Phisai", "Country Code": "TH", "Population": 10212.0, "Lat": 15.51631, "Lon": 103.19367}], "Phayao": [{"Name": "Phayao", "Country Code": "TH", "Population": 21058.0, "Lat": 19.19203, "Lon": 99.87883}], "Phayu": [{"Name": "Phayu", "Country Code": "TH", "Population": 0.0, "Lat": 14.90851, "Lon": 104.39101}], "Phayuha Khiri": [{"Name": "Phayuha Khiri", "Country Code": "TH", "Population": 12271.0, "Lat": 15.45525, "Lon": 100.13533}], "Phek": [{"Name": "Phek", "Country Code": "IN", "Population": 15118.0, "Lat": 25.66667, "Lon": 94.5}], "Phelan": [{"Name": "Phelan", "Country Code": "US", "Population": 14304.0, "Lat": 34.42611, "Lon": -117.57228}], "Phelps": [{"Name": "Phelps", "Country Code": "US", "Population": 1945.0, "Lat": 42.95756, "Lon": -77.05747}], "Phen": [{"Name": "Phen", "Country Code": "TH", "Population": 0.0, "Lat": 17.69614, "Lon": 102.90689}], "Phenix City": [{"Name": "Phenix City", "Country Code": "US", "Population": 37570.0, "Lat": 32.47098, "Lon": -85.00077}], "Pherzawl": [{"Name": "Pherzawl", "Country Code": "IN", "Population": 0.0, "Lat": 24.26227, "Lon": 93.18873}], "Phetchabun": [{"Name": "Phetchabun", "Country Code": "TH", "Population": 50656.0, "Lat": 16.41904, "Lon": 101.16056}], "Phetchaburi": [{"Name": "Phetchaburi", "Country Code": "TH", "Population": 46601.0, "Lat": 13.11189, "Lon": 99.94467}], "Phibun Mangsahan": [{"Name": "Phibun Mangsahan", "Country Code": "TH", "Population": 19883.0, "Lat": 15.24467, "Lon": 105.22908}], "Phibun Rak": [{"Name": "Phibun Rak", "Country Code": "TH", "Population": 0.0, "Lat": 17.55312, "Lon": 103.05794}], "Phichai": [{"Name": "Phichai", "Country Code": "TH", "Population": 0.0, "Lat": 17.28764, "Lon": 100.0867}], "Phichit": [{"Name": "Phichit", "Country Code": "TH", "Population": 35760.0, "Lat": 16.44184, "Lon": 100.34879}], "Phil Campbell": [{"Name": "Phil Campbell", "Country Code": "US", "Population": 1235.0, "Lat": 34.35093, "Lon": -87.70642}], "Philadelphia": [{"Name": "Philadelphia", "Country Code": "US", "Population": 7391.0, "Lat": 32.77152, "Lon": -89.11673}, {"Name": "Philadelphia", "Country Code": "US", "Population": 1576251.0, "Lat": 39.95238, "Lon": -75.16362}, {"Name": "Philadelphia", "Country Code": "US", "Population": 1223.0, "Lat": 44.1545, "Lon": -75.70882}], "Philandersbron": [{"Name": "Philandersbron", "Country Code": "ZA", "Population": 1295.0, "Lat": -26.81168, "Lon": 20.09484}], "Philip": [{"Name": "Philip", "Country Code": "US", "Population": 751.0, "Lat": 44.03943, "Lon": -101.66514}], "Philippeville": [{"Name": "Philippeville", "Country Code": "BE", "Population": 8051.0, "Lat": 50.19612, "Lon": 4.54374}], "Philippi": [{"Name": "Philippi", "Country Code": "US", "Population": 3256.0, "Lat": 39.15232, "Lon": -80.04036}], "Philippsburg": [{"Name": "Philippsburg", "Country Code": "DE", "Population": 12359.0, "Lat": 49.2317, "Lon": 8.46074}], "Philippsthal": [{"Name": "Philippsthal", "Country Code": "DE", "Population": 4570.0, "Lat": 50.83948, "Lon": 10.00906}], "Philipsburg": [{"Name": "Philipsburg", "Country Code": "SX", "Population": 1400.0, "Lat": 18.026, "Lon": -63.04582}, {"Name": "Philipsburg", "Country Code": "US", "Population": 884.0, "Lat": 46.33215, "Lon": -113.29423}, {"Name": "Philipsburg", "Country Code": "US", "Population": 2715.0, "Lat": 40.89645, "Lon": -78.22057}], "Phillaur": [{"Name": "Phillaur", "Country Code": "IN", "Population": 22588.0, "Lat": 31.01887, "Lon": 75.79111}], "Phillip": [{"Name": "Phillip", "Country Code": "AU", "Population": 1909.0, "Lat": -31.13333, "Lon": 150.85}, {"Name": "Phillip", "Country Code": "AU", "Population": 3079.0, "Lat": -35.35035, "Lon": 149.09151}], "Phillip Island": [{"Name": "Phillip Island", "Country Code": "AU", "Population": 7071.0, "Lat": -38.48349, "Lon": 145.23102}], "Phillips": [{"Name": "Phillips", "Country Code": "US", "Population": 1388.0, "Lat": 45.69663, "Lon": -90.40043}, {"Name": "Phillips", "Country Code": "US", "Population": 1029.0, "Lat": 44.82311, "Lon": -70.33951}], "Phillipsburg": [{"Name": "Phillipsburg", "Country Code": "US", "Population": 2524.0, "Lat": 39.75612, "Lon": -99.32399}, {"Name": "Phillipsburg", "Country Code": "US", "Population": 14515.0, "Lat": 40.69371, "Lon": -75.19018}], "Phillipston": [{"Name": "Phillipston", "Country Code": "US", "Population": 1649.0, "Lat": 42.5487, "Lon": -72.13286}], "Philmont": [{"Name": "Philmont", "Country Code": "US", "Population": 1318.0, "Lat": 42.24842, "Lon": -73.65318}], "Philo": [{"Name": "Philo", "Country Code": "US", "Population": 1464.0, "Lat": 40.00698, "Lon": -88.1581}], "Philomath": [{"Name": "Philomath", "Country Code": "US", "Population": 4599.0, "Lat": 44.54012, "Lon": -123.3676}], "Phimai": [{"Name": "Phimai", "Country Code": "TH", "Population": 13084.0, "Lat": 15.22324, "Lon": 102.49473}], "Phing": [{"Name": "Phing", "Country Code": "CI", "Population": 2912.0, "Lat": 6.96943, "Lon": -7.82646}], "Phippsburg": [{"Name": "Phippsburg", "Country Code": "US", "Population": 2190.0, "Lat": 43.82064, "Lon": -69.81477}], "Phipun": [{"Name": "Phipun", "Country Code": "TH", "Population": 0.0, "Lat": 8.56036, "Lon": 99.60703}], "Phirangipuram": [{"Name": "Phirangipuram", "Country Code": "IN", "Population": 17335.0, "Lat": 16.29078, "Lon": 80.26233}], "Phitsanulok": [{"Name": "Phitsanulok", "Country Code": "TH", "Population": 62584.0, "Lat": 16.82481, "Lon": 100.25858}], "Phlapphla Chai": [{"Name": "Phlapphla Chai", "Country Code": "TH", "Population": 0.0, "Lat": 14.73011, "Lon": 103.16728}], "Phnom Penh": [{"Name": "Phnom Penh", "Country Code": "KH", "Population": 1573544.0, "Lat": 11.56245, "Lon": 104.91601}], "Phnum Kravanh": [{"Name": "Phnum Kravanh", "Country Code": "KH", "Population": 0.0, "Lat": 12.35121, "Lon": 103.7694}], "Phnum Proek": [{"Name": "Phnum Proek", "Country Code": "KH", "Population": 0.0, "Lat": 13.2235, "Lon": 102.39546}], "Phnum Srok": [{"Name": "Phnum Srok", "Country Code": "KH", "Population": 0.0, "Lat": 13.74403, "Lon": 103.33892}], "Phnum Sruoch": [{"Name": "Phnum Sruoch", "Country Code": "KH", "Population": 0.0, "Lat": 11.385, "Lon": 104.37165}], "Pho Chau": [{"Name": "Ph\u1ed1 Ch\u00e2u", "Country Code": "VN", "Population": 0.0, "Lat": 18.51335, "Lon": 105.42411}], "Pho Moi": [{"Name": "Ph\u1ed1 M\u1edbi", "Country Code": "VN", "Population": 0.0, "Lat": 21.15328, "Lon": 106.15164}], "Pho Sai": [{"Name": "Pho Sai", "Country Code": "TH", "Population": 0.0, "Lat": 15.82586, "Lon": 105.26064}], "Pho Si Suwan": [{"Name": "Pho Si Suwan", "Country Code": "TH", "Population": 0.0, "Lat": 15.22929, "Lon": 104.0767}], "Pho Tak": [{"Name": "Pho Tak", "Country Code": "TH", "Population": 0.0, "Lat": 17.87486, "Lon": 102.40406}], "Pho Thale": [{"Name": "Pho Thale", "Country Code": "TH", "Population": 0.0, "Lat": 16.09269, "Lon": 100.26089}], "Pho Thong": [{"Name": "Pho Thong", "Country Code": "TH", "Population": 12200.0, "Lat": 14.66731, "Lon": 100.40878}], "Phoenix": [{"Name": "Phoenix", "Country Code": "US", "Population": 2311.0, "Lat": 43.23118, "Lon": -76.30076}, {"Name": "Phoenix", "Country Code": "US", "Population": 4553.0, "Lat": 42.27541, "Lon": -122.81809}, {"Name": "Phoenix", "Country Code": "US", "Population": 1608139.0, "Lat": 33.44838, "Lon": -112.07404}, {"Name": "Phoenix", "Country Code": "US", "Population": 1958.0, "Lat": 41.61115, "Lon": -87.63477}], "Phoenix Lake": [{"Name": "Phoenix Lake", "Country Code": "US", "Population": 4269.0, "Lat": 38.00594, "Lon": -120.30702}], "Phoenixville": [{"Name": "Phoenixville", "Country Code": "US", "Population": 16658.0, "Lat": 40.13038, "Lon": -75.51491}], "Phomolong": [{"Name": "Phomolong", "Country Code": "ZA", "Population": 24635.0, "Lat": -28.01274, "Lon": 27.08234}], "Phon": [{"Name": "Phon", "Country Code": "TH", "Population": 14596.0, "Lat": 15.816, "Lon": 102.59981}], "Phon Charoen": [{"Name": "Phon Charoen", "Country Code": "TH", "Population": 0.0, "Lat": 18.03143, "Lon": 103.70996}, {"Name": "Phon Charoen", "Country Code": "TH", "Population": 15208.0, "Lat": 18.03333, "Lon": 103.16667}], "Phon Na Kaeo": [{"Name": "Phon Na Kaeo", "Country Code": "TH", "Population": 0.0, "Lat": 17.22122, "Lon": 104.28995}], "Phon Phisai": [{"Name": "Phon Phisai", "Country Code": "TH", "Population": 0.0, "Lat": 18.02106, "Lon": 103.07664}], "Phon Sai": [{"Name": "Phon Sai", "Country Code": "TH", "Population": 0.0, "Lat": 15.48797, "Lon": 103.99642}], "Phong Chau": [{"Name": "Phong Ch\u00e2u", "Country Code": "VN", "Population": 0.0, "Lat": 21.4068, "Lon": 105.31228}], "Phong GJien": [{"Name": "Phong \u0110i\u1ec1n", "Country Code": "VN", "Population": 0.0, "Lat": 16.58321, "Lon": 107.36438},