{"Raleigh": [{"Name": "Raleigh", "Country Code": "US", "Population": 451066.0, "Lat": 35.7721, "Lon": -78.63861}, {"Name": "Raleigh", "Country Code": "US", "Population": 1427.0, "Lat": 32.03349, "Lon": -89.52229}], "Raleigh Hills": [{"Name": "Raleigh Hills", "Country Code": "US", "Population": 5896.0, "Lat": 45.48067, "Lon": -122.76204}], "Ralingen": [{"Name": "Ralingen", "Country Code": "DE", "Population": 1997.0, "Lat": 49.81667, "Lon": 6.5}], "Ralivka": [{"Name": "Ralivka", "Country Code": "UA", "Population": 3926.0, "Lat": 49.49982, "Lon": 23.23739}], "Ralls": [{"Name": "Ralls", "Country Code": "US", "Population": 1898.0, "Lat": 33.67425, "Lon": -101.38766}], "Ralston": [{"Name": "Ralston", "Country Code": "US", "Population": 5994.0, "Lat": 41.20528, "Lon": -96.04252}], "Ram Das": [{"Name": "R\u0101m D\u0101s", "Country Code": "IN", "Population": 6190.0, "Lat": 31.96739, "Lon": 74.9087}], "Rama": [{"Name": "Rama", "Country Code": "IL", "Population": 7728.0, "Lat": 32.93844, "Lon": 35.3675}, {"Name": "Rama", "Country Code": "NI", "Population": 20456.0, "Lat": 12.15965, "Lon": -84.21952}], "Ramabanta": [{"Name": "Ramabanta", "Country Code": "LS", "Population": 1971.0, "Lat": -29.66732, "Lon": 27.78695}], "Ramacca": [{"Name": "Ramacca", "Country Code": "IT", "Population": 10137.0, "Lat": 37.38616, "Lon": 14.69241}], "Ramachandrapuram": [{"Name": "R\u0101machandrapuram", "Country Code": "IN", "Population": 42977.0, "Lat": 16.83636, "Lon": 82.02871}], "Ramada": [{"Name": "Ramada", "Country Code": "PT", "Population": 17535.0, "Lat": 38.80368, "Lon": -9.1877}], "Ramadi": [{"Name": "Ramadi", "Country Code": "IQ", "Population": 223500.0, "Lat": 33.42056, "Lon": 43.30778}], "Ramagundam": [{"Name": "Ramagundam", "Country Code": "IN", "Population": 235000.0, "Lat": 18.755, "Lon": 79.474}], "Ramain": [{"Name": "Ramain", "Country Code": "PH", "Population": 0.0, "Lat": 7.97083, "Lon": 124.34528}], "Ramak": [{"Name": "R\u0101mak", "Country Code": "AF", "Population": 0.0, "Lat": 33.52234, "Lon": 68.6264}], "Ramales de la Victoria": [{"Name": "Ramales de la Victoria", "Country Code": "ES", "Population": 2294.0, "Lat": 43.2572, "Lon": -3.46516}], "Ramallah": [{"Name": "Ramallah", "Country Code": "PS", "Population": 24599.0, "Lat": 31.89964, "Lon": 35.20422}], "Ramallo": [{"Name": "Ramallo", "Country Code": "AR", "Population": 0.0, "Lat": -33.48508, "Lon": -60.00629}], "Ramamangalam": [{"Name": "R\u0101mamangalam", "Country Code": "IN", "Population": 9999.0, "Lat": 9.93333, "Lon": 76.5}], "Raman": [{"Name": "Raman", "Country Code": "TH", "Population": 0.0, "Lat": 6.47862, "Lon": 101.42414}], "Ramana": [{"Name": "Ramana", "Country Code": "AZ", "Population": 8855.0, "Lat": 40.44222, "Lon": 49.98056}], "Ramanathapuram": [{"Name": "Ramanathapuram", "Country Code": "IN", "Population": 65314.0, "Lat": 9.37158, "Lon": 78.83077}], "Ramanavichy": [{"Name": "Ramanavichy", "Country Code": "BY", "Population": 1341.0, "Lat": 53.8653, "Lon": 30.5597}], "Ramanayyapeta": [{"Name": "Ramanayyapeta", "Country Code": "IN", "Population": 22323.0, "Lat": 16.94516, "Lon": 82.2385}], "Ramanuj Ganj": [{"Name": "R\u0101m\u0101nuj Ganj", "Country Code": "IN", "Population": 10701.0, "Lat": 23.80637, "Lon": 83.69981}], "Ramapuram": [{"Name": "R\u0101m\u0101puram", "Country Code": "IN", "Population": 5961.0, "Lat": 15.28749, "Lon": 77.86722}, {"Name": "R\u0101m\u0101puram", "Country Code": "IN", "Population": 31169.0, "Lat": 13.10091, "Lon": 79.1841}], "Ramarama": [{"Name": "Ramarama", "Country Code": "NZ", "Population": 2340.0, "Lat": -37.15, "Lon": 174.95}], "Ramat Gan": [{"Name": "Ramat Gan", "Country Code": "IL", "Population": 170822.0, "Lat": 32.08227, "Lon": 34.81065}], "Ramat HaKovesh": [{"Name": "Ramat HaKov\u00e9sh", "Country Code": "IL", "Population": 1130.0, "Lat": 32.21768, "Lon": 34.93815}], "Ramat HaSharon": [{"Name": "Ramat HaSharon", "Country Code": "IL", "Population": 47245.0, "Lat": 32.14613, "Lon": 34.8394}], "Ramat HaShofet": [{"Name": "Ramat HaShofet", "Country Code": "IL", "Population": 1101.0, "Lat": 32.61102, "Lon": 35.09472}], "Ramat Yishay": [{"Name": "Ramat Yishay", "Country Code": "IL", "Population": 7785.0, "Lat": 32.70444, "Lon": 35.1707}], "Ramat Yohanan": [{"Name": "Ramat Yo\u1e96anan", "Country Code": "IL", "Population": 1012.0, "Lat": 32.79308, "Lon": 35.12226}], "Ramatuelle": [{"Name": "Ramatuelle", "Country Code": "FR", "Population": 2330.0, "Lat": 43.21599, "Lon": 6.61156}], "Rambala": [{"Name": "Rambala", "Country Code": "PA", "Population": 0.0, "Lat": 8.92617, "Lon": -82.18378}], "Ramban": [{"Name": "R\u0101mban", "Country Code": "IN", "Population": 7317.0, "Lat": 33.24278, "Lon": 75.23513}], "Rambangaru": [{"Name": "Rambangaru", "Country Code": "ID", "Population": 0.0, "Lat": -9.4499, "Lon": 120.0524}], "Rambatan": [{"Name": "Rambatan", "Country Code": "ID", "Population": 0.0, "Lat": -0.49214, "Lon": 100.54544}], "Ramberg": [{"Name": "Ramberg", "Country Code": "DE", "Population": 1018.0, "Lat": 49.26028, "Lon": 8.00833}, {"Name": "Ramberg", "Country Code": "NO", "Population": 0.0, "Lat": 68.08991, "Lon": 13.22989}], "Rambervillers": [{"Name": "Rambervillers", "Country Code": "FR", "Population": 6182.0, "Lat": 48.3424, "Lon": 6.6358}], "Rambha": [{"Name": "Rambha", "Country Code": "IN", "Population": 11276.0, "Lat": 19.51667, "Lon": 85.1}], "Rambin": [{"Name": "Rambin", "Country Code": "DE", "Population": 1081.0, "Lat": 54.35566, "Lon": 13.20445}], "Rambipuji": [{"Name": "Rambipuji", "Country Code": "ID", "Population": 0.0, "Lat": -8.209, "Lon": 113.6092}], "Ramblewood": [{"Name": "Ramblewood", "Country Code": "US", "Population": 5907.0, "Lat": 39.92872, "Lon": -74.94378}], "Rambouillet": [{"Name": "Rambouillet", "Country Code": "FR", "Population": 26674.0, "Lat": 48.64374, "Lon": 1.82992}], "Rambrouch": [{"Name": "Rambrouch", "Country Code": "LU", "Population": 401.0, "Lat": 49.83083, "Lon": 5.845}], "Ramchandrapur": [{"Name": "R\u0101mchandrapur", "Country Code": "IN", "Population": 9664.0, "Lat": 22.89639, "Lon": 88.47528}], "Ramechhap": [{"Name": "R\u0101mechh\u0101p", "Country Code": "NP", "Population": 0.0, "Lat": 27.3256, "Lon": 86.08768}], "Ramelton": [{"Name": "Ramelton", "Country Code": "IE", "Population": 1266.0, "Lat": 55.03673, "Lon": -7.64923}], "Ramenki": [{"Name": "Ramenki", "Country Code": "RU", "Population": 130000.0, "Lat": 55.7, "Lon": 37.5}], "Ramenskoye": [{"Name": "Ramenskoye", "Country Code": "RU", "Population": 96000.0, "Lat": 55.56341, "Lon": 38.24152}], "Ramerberg": [{"Name": "Ramerberg", "Country Code": "DE", "Population": 1346.0, "Lat": 48.01806, "Lon": 12.14513}], "Rameshki": [{"Name": "Rameshki", "Country Code": "RU", "Population": 4110.0, "Lat": 57.34382, "Lon": 36.04429}], "Ramesti": [{"Name": "R\u00e2me\u0219ti", "Country Code": "RO", "Population": 1044.0, "Lat": 44.56667, "Lon": 24.1}], "Rameswaram": [{"Name": "Rameswaram", "Country Code": "IN", "Population": 39960.0, "Lat": 9.2885, "Lon": 79.31271}], "Ramganj": [{"Name": "R\u0101mganj", "Country Code": "BD", "Population": 55241.0, "Lat": 23.1006, "Lon": 90.84989}], "Ramganj Mandi": [{"Name": "R\u0101mganj Mandi", "Country Code": "IN", "Population": 35754.0, "Lat": 24.64648, "Lon": 75.94325}], "Ramgarh": [{"Name": "R\u0101mgarh", "Country Code": "IN", "Population": 4945.0, "Lat": 33.40379, "Lon": 74.22388}, {"Name": "R\u0101mgarh", "Country Code": "IN", "Population": 29834.0, "Lat": 27.25097, "Lon": 75.17893}, {"Name": "R\u0101mgarh", "Country Code": "IN", "Population": 83833.0, "Lat": 23.6303, "Lon": 85.52156}], "Ramgundam": [{"Name": "R\u0101mgundam", "Country Code": "IN", "Population": 452261.0, "Lat": 18.80084, "Lon": 79.45206}], "Ramhormoz": [{"Name": "R\u0101mhormoz", "Country Code": "IR", "Population": 38821.0, "Lat": 31.27997, "Lon": 49.60351}], "Ramian": [{"Name": "R\u0101m\u012b\u0101n", "Country Code": "IR", "Population": 0.0, "Lat": 37.01598, "Lon": 55.14123}], "Ramillies": [{"Name": "Ramillies", "Country Code": "BE", "Population": 5749.0, "Lat": 50.63395, "Lon": 4.90119}], "Ramin": [{"Name": "R\u0101m\u012bn", "Country Code": "PS", "Population": 2040.0, "Lat": 32.2852, "Lon": 35.14951}], "Ramingstein": [{"Name": "Ramingstein", "Country Code": "AT", "Population": 553.0, "Lat": 47.07462, "Lon": 13.83642}], "Ramiola": [{"Name": "Ramiola", "Country Code": "IT", "Population": 1496.0, "Lat": 44.70055, "Lon": 10.0911}], "Ramirez": [{"Name": "Ram\u00edrez", "Country Code": "MX", "Population": 3743.0, "Lat": 25.9518, "Lon": -97.78558}], "Ramiriqui": [{"Name": "Ramiriqu\u00ed", "Country Code": "CO", "Population": 5039.0, "Lat": 5.4002, "Lon": -73.33544}], "Ramiro": [{"Name": "Ramiro", "Country Code": "ES", "Population": 71.0, "Lat": 41.22845, "Lon": -4.78608}], "Ramiseto": [{"Name": "Ramiseto", "Country Code": "IT", "Population": 352.0, "Lat": 44.41284, "Lon": 10.27689}], "Ramjibanpur": [{"Name": "R\u0101mj\u012bbanpur", "Country Code": "IN", "Population": 18318.0, "Lat": 22.82815, "Lon": 87.60888}], "Ramkola": [{"Name": "R\u0101mkola", "Country Code": "IN", "Population": 13949.0, "Lat": 26.90172, "Lon": 83.83758}], "Ramla": [{"Name": "Ramla", "Country Code": "IL", "Population": 76246.0, "Lat": 31.92923, "Lon": 34.86563}], "Ramlose": [{"Name": "Raml\u00f8se", "Country Code": "DK", "Population": 1540.0, "Lat": 56.01398, "Lon": 12.11608}], "Rammelsbach": [{"Name": "Rammelsbach", "Country Code": "DE", "Population": 1783.0, "Lat": 49.5417, "Lon": 7.44392}], "Rammenau": [{"Name": "Rammenau", "Country Code": "DE", "Population": 1522.0, "Lat": 51.15, "Lon": 14.13333}], "Rammingen": [{"Name": "Rammingen", "Country Code": "DE", "Population": 1303.0, "Lat": 48.51814, "Lon": 10.17197}], "Rammun": [{"Name": "Ramm\u016bn", "Country Code": "PS", "Population": 3101.0, "Lat": 31.93342, "Lon": 35.29821}], "Ramna": [{"Name": "Ramna", "Country Code": "RO", "Population": 1721.0, "Lat": 45.43833, "Lon": 21.68833}], "Ramnaes": [{"Name": "Ramn\u00e4s", "Country Code": "SE", "Population": 1333.0, "Lat": 59.76667, "Lon": 16.2}], "Ramnagar": [{"Name": "Ramnagar", "Country Code": "BD", "Population": 3000.0, "Lat": 23.7772, "Lon": 90.17604}, {"Name": "R\u0101mnagar", "Country Code": "IN", "Population": 43497.0, "Lat": 27.16371, "Lon": 84.32342}, {"Name": "R\u0101mnagar", "Country Code": "IN", "Population": 8166.0, "Lat": 32.80728, "Lon": 75.31119}, {"Name": "R\u0101mnagar", "Country Code": "IN", "Population": 13490.0, "Lat": 27.08499, "Lon": 81.40575}, {"Name": "R\u0101mnagar", "Country Code": "IN", "Population": 5195.0, "Lat": 22.77778, "Lon": 88.24639}, {"Name": "R\u0101mnagar", "Country Code": "IN", "Population": 44277.0, "Lat": 25.26907, "Lon": 83.02971}, {"Name": "R\u0101mnagar", "Country Code": "IN", "Population": 51244.0, "Lat": 29.3925, "Lon": 79.1283}], "Ramnicelu": [{"Name": "R\u00e2mnicelu", "Country Code": "RO", "Population": 2286.0, "Lat": 45.28333, "Lon": 27.53333}, {"Name": "R\u00e2mnicelu", "Country Code": "RO", "Population": 2880.0, "Lat": 45.36381, "Lon": 27.11121}], "Ramniceni": [{"Name": "R\u00e2mniceni", "Country Code": "RO", "Population": 1827.0, "Lat": 45.51322, "Lon": 27.44843}], "Ramnicu Sarat": [{"Name": "R\u00e2mnicu S\u0103rat", "Country Code": "RO", "Population": 38526.0, "Lat": 45.38333, "Lon": 27.05}], "Ramnicu Valcea": [{"Name": "R\u00e2mnicu V\u00e2lcea", "Country Code": "RO", "Population": 107558.0, "Lat": 45.1, "Lon": 24.36667}], "Ramokgonami": [{"Name": "Ramokgonami", "Country Code": "BW", "Population": 3681.0, "Lat": -22.8645, "Lon": 27.42391}], "Ramon": [{"Name": "Ramon", "Country Code": "IT", "Population": 1013.0, "Lat": 45.71386, "Lon": 11.86828}, {"Name": "Ramon", "Country Code": "PH", "Population": 36307.0, "Lat": 16.78416, "Lon": 121.53504}], "Ramon Castilla": [{"Name": "Ram\u00f3n Castilla", "Country Code": "PE", "Population": 5495.0, "Lat": -4.26066, "Lon": -69.95714}], "Ramon Corona": [{"Name": "Ram\u00f3n Corona", "Country Code": "MX", "Population": 1870.0, "Lat": 24.18611, "Lon": -103.63028}], "Ramon F. Balboa": [{"Name": "Ram\u00f3n F. Balboa", "Country Code": "MX", "Population": 1065.0, "Lat": 16.47427, "Lon": -91.40318}], "Ramon Magsaysay": [{"Name": "Ramon Magsaysay", "Country Code": "PH", "Population": 4892.0, "Lat": 8.00194, "Lon": 123.50944}], "Ramon Santana": [{"Name": "Ram\u00f3n Santana", "Country Code": "DO", "Population": 2175.0, "Lat": 18.54224, "Lon": -69.17979}], "Ramon'": [{"Name": "Ramon\u2019", "Country Code": "RU", "Population": 7928.0, "Lat": 51.9051, "Lon": 39.3337}], "Ramona": [{"Name": "Ramona", "Country Code": "US", "Population": 20292.0, "Lat": 33.04171, "Lon": -116.86808}], "Ramonchamp": [{"Name": "Ramonchamp", "Country Code": "FR", "Population": 2008.0, "Lat": 47.89429, "Lon": 6.74171}], "Ramonville-Saint-Agne": [{"Name": "Ramonville-Saint-Agne", "Country Code": "FR", "Population": 12573.0, "Lat": 43.54618, "Lon": 1.47491}], "Ramos": [{"Name": "Ramos", "Country Code": "PH", "Population": 15066.0, "Lat": 15.6653, "Lon": 120.6406}, {"Name": "Ramos", "Country Code": "PR", "Population": 2004.0, "Lat": 18.33967, "Lon": -65.71266}], "Ramos Arizpe": [{"Name": "Ramos Arizpe", "Country Code": "MX", "Population": 66554.0, "Lat": 25.53928, "Lon": -100.94742}], "Ramos West": [{"Name": "Ramos West", "Country Code": "PH", "Population": 3042.0, "Lat": 16.6984, "Lon": 121.6136}], "Ramot Menashe": [{"Name": "Ramot Menashe", "Country Code": "IL", "Population": 1159.0, "Lat": 32.59784, "Lon": 35.05656}], "Ramotswa": [{"Name": "Ramotswa", "Country Code": "BW", "Population": 33271.0, "Lat": -24.87158, "Lon": 25.86989}], "Ramotswa Station/Taung": [{"Name": "Ramotswa Station/Taung", "Country Code": "BW", "Population": 6286.0, "Lat": -24.978, "Lon": 25.67825}], "Rampachodavaram": [{"Name": "Rampachodavaram", "Country Code": "IN", "Population": 25074.0, "Lat": 17.44088, "Lon": 81.77558}], "Ramponio Verna": [{"Name": "Ramponio Verna", "Country Code": "IT", "Population": 306.0, "Lat": 45.99698, "Lon": 9.06633}], "Rampur": [{"Name": "R\u0101mpur", "Country Code": "IN", "Population": 296418.0, "Lat": 28.81014, "Lon": 79.02699}, {"Name": "R\u0101mpur", "Country Code": "IN", "Population": 6206.0, "Lat": 31.44943, "Lon": 77.63087}, {"Name": "R\u0101mpur", "Country Code": "IN", "Population": 26257.0, "Lat": 29.8062, "Lon": 77.45251}], "Rampur Hat": [{"Name": "Rampur Hat", "Country Code": "IN", "Population": 53468.0, "Lat": 24.17737, "Lon": 87.78275}], "Rampura": [{"Name": "R\u0101mpura", "Country Code": "IN", "Population": 45639.0, "Lat": 30.256, "Lon": 75.24116}, {"Name": "R\u0101mpura", "Country Code": "IN", "Population": 18495.0, "Lat": 24.467, "Lon": 75.43996}, {"Name": "R\u0101mpura", "Country Code": "IN", "Population": 11347.0, "Lat": 26.34967, "Lon": 79.18234}], "Ramsar": [{"Name": "R\u0101msar", "Country Code": "IR", "Population": 0.0, "Lat": 36.91796, "Lon": 50.64802}], "Ramsau": [{"Name": "Ramsau", "Country Code": "AT", "Population": 635.0, "Lat": 48.00313, "Lon": 15.80332}, {"Name": "Ramsau", "Country Code": "DE", "Population": 1806.0, "Lat": 48.17277, "Lon": 12.22957}, {"Name": "Ramsau", "Country Code": "DE", "Population": 1791.0, "Lat": 47.61667, "Lon": 12.9}], "Ramsau am Dachstein": [{"Name": "Ramsau am Dachstein", "Country Code": "AT", "Population": 2812.0, "Lat": 47.4215, "Lon": 13.65545}], "Ramsau im Zillertal": [{"Name": "Ramsau im Zillertal", "Country Code": "AT", "Population": 1617.0, "Lat": 47.20383, "Lon": 11.87545}], "Ramsbottom": [{"Name": "Ramsbottom", "Country Code": "GB", "Population": 17738.0, "Lat": 53.64789, "Lon": -2.31683}], "Ramsbury": [{"Name": "Ramsbury", "Country Code": "GB", "Population": 1574.0, "Lat": 51.44373, "Lon": -1.60257}], "Ramsdonk": [{"Name": "Ramsdonk", "Country Code": "BE", "Population": 1500.0, "Lat": 51.015, "Lon": 4.33522}], "Ramsel": [{"Name": "Ramsel", "Country Code": "BE", "Population": 4428.0, "Lat": 51.0324, "Lon": 4.83242}], "Ramsen": [{"Name": "Ramsen", "Country Code": "CH", "Population": 1316.0, "Lat": 47.70797, "Lon": 8.80949}, {"Name": "Ramsen", "Country Code": "DE", "Population": 1863.0, "Lat": 49.53694, "Lon": 8.01333}], "Ramseur": [{"Name": "Ramseur", "Country Code": "US", "Population": 1701.0, "Lat": 35.73347, "Lon": -79.65253}], "Ramsey": [{"Name": "Ramsey", "Country Code": "GB", "Population": 7829.0, "Lat": 52.45058, "Lon": -0.10932}, {"Name": "Ramsey", "Country Code": "IM", "Population": 7845.0, "Lat": 54.32273, "Lon": -4.38526}, {"Name": "Ramsey", "Country Code": "US", "Population": 1026.0, "Lat": 39.14449, "Lon": -89.10868}, {"Name": "Ramsey", "Country Code": "US", "Population": 25828.0, "Lat": 45.2611, "Lon": -93.45}, {"Name": "Ramsey", "Country Code": "US", "Population": 15102.0, "Lat": 41.05732, "Lon": -74.14098}], "Ramsgate": [{"Name": "Ramsgate", "Country Code": "AU", "Population": 1104.0, "Lat": -33.9822, "Lon": 151.14}, {"Name": "Ramsgate", "Country Code": "GB", "Population": 38624.0, "Lat": 51.33568, "Lon": 1.41797}], "Ramsgate Beach": [{"Name": "Ramsgate Beach", "Country Code": "AU", "Population": 1642.0, "Lat": -33.98523, "Lon": 151.14634}], "Ramshir": [{"Name": "R\u0101msh\u012br", "Country Code": "IR", "Population": 19454.0, "Lat": 30.89315, "Lon": 49.40787}], "Ramsin": [{"Name": "Ramsin", "Country Code": "DE", "Population": 1006.0, "Lat": 51.61095, "Lon": 12.23812}], "Ramstein-Miesenbach": [{"Name": "Ramstein-Miesenbach", "Country Code": "DE", "Population": 8078.0, "Lat": 49.44452, "Lon": 7.55533}], "Ramsthal": [{"Name": "Ramsthal", "Country Code": "DE", "Population": 1212.0, "Lat": 50.14039, "Lon": 10.06777}], "Ramtek": [{"Name": "R\u0101mtek", "Country Code": "IN", "Population": 23404.0, "Lat": 21.39562, "Lon": 79.32725}], "Ramtown": [{"Name": "Ramtown", "Country Code": "US", "Population": 6242.0, "Lat": 40.12095, "Lon": -74.14375}], "Ramu": [{"Name": "Ramu", "Country Code": "KE", "Population": 35644.0, "Lat": 3.93147, "Lon": 41.22295}], "Ramuciai": [{"Name": "Ramu\u010diai", "Country Code": "LT", "Population": 2372.0, "Lat": 54.9483, "Lon": 24.0305}], "Ramuscello": [{"Name": "Ramuscello", "Country Code": "IT", "Population": 1384.0, "Lat": 45.88105, "Lon": 12.8846}], "Ramygala": [{"Name": "Ramygala", "Country Code": "LT", "Population": 1440.0, "Lat": 55.514, "Lon": 24.3}], "Ranaghat": [{"Name": "R\u0101n\u0101gh\u0101t", "Country Code": "IN", "Population": 70984.0, "Lat": 23.17623, "Lon": 88.56667}], "Ranai": [{"Name": "Ranai", "Country Code": "ID", "Population": 0.0, "Lat": 3.9384, "Lon": 108.38401}], "Ranam": [{"Name": "Ranam", "Country Code": "KP", "Population": 34055.0, "Lat": 41.71361, "Lon": 129.68444}], "Ranao": [{"Name": "Ranao", "Country Code": "PH", "Population": 2112.0, "Lat": 16.2076, "Lon": 119.8155}], "Ranapur": [{"Name": "R\u0101n\u0101pur", "Country Code": "IN", "Population": 10675.0, "Lat": 22.64704, "Lon": 74.52118}], "Ranau": [{"Name": "Ranau", "Country Code": "MY", "Population": 19294.0, "Lat": 5.9538, "Lon": 116.6641}], "Ranavav": [{"Name": "R\u0101n\u0101v\u0101v", "Country Code": "IN", "Population": 26011.0, "Lat": 21.68734, "Lon": 69.74485}], "Rancaciov": [{"Name": "R\u00e2nc\u0103ciov", "Country Code": "RO", "Population": 1840.0, "Lat": 44.88872, "Lon": 25.35778}], "Rancagua": [{"Name": "Rancagua", "Country Code": "CL", "Population": 212695.0, "Lat": -34.17083, "Lon": -70.74444}], "Rancah": [{"Name": "Rancah", "Country Code": "ID", "Population": 0.0, "Lat": -7.1969, "Lon": 108.5041}], "Rance": [{"Name": "Rance", "Country Code": "BE", "Population": 1706.0, "Lat": 50.14248, "Lon": 4.27917}], "Rancharia": [{"Name": "Rancharia", "Country Code": "BR", "Population": 25530.0, "Lat": -22.22917, "Lon": -50.89306}], "Rancheria Payau": [{"Name": "Rancheria Payau", "Country Code": "PH", "Population": 6540.0, "Lat": 7.8541, "Lon": 123.1598}], "Rancheria de Pocitos": [{"Name": "Rancher\u00eda de Pocitos", "Country Code": "MX", "Population": 1284.0, "Lat": 19.39389, "Lon": -97.75944}], "Ranchettes": [{"Name": "Ranchettes", "Country Code": "US", "Population": 5798.0, "Lat": 41.21859, "Lon": -104.79025}], "Ranchi": [{"Name": "Ranchi", "Country Code": "IN", "Population": 1120374.0, "Lat": 23.34316, "Lon": 85.3094}], "Ranchicourt": [{"Name": "Ranchicourt", "Country Code": "FR", "Population": 1091.0, "Lat": 50.43559, "Lon": 2.5569}], "Ranchito de Castro": [{"Name": "Ranchito de Castro", "Country Code": "MX", "Population": 1301.0, "Lat": 25.58688, "Lon": -108.41767}], "Rancho Alegre": [{"Name": "Rancho Alegre", "Country Code": "MX", "Population": 1065.0, "Lat": 20.20722, "Lon": -97.63889}, {"Name": "Rancho Alegre", "Country Code": "MX", "Population": 1228.0, "Lat": 25.50237, "Lon": -103.32789}, {"Name": "Rancho Alegre", "Country Code": "MX", "Population": 1232.0, "Lat": 19.62528, "Lon": -99.68361}, {"Name": "Rancho Alegre", "Country Code": "US", "Population": 1704.0, "Lat": 27.74169, "Lon": -98.09473}], "Rancho Alegre [Fraccionamiento]": [{"Name": "Rancho Alegre [Fraccionamiento]", "Country Code": "MX", "Population": 8441.0, "Lat": 20.47361, "Lon": -103.25778}], "Rancho Bellavista [Fraccionamiento]": [{"Name": "Rancho Bellavista [Fraccionamiento]", "Country Code": "MX", "Population": 1705.0, "Lat": 20.60667, "Lon": -100.44972}], "Rancho Calaveras": [{"Name": "Rancho Calaveras", "Country Code": "US", "Population": 4489.0, "Lat": 38.12742, "Lon": -120.85827}], "Rancho Chico": [{"Name": "Rancho Chico", "Country Code": "MX", "Population": 1712.0, "Lat": 18.74667, "Lon": -97.665}], "Rancho Cordova": [{"Name": "Rancho Cordova", "Country Code": "US", "Population": 71017.0, "Lat": 38.58907, "Lon": -121.30273}], "Rancho Cucamonga": [{"Name": "Rancho Cucamonga", "Country Code": "US", "Population": 175236.0, "Lat": 34.1064, "Lon": -117.59311}], "Rancho Grande": [{"Name": "Rancho Grande", "Country Code": "HN", "Population": 1484.0, "Lat": 14.68852, "Lon": -87.49525}, {"Name": "Rancho Grande", "Country Code": "MX", "Population": 1009.0, "Lat": 18.35389, "Lon": -96.34944}, {"Name": "Rancho Grande", "Country Code": "NI", "Population": 0.0, "Lat": 13.23695, "Lon": -85.55817}], "Rancho Mirage": [{"Name": "Rancho Mirage", "Country Code": "US", "Population": 18083.0, "Lat": 33.73974, "Lon": -116.41279}], "Rancho Murieta": [{"Name": "Rancho Murieta", "Country Code": "US", "Population": 5488.0, "Lat": 38.50185, "Lon": -121.09467}], "Rancho Nuevo": [{"Name": "Rancho Nuevo", "Country Code": "MX", "Population": 1068.0, "Lat": 18.54366, "Lon": -96.77665}, {"Name": "Rancho Nuevo", "Country Code": "MX", "Population": 1164.0, "Lat": 20.6725, "Lon": -97.20611}, {"Name": "Rancho Nuevo", "Country Code": "MX", "Population": 1460.0, "Lat": 22.40783, "Lon": -102.34863}, {"Name": "Rancho Nuevo", "Country Code": "MX", "Population": 1395.0, "Lat": 18.58139, "Lon": -97.22472}, {"Name": "Rancho Nuevo", "Country Code": "MX", "Population": 1330.0, "Lat": 18.07201, "Lon": -93.07252}, {"Name": "Rancho Nuevo", "Country Code": "MX", "Population": 2807.0, "Lat": 22.22216, "Lon": -100.92287}], "Rancho Nuevo de Morelos (De Guadalupe)": [{"Name": "Rancho Nuevo de Morelos (De Guadalupe)", "Country Code": "MX", "Population": 1406.0, "Lat": 22.34056, "Lon": -101.78528}], "Rancho Nuevo de la Cruz": [{"Name": "Rancho Nuevo de la Cruz", "Country Code": "MX", "Population": 3420.0, "Lat": 20.65105, "Lon": -101.51786}], "Rancho Nuevo de la Luz": [{"Name": "Rancho Nuevo de la Luz", "Country Code": "MX", "Population": 1025.0, "Lat": 20.96246, "Lon": -101.64573}], "Rancho Nuevo del Llanito": [{"Name": "Rancho Nuevo del Llanito", "Country Code": "MX", "Population": 1004.0, "Lat": 20.82361, "Lon": -101.36861}], "Rancho Palos Verdes": [{"Name": "Rancho Palos Verdes", "Country Code": "US", "Population": 42732.0, "Lat": 33.74446, "Lon": -118.38702}], "Rancho Penasquitos": [{"Name": "Rancho Penasquitos", "Country Code": "US", "Population": 60000.0, "Lat": 32.95949, "Lon": -117.11531}], "Rancho San Diego": [{"Name": "Rancho San Diego", "Country Code": "US", "Population": 21208.0, "Lat": 32.74727, "Lon": -116.9353}], "Rancho Santa Fe": [{"Name": "Rancho Santa Fe", "Country Code": "US", "Population": 3117.0, "Lat": 33.02032, "Lon": -117.20281}], "Rancho Santa Margarita": [{"Name": "Rancho Santa Margarita", "Country Code": "US", "Population": 49324.0, "Lat": 33.64086, "Lon": -117.6031}], "Rancho Tehama Reserve": [{"Name": "Rancho Tehama Reserve", "Country Code": "US", "Population": 1485.0, "Lat": 40.01569, "Lon": -122.40072}], "Rancho Veloz": [{"Name": "Rancho Veloz", "Country Code": "CU", "Population": 4549.0, "Lat": 22.88042, "Lon": -80.39098}], "Rancho Verde": [{"Name": "Rancho Verde", "Country Code": "MX", "Population": 2758.0, "Lat": 31.91611, "Lon": -116.58833}], "Rancho Viejo": [{"Name": "Rancho Viejo", "Country Code": "MX", "Population": 1119.0, "Lat": 16.865, "Lon": -99.28944}, {"Name": "Rancho Viejo", "Country Code": "MX", "Population": 2001.0, "Lat": 21.02091, "Lon": -100.77142}, {"Name": "Rancho Viejo", "Country Code": "MX", "Population": 1521.0, "Lat": 19.24878, "Lon": -100.41737}, {"Name": "Rancho Viejo", "Country Code": "MX", "Population": 1078.0, "Lat": 19.44451, "Lon": -96.78168}, {"Name": "Rancho Viejo", "Country Code": "MX", "Population": 1013.0, "Lat": 16.33966, "Lon": -97.96399}, {"Name": "Rancho Viejo", "Country Code": "US", "Population": 2491.0, "Lat": 26.03952, "Lon": -97.55638}], "Rancho Viejo (Rancho Nuevo de la Democracia)": [{"Name": "Rancho Viejo (Rancho Nuevo de la Democracia)", "Country Code": "MX", "Population": 1087.0, "Lat": 17.03257, "Lon": -98.22389}], "Rancho de Guadalupe": [{"Name": "Rancho de Guadalupe", "Country Code": "MX", "Population": 1008.0, "Lat": 21.21639, "Lon": -101.01}], "Rancho de las Lomas": [{"Name": "Rancho de las Lomas", "Country Code": "MX", "Population": 1232.0, "Lat": 17.73972, "Lon": -99.24583}], "Rancho del Padre": [{"Name": "Rancho del Padre", "Country Code": "MX", "Population": 1215.0, "Lat": 19.06553, "Lon": -96.17281}], "Ranchos": [{"Name": "Ranchos", "Country Code": "AR", "Population": 0.0, "Lat": -35.51601, "Lon": -58.3188}], "Ranchos de Taos": [{"Name": "Ranchos de Taos", "Country Code": "US", "Population": 2518.0, "Lat": 36.35864, "Lon": -105.60946}], "Ranchuelo": [{"Name": "Ranchuelo", "Country Code": "CU", "Population": 43695.0, "Lat": 22.37266, "Lon": -80.15046}], "Rancio Valcuvia": [{"Name": "Rancio Valcuvia", "Country Code": "IT", "Population": 548.0, "Lat": 45.91594, "Lon": 8.77157}], "Ranco": [{"Name": "Ranco", "Country Code": "IT", "Population": 894.0, "Lat": 45.79733, "Lon": 8.57105}], "Rancul": [{"Name": "Rancul", "Country Code": "AR", "Population": 3699.0, "Lat": -35.06777, "Lon": -64.68422}], "Rand": [{"Name": "Rand", "Country Code": "US", "Population": 1631.0, "Lat": 38.2826, "Lon": -81.56234}], "Randaberg": [{"Name": "Randaberg", "Country Code": "NO", "Population": 0.0, "Lat": 58.99955, "Lon": 5.61871}], "Randallstown": [{"Name": "Randallstown", "Country Code": "US", "Population": 32430.0, "Lat": 39.36733, "Lon": -76.79525}], "Randalstown": [{"Name": "Randalstown", "Country Code": "GB", "Population": 5378.0, "Lat": 54.75, "Lon": -6.3}], "Randan": [{"Name": "Randan", "Country Code": "FR", "Population": 1479.0, "Lat": 46.01767, "Lon": 3.35478}], "Randazzo": [{"Name": "Randazzo", "Country Code": "IT", "Population": 9949.0, "Lat": 37.87736, "Lon": 14.95012}], "Randburg": [{"Name": "Randburg", "Country Code": "ZA", "Population": 337053.0, "Lat": -26.0941, "Lon": 28.00123}], "Randegg": [{"Name": "Randegg", "Country Code": "AT", "Population": 326.0, "Lat": 48.01198, "Lon": 14.97334}], "Randenbroek": [{"Name": "Randenbroek", "Country Code": "NL", "Population": 7131.0, "Lat": 52.14863, "Lon": 5.4012}], "Randers": [{"Name": "Randers", "Country Code": "DK", "Population": 62802.0, "Lat": 56.4607, "Lon": 10.03639}], "Randersacker": [{"Name": "Randersacker", "Country Code": "DE", "Population": 3459.0, "Lat": 49.76021, "Lon": 9.98277}], "Randfontein": [{"Name": "Randfontein", "Country Code": "ZA", "Population": 133654.0, "Lat": -26.1844, "Lon": 27.70203}], "Randgate": [{"Name": "Randgate", "Country Code": "ZA", "Population": 1903.0, "Lat": -28.39885, "Lon": 32.21782}], "Randleman": [{"Name": "Randleman", "Country Code": "US", "Population": 4153.0, "Lat": 35.81791, "Lon": -79.80309}], "Randogne": [{"Name": "Randogne", "Country Code": "CH", "Population": 3157.0, "Lat": 46.30952, "Lon": 7.50058}], "Randolph": [{"Name": "Randolph", "Country Code": "US", "Population": 1286.0, "Lat": 42.16201, "Lon": -78.97532}, {"Name": "Randolph", "Country Code": "US", "Population": 1770.0, "Lat": 43.53915, "Lon": -89.00678}, {"Name": "Randolph", "Country Code": "US", "Population": 25734.0, "Lat": 40.84829, "Lon": -74.58148}, {"Name": "Randolph", "Country Code": "US", "Population": 1974.0, "Lat": 43.92507, "Lon": -72.66594}, {"Name": "Randolph", "Country Code": "US", "Population": 32112.0, "Lat": 42.1626, "Lon": -71.04116}, {"Name": "Randolph", "Country Code": "US", "Population": 1772.0, "Lat": 44.23035, "Lon": -69.76671}, {"Name": "Randolph", "Country Code": "US", "Population": 462.0, "Lat": 41.66578, "Lon": -111.18214}], "Random Lake": [{"Name": "Random Lake", "Country Code": "US", "Population": 1594.0, "Lat": 43.55222, "Lon": -87.96176}], "Randuagung": [{"Name": "Randuagung", "Country Code": "ID", "Population": 0.0, "Lat": -8.072, "Lon": 113.3032}], "Randudongkal": [{"Name": "Randudongkal", "Country Code": "ID", "Population": 28532.0, "Lat": -7.0981, "Lon": 109.3243}], "Randvaal": [{"Name": "Randvaal", "Country Code": "ZA", "Population": 2049.0, "Lat": -26.43358, "Lon": 28.09267}], "Randwick": [{"Name": "Randwick", "Country Code": "AU", "Population": 28943.0, "Lat": -33.91439, "Lon": 151.24895}], "Ranea": [{"Name": "R\u00e5ne\u00e5", "Country Code": "SE", "Population": 1966.0, "Lat": 65.85482, "Lon": 22.29126}], "Ranelagh": [{"Name": "Ranelagh", "Country Code": "AU", "Population": 1249.0, "Lat": -43.00977, "Lon": 147.03764}], "Ranemsletta": [{"Name": "Ranemsletta", "Country Code": "NO", "Population": 510.0, "Lat": 64.49447, "Lon": 11.94912}], "Ranerou": [{"Name": "Ran\u00e9rou", "Country Code": "SN", "Population": 3027.0, "Lat": 15.3, "Lon": -13.96667}], "Rang-du-Fliers": [{"Name": "Rang-du-Fliers", "Country Code": "FR", "Population": 3860.0, "Lat": 50.41708, "Lon": 1.64431}], "Rangapara": [{"Name": "Rang\u0101p\u0101ra", "Country Code": "IN", "Population": 18739.0, "Lat": 26.83772, "Lon": 92.66876}], "Rangdu": [{"Name": "Rangdu", "Country Code": "CN", "Population": 11613.0, "Lat": 30.59292, "Lon": 108.30558}], "Rangely": [{"Name": "Rangely", "Country Code": "US", "Population": 2381.0, "Lat": 40.08748, "Lon": -108.80483}], "Rangendingen": [{"Name": "Rangendingen", "Country Code": "DE", "Population": 5187.0, "Lat": 48.38168, "Lon": 8.8894}], "Ranger": [{"Name": "Ranger", "Country Code": "US", "Population": 2464.0, "Lat": 32.46985, "Lon": -98.67895}], "Rangersdorf": [{"Name": "Rangersdorf", "Country Code": "AT", "Population": 387.0, "Lat": 46.86001, "Lon": 12.94923}], "Rangeville": [{"Name": "Rangeville", "Country Code": "AU", "Population": 8140.0, "Lat": -27.58318, "Lon": 151.97997}], "Rangeway": [{"Name": "Rangeway", "Country Code": "AU", "Population": 1814.0, "Lat": -28.78665, "Lon": 114.63059}], "Rangewood": [{"Name": "Rangewood", "Country Code": "AU", "Population": 1016.0, "Lat": -19.31138, "Lon": 146.63877}], "Ranggen": [{"Name": "Ranggen", "Country Code": "AT", "Population": 1072.0, "Lat": 47.25727, "Lon": 11.2112}], "Rangia": [{"Name": "Rangia", "Country Code": "IN", "Population": 26388.0, "Lat": 26.44931, "Lon": 91.61356}], "Rangiora": [{"Name": "Rangiora", "Country Code": "NZ", "Population": 19250.0, "Lat": -43.30437, "Lon": 172.58356}], "Rangiriri": [{"Name": "Rangiriri", "Country Code": "NZ", "Population": 1833.0, "Lat": -37.4305, "Lon": 175.12971}], "Rangkasbitung": [{"Name": "Rangkasbitung", "Country Code": "ID", "Population": 137041.0, "Lat": -6.3591, "Lon": 106.2494}], "Rangpo": [{"Name": "Rangpo", "Country Code": "IN", "Population": 4026.0, "Lat": 27.17733, "Lon": 88.53358}], "Rangpur": [{"Name": "Rangpur", "Country Code": "BD", "Population": 1031388.0, "Lat": 25.74664, "Lon": 89.25166}], "Rangsdorf": [{"Name": "Rangsdorf", "Country Code": "DE", "Population": 9134.0, "Lat": 52.29126, "Lon": 13.41946}], "Rani": [{"Name": "R\u0101ni", "Country Code": "IN", "Population": 13572.0, "Lat": 25.35031, "Lon": 73.30885}], "Rania": [{"Name": "R\u0101nia", "Country Code": "IN", "Population": 22741.0, "Lat": 29.52454, "Lon": 74.83689}], "Ranibennur": [{"Name": "R\u0101n\u012bbennur", "Country Code": "IN", "Population": 99105.0, "Lat": 14.62239, "Lon": 75.62951}], "Ranica": [{"Name": "Ranica", "Country Code": "IT", "Population": 5920.0, "Lat": 45.72328, "Lon": 9.71335}], "Raniganj": [{"Name": "R\u0101n\u012bganj", "Country Code": "IN", "Population": 131261.0, "Lat": 23.6164, "Lon": 87.13061}], "Ranikhet": [{"Name": "R\u0101nikhet", "Country Code": "IN", "Population": 19873.0, "Lat": 29.64082, "Lon": 79.43229}], "Ranilug": [{"Name": "Ranilug", "Country Code": "XK", "Population": 3785.0, "Lat": 42.49222, "Lon": 21.59889}], "Raning": [{"Name": "Raning", "Country Code": "AT", "Population": 510.0, "Lat": 46.85, "Lon": 15.81667}], "Ranipet": [{"Name": "R\u0101nipet", "Country Code": "IN", "Population": 264330.0, "Lat": 12.92471, "Lon": 79.33331}], "Ranipur": [{"Name": "R\u0101n\u012bpur", "Country Code": "IN", "Population": 18820.0, "Lat": 25.25034, "Lon": 79.06204}, {"Name": "Ranipur", "Country Code": "PK", "Population": 22495.0, "Lat": 27.2872, "Lon": 68.50623}], "Ranir Bazar": [{"Name": "R\u0101n\u012br B\u0101z\u0101r", "Country Code": "IN", "Population": 11810.0, "Lat": 23.83463, "Lon": 91.36614}], "Ranis": [{"Name": "Ranis", "Country Code": "DE", "Population": 2006.0, "Lat": 50.66132, "Lon": 11.56912}], "Raniye": [{"Name": "\u1e5eaniye", "Country Code": "IQ", "Population": 0.0, "Lat": 36.25511, "Lon": 44.88239}], "Ranizow": [{"Name": "Rani\u017c\u00f3w", "Country Code": "PL", "Population": 2200.0, "Lat": 50.25873, "Lon": 21.97137}], "Rankin": [{"Name": "Rankin", "Country Code": "US", "Population": 844.0, "Lat": 31.22265, "Lon": -101.93791}, {"Name": "Rankin", "Country Code": "US", "Population": 2090.0, "Lat": 40.41257, "Lon": -79.87922}], "Rankin Inlet": [{"Name": "Rankin Inlet", "Country Code": "CA", "Population": 2334.0, "Lat": 62.80906, "Lon": -92.08534}], "Rankin Park": [{"Name": "Rankin Park", "Country Code": "AU", "Population": 2412.0, "Lat": -32.92516, "Lon": 151.68016}], "Rankoshimachi": [{"Name": "Rankoshimachi", "Country Code": "JP", "Population": 4893.0, "Lat": 42.80904, "Lon": 140.53941}], "Rankovce": [{"Name": "Rankovce", "Country Code": "MK", "Population": 4071.0, "Lat": 42.16964, "Lon": 22.11617}], "Rankus": [{"Name": "Rank\u016bs", "Country Code": "SY", "Population": 0.0, "Lat": 33.75623, "Lon": 36.3883}], "Rankweil": [{"Name": "Rankweil", "Country Code": "AT", "Population": 11855.0, "Lat": 47.27108, "Lon": 9.64308}], "Ranlo": [{"Name": "Ranlo", "Country Code": "US", "Population": 3556.0, "Lat": 35.28625, "Lon": -81.13035}], "Rann": [{"Name": "Rann", "Country Code": "NG", "Population": 0.0, "Lat": 12.26938, "Lon": 14.46552}], "Rannebergen": [{"Name": "Rannebergen", "Country Code": "SE", "Population": 4364.0, "Lat": 57.80236, "Lon": 12.07131}], "Rannee": [{"Name": "Rann\u00e9e", "Country Code": "FR", "Population": 1221.0, "Lat": 47.92401, "Lon": -1.24103}], "Rannersdorf": [{"Name": "Rannersdorf", "Country Code": "AT", "Population": 3144.0, "Lat": 48.12772, "Lon": 16.46379}], "Rannungen": [{"Name": "Rannungen", "Country Code": "DE", "Population": 1209.0, "Lat": 50.16537, "Lon": 10.20484}], "Rano": [{"Name": "Rano", "Country Code": "NG", "Population": 17972.0, "Lat": 11.55684, "Lon": 8.58065}], "Ranohira": [{"Name": "Ranohira", "Country Code": "MG", "Population": 6000.0, "Lat": -22.48333, "Lon": 45.4}], "Ranon": [{"Name": "Ran\u00f3n", "Country Code": "ES", "Population": 1722.0, "Lat": 43.55362, "Lon": -6.06487}], "Ranong": [{"Name": "Ranong", "Country Code": "TH", "Population": 24561.0, "Lat": 9.96583, "Lon": 98.63476}], "Ranot": [{"Name": "Ranot", "Country Code": "TH", "Population": 19780.0, "Lat": 7.77768, "Lon": 100.32134}], "Ranouinke": [{"Name": "Ranouink\u00e9", "Country Code": "CI", "Population": 1751.0, "Lat": 4.60106, "Lon": -7.54724}], "Ranquitte": [{"Name": "Ranquitte", "Country Code": "HT", "Population": 1391.0, "Lat": 19.41327, "Lon": -72.08077}], "Ranracancha": [{"Name": "Ranracancha", "Country Code": "PE", "Population": 0.0, "Lat": -13.53361, "Lon": -73.60528}], "Ranrahirca": [{"Name": "Ranrahirca", "Country Code": "PE", "Population": 936.0, "Lat": -9.17275, "Lon": -77.72509}], "Ransang": [{"Name": "Ransang", "Country Code": "PH", "Population": 3548.0, "Lat": 8.96028, "Lon": 117.58278}], "Ransart": [{"Name": "Ransart", "Country Code": "BE", "Population": 8813.0, "Lat": 50.46166, "Lon": 4.47616}], "Ransbach-Baumbach": [{"Name": "Ransbach-Baumbach", "Country Code": "DE", "Population": 7327.0, "Lat": 50.46496, "Lon": 7.7283}], "Ranshofen": [{"Name": "Ranshofen", "Country Code": "AT", "Population": 2319.0, "Lat": 48.23308, "Lon": 13.01571}], "Ransiki": [{"Name": "Ransiki", "Country Code": "ID", "Population": 16245.0, "Lat": -1.5083, "Lon": 134.1708}], "Ranskill": [{"Name": "Ranskill", "Country Code": "GB", "Population": 1362.0, "Lat": 53.38281, "Lon": -1.01402}], "Ransom Canyon": [{"Name": "Ransom Canyon", "Country Code": "US", "Population": 1131.0, "Lat": 33.53342, "Lon": -101.67961}], "Ransomville": [{"Name": "Ransomville", "Country Code": "US", "Population": 1419.0, "Lat": 43.23867, "Lon": -78.90976}], "Ranson": [{"Name": "Ranson", "Country Code": "US", "Population": 4941.0, "Lat": 39.2951, "Lon": -77.86055}], "Ranst": [{"Name": "Ranst", "Country Code": "BE", "Population": 17405.0, "Lat": 51.18983, "Lon": 4.56533}], "Ranstadt": [{"Name": "Ranstadt", "Country Code": "DE", "Population": 5042.0, "Lat": 50.35739, "Lon": 8.98375}], "Rantasalmi": [{"Name": "Rantasalmi", "Country Code": "FI", "Population": 4443.0, "Lat": 62.06667, "Lon": 28.3}], "Rantau": [{"Name": "Rantau", "Country Code": "ID", "Population": 0.0, "Lat": -2.9334, "Lon": 115.1621}], "Rantau Ambacang": [{"Name": "Rantau Ambacang", "Country Code": "ID", "Population": 0.0, "Lat": -1.39774, "Lon": 101.91907}], "Rantau Panjang": [{"Name": "Rantau Panjang", "Country Code": "ID", "Population": 0.0, "Lat": -2.4962, "Lon": 102.2505}, {"Name": "Rantau Panjang", "Country Code": "ID", "Population": 0.0, "Lat": 4.72711, "Lon": 97.75724}, {"Name": "Rantau Panjang", "Country Code": "ID", "Population": 0.0, "Lat": -1.8446, "Lon": 102.3081}], "Rantau Prapat": [{"Name": "Rantau Prapat", "Country Code": "ID", "Population": 0.0, "Lat": 2.3321, "Lon": 100.05205}], "Rantauprapat": [{"Name": "Rantauprapat", "Country Code": "ID", "Population": 103009.0, "Lat": 2.1, "Lon": 99.83333}], "Rantaupulut": [{"Name": "Rantaupulut", "Country Code": "ID", "Population": 0.0, "Lat": -2.0093, "Lon": 112.1956}], "Ranten": [{"Name": "Ranten", "Country Code": "AT", "Population": 621.0, "Lat": 47.15949, "Lon": 14.08349}], "Rantepang": [{"Name": "Rantepang", "Country Code": "ID", "Population": 0.0, "Lat": -2.9252, "Lon": 119.9413}], "Rantepao": [{"Name": "Rantepao", "Country Code": "ID", "Population": 40438.0, "Lat": -2.9701, "Lon": 119.8978}], "Rantigny": [{"Name": "Rantigny", "Country Code": "FR", "Population": 2632.0, "Lat": 49.32758, "Lon": 2.44244}], "Rantis": [{"Name": "Rant\u012bs", "Country Code": "PS", "Population": 2795.0, "Lat": 32.02797, "Lon": 35.01879}], "Rantoul": [{"Name": "Rantoul", "Country Code": "US", "Population": 13008.0, "Lat": 40.30837, "Lon": -88.15588}], "Rantrum": [{"Name": "Rantrum", "Country Code": "DE", "Population": 1562.0, "Lat": 54.44062, "Lon": 9.12872}], "Rantsila": [{"Name": "Rantsila", "Country Code": "FI", "Population": 2048.0, "Lat": 64.50613, "Lon": 25.66449}], "Ranua": [{"Name": "Ranua", "Country Code": "FI", "Population": 4833.0, "Lat": 65.91667, "Lon": 26.53333}], "Ranville": [{"Name": "Ranville", "Country Code": "FR", "Population": 1982.0, "Lat": 49.23071, "Lon": -0.2556}], "Ranzanico": [{"Name": "Ranzanico", "Country Code": "IT", "Population": 459.0, "Lat": 45.78839, "Lon": 9.93506}], "Ranzesti": [{"Name": "R\u00e2nze\u0219ti", "Country Code": "RO", "Population": 1203.0, "Lat": 46.22101, "Lon": 28.09468}], "Raohe": [{"Name": "Raohe", "Country Code": "CN", "Population": 0.0, "Lat": 46.7961, "Lon": 134.00653}], "Raojan": [{"Name": "Raoj\u0101n", "Country Code": "BD", "Population": 25708.0, "Lat": 22.53511, "Lon": 91.91919}], "Raon-aux-Bois": [{"Name": "Raon-aux-Bois", "Country Code": "FR", "Population": 1033.0, "Lat": 48.05686, "Lon": 6.52098}], "Raon-l'Etape": [{"Name": "Raon-l'\u00c9tape", "Country Code": "FR", "Population": 6420.0, "Lat": 48.40414, "Lon": 6.83864}], "Raoul": [{"Name": "Raoul", "Country Code": "US", "Population": 2558.0, "Lat": 34.44954, "Lon": -83.59434}], "Raoyang": [{"Name": "Raoyang", "Country Code": "CN", "Population": 0.0, "Lat": 38.23572, "Lon": 115.72989}], "Rapagnano": [{"Name": "Rapagnano", "Country Code": "IT", "Population": 828.0, "Lat": 43.15985, "Lon": 13.58873}], "Rapallo": [{"Name": "Rapallo", "Country Code": "IT", "Population": 26993.0, "Lat": 44.3496, "Lon": 9.22796}], "Rapanasu": [{"Name": "R\u0103p\u0103na\u015fu", "Country Code": "RO", "Population": 3693.0, "Lat": 47.38333, "Lon": 24.18333}], "Rapar": [{"Name": "R\u0101par", "Country Code": "IN", "Population": 21507.0, "Lat": 23.57267, "Lon": 70.64718}], "Rapariegos": [{"Name": "Rapariegos", "Country Code": "ES", "Population": 245.0, "Lat": 41.09498, "Lon": -4.65271}], "Rapaura": [{"Name": "Rapaura", "Country Code": "NZ", "Population": 1212.0, "Lat": -41.46667, "Lon": 173.9}], "Rapayan": [{"Name": "Rapayan", "Country Code": "PE", "Population": 801.0, "Lat": -9.20549, "Lon": -76.76138}], "Raphoe": [{"Name": "Raphoe", "Country Code": "IE", "Population": 1157.0, "Lat": 54.87472, "Lon": -7.59833}], "Rapid City": [{"Name": "Rapid City", "Country Code": "US", "Population": 73569.0, "Lat": 44.08054, "Lon": -103.23101}, {"Name": "Rapid City", "Country Code": "US", "Population": 1352.0, "Lat": 44.83445, "Lon": -85.28256}], "Rapid Creek": [{"Name": "Rapid Creek", "Country Code": "AU", "Population": 3304.0, "Lat": -12.38042, "Lon": 130.85919}], "Rapid Valley": [{"Name": "Rapid Valley", "Country Code": "US", "Population": 8260.0, "Lat": 44.06249, "Lon": -103.14629}], "Rapids": [{"Name": "Rapids", "Country Code": "US", "Population": 1636.0, "Lat": 43.09839, "Lon": -78.64086}], "Rapino": [{"Name": "Rapino", "Country Code": "IT", "Population": 1258.0, "Lat": 42.20931, "Lon": 14.18493}], "Rapla": [{"Name": "Rapla", "Country Code": "EE", "Population": 5132.0, "Lat": 59.00722, "Lon": 24.79278}], "Rapolano Terme": [{"Name": "Rapolano Terme", "Country Code": "IT", "Population": 2989.0, "Lat": 43.29498, "Lon": 11.60264}], "Rapolla": [{"Name": "Rapolla", "Country Code": "IT", "Population": 3989.0, "Lat": 40.97499, "Lon": 15.67201}], "Rapoltu Mare": [{"Name": "Rapoltu Mare", "Country Code": "RO", "Population": 2040.0, "Lat": 45.86667, "Lon": 23.06667}], "Rapone": [{"Name": "Rapone", "Country Code": "IT", "Population": 663.0, "Lat": 40.8471, "Lon": 15.49818}], "Raposa": [{"Name": "Raposa", "Country Code": "BR", "Population": 11883.0, "Lat": -6.51667, "Lon": -44.18333}], "Raposos": [{"Name": "Raposos", "Country Code": "BR", "Population": 13262.0, "Lat": -19.96722, "Lon": -43.80417}], "Rapotin": [{"Name": "Rapot\u00edn", "Country Code": "CZ", "Population": 3009.0, "Lat": 50.01094, "Lon": 17.03121}], "Rappang": [{"Name": "Rappang", "Country Code": "ID", "Population": 0.0, "Lat": -3.8445, "Lon": 119.8173}], "Rapperswil": [{"Name": "Rapperswil", "Country Code": "CH", "Population": 34776.0, "Lat": 47.22557, "Lon": 8.82228}], "Rappottenstein": [{"Name": "Rappottenstein", "Country Code": "AT", "Population": 307.0, "Lat": 48.52161, "Lon": 15.07925}], "Rapu-Rapu": [{"Name": "Rapu-Rapu", "Country Code": "PH", "Population": 4647.0, "Lat": 13.1866, "Lon": 124.1256}], "Raqo": [{"Name": "Raqo", "Country Code": "ET", "Population": 25090.0, "Lat": 6.41919, "Lon": 45.85251}], "Raqqefet": [{"Name": "Raqqefet", "Country Code": "IL", "Population": 1057.0, "Lat": 32.85744, "Lon": 35.26142}], "Raquira": [{"Name": "R\u00e1quira", "Country Code": "CO", "Population": 2120.0, "Lat": 5.53793, "Lon": -73.63201}], "Raritan": [{"Name": "Raritan", "Country Code": "US", "Population": 8031.0, "Lat": 40.56955, "Lon": -74.63294}], "Raron": [{"Name": "Raron", "Country Code": "CH", "Population": 1901.0, "Lat": 46.31196, "Lon": 7.80029}], "Ras Al Khaimah City": [{"Name": "Ras Al Khaimah City", "Country Code": "AE", "Population": 351943.0, "Lat": 25.78953, "Lon": 55.9432}], "Ras El Ain": [{"Name": "Ras El A\u00efn", "Country Code": "MA", "Population": 3946.0, "Lat": 32.98253, "Lon": -7.3975}], "Ras Gharib": [{"Name": "Ras Gharib", "Country Code": "EG", "Population": 44852.0, "Lat": 28.35831, "Lon": 33.07829}], "Ras Karkar": [{"Name": "R\u0101s Karkar", "Country Code": "PS", "Population": 1641.0, "Lat": 31.9424, "Lon": 35.10773}], "Ras Kebdana": [{"Name": "Ras Kebdana", "Country Code": "MA", "Population": 8277.0, "Lat": 35.14069, "Lon": -2.42455}], "Ras el Aioun": [{"Name": "R\u00e2s el A\u00efoun", "Country Code": "DZ", "Population": 34167.0, "Lat": 35.67384, "Lon": 5.6453}], "Ras el Ma": [{"Name": "Ras el Ma", "Country Code": "MA", "Population": 22345.0, "Lat": 33.97399, "Lon": -5.09613}], "Ras el Oued": [{"Name": "R\u00e2s el Oued", "Country Code": "DZ", "Population": 44947.0, "Lat": 35.9441, "Lon": 5.03107}], "Ras el-Barr": [{"Name": "R\u00e2s el-Barr", "Country Code": "EG", "Population": 10213.0, "Lat": 31.51027, "Lon": 31.82851}], "Rasa": [{"Name": "Ra\u0161a", "Country Code": "HR", "Population": 1184.0, "Lat": 45.08028, "Lon": 14.07889}, {"Name": "Rasa", "Country Code": "RO", "Population": 1269.0, "Lat": 44.21404, "Lon": 27.14717}], "Rasad": [{"Name": "Ra\u015fad", "Country Code": "YE", "Population": 0.0, "Lat": 13.71215, "Lon": 45.30318}], "Rasak": [{"Name": "R\u0101sak", "Country Code": "IR", "Population": 0.0, "Lat": 26.23682, "Lon": 61.39901}], "Rasca": [{"Name": "R\u00e2\u0219ca", "Country Code": "RO", "Population": 902.0, "Lat": 46.73967, "Lon": 23.10625}, {"Name": "R\u00e2\u015fca", "Country Code": "RO", "Population": 0.0, "Lat": 47.36667, "Lon": 26.23333}], "Rascaeti": [{"Name": "R\u0103sc\u0103e\u021bi", "Country Code": "RO", "Population": 2232.0, "Lat": 44.59221, "Lon": 25.2699}], "Rascafria": [{"Name": "Rascafr\u00eda", "Country Code": "ES", "Population": 1588.0, "Lat": 40.90407, "Lon": -3.87898}], "Raschau": [{"Name": "Raschau", "Country Code": "DE", "Population": 4085.0, "Lat": 50.53127, "Lon": 12.83312}], "Rascon": [{"Name": "Rasc\u00f3n", "Country Code": "MX", "Population": 2469.0, "Lat": 21.97075, "Lon": -99.25742}], "Rascruci": [{"Name": "R\u0103scruci", "Country Code": "RO", "Population": 1522.0, "Lat": 46.90569, "Lon": 23.7686}], "Rasdorf": [{"Name": "Rasdorf", "Country Code": "DE", "Population": 1833.0, "Lat": 50.71667, "Lon": 9.9}], "Raseiniai": [{"Name": "Raseiniai", "Country Code": "LT", "Population": 9686.0, "Lat": 55.37973, "Lon": 23.12386}], "Rasesa": [{"Name": "Rasesa", "Country Code": "BW", "Population": 5966.0, "Lat": -24.37306, "Lon": 26.07287}], "Rasesti": [{"Name": "R\u00e2\u0219e\u0219ti", "Country Code": "RO", "Population": 1729.0, "Lat": 46.77219, "Lon": 28.14273}], "Rashaant": [{"Name": "Rashaant", "Country Code": "MN", "Population": 0.0, "Lat": 49.12667, "Lon": 101.42806}, {"Name": "Rashaant", "Country Code": "MN", "Population": 0.0, "Lat": 45.3, "Lon": 106.2}, {"Name": "Rashaant", "Country Code": "MN", "Population": 0.0, "Lat": 47.76667, "Lon": 90.83333}], "Rashkiv": [{"Name": "Rashkiv", "Country Code": "UA", "Population": 1150.0, "Lat": 48.51049, "Lon": 26.26889}], "Rasht": [{"Name": "Rasht", "Country Code": "IR", "Population": 594590.0, "Lat": 37.27611, "Lon": 49.58862}, {"Name": "Rasht", "Country Code": "TJ", "Population": 10771.0, "Lat": 39.02871, "Lon": 70.37446}], "Rasi": [{"Name": "Ra\u0219i", "Country Code": "RO", "Population": 1349.0, "Lat": 44.53534, "Lon": 26.92485}], "Rasi Salai": [{"Name": "Rasi Salai", "Country Code": "TH", "Population": 0.0, "Lat": 15.34466, "Lon": 104.15476}], "Rasiei": [{"Name": "Rasiei", "Country Code": "ID", "Population": 0.0, "Lat": -2.817, "Lon": 134.5292}], "Rasinari": [{"Name": "R\u0103\u015finari", "Country Code": "RO", "Population": 5403.0, "Lat": 45.7, "Lon": 24.06667}], "Rasines": [{"Name": "Rasines", "Country Code": "ES", "Population": 942.0, "Lat": 43.30505, "Lon": -3.42919}], "Rasinja": [{"Name": "Rasinja", "Country Code": "HR", "Population": 730.0, "Lat": 46.18389, "Lon": 16.70667}], "Rasipuram": [{"Name": "Rasipuram", "Country Code": "IN", "Population": 48950.0, "Lat": 11.46009, "Lon": 78.18635}], "Raska": [{"Name": "Ra\u0161ka", "Country Code": "RS", "Population": 4.0, "Lat": 43.28722, "Lon": 20.61528}], "Raskovice": [{"Name": "Ra\u0161kovice", "Country Code": "CZ", "Population": 1771.0, "Lat": 49.61975, "Lon": 18.47286}], "Rasm al Harmal": [{"Name": "Rasm al \u1e28armal", "Country Code": "SY", "Population": 0.0, "Lat": 36.24486, "Lon": 37.71607}], "Rasmiresti": [{"Name": "R\u0103smire\u015fti", "Country Code": "RO", "Population": 1163.0, "Lat": 43.98333, "Lon": 25.55}], "Rasmussen": [{"Name": "Rasmussen", "Country Code": "AU", "Population": 4392.0, "Lat": -19.3524, "Lon": 146.7228}], "Rasnov": [{"Name": "R\u00e2\u015fnov", "Country Code": "RO", "Population": 15253.0, "Lat": 45.58333, "Lon": 25.45}], "Rasony": [{"Name": "Rasony", "Country Code": "BY", "Population": 5400.0, "Lat": 55.9058, "Lon": 28.8135}], "Rasos": [{"Name": "Rasos", "Country Code": "LT", "Population": 10597.0, "Lat": 54.67877, "Lon": 25.31173}], "Rasova": [{"Name": "Rasova", "Country Code": "RO", "Population": 3909.0, "Lat": 44.24616, "Lon": 27.93466}], "Raspenava": [{"Name": "Raspenava", "Country Code": "CZ", "Population": 2826.0, "Lat": 50.90415, "Lon": 15.11465}], "Rasquera": [{"Name": "Rasquera", "Country Code": "ES", "Population": 868.0, "Lat": 41.00267, "Lon": 0.59967}], "Rasra": [{"Name": "Rasr\u0101", "Country Code": "IN", "Population": 31876.0, "Lat": 25.8576, "Lon": 83.85487}], "Rassa": [{"Name": "Rassa", "Country Code": "IT", "Population": 59.0, "Lat": 45.76821, "Lon": 8.01208}], "Rassach": [{"Name": "Rassach", "Country Code": "AT", "Population": 333.0, "Lat": 46.86028, "Lon": 15.27}], "Rasshevatskaya": [{"Name": "Rasshevatskaya", "Country Code": "RU", "Population": 5686.0, "Lat": 45.5748, "Lon": 41.03496}], "Rassina": [{"Name": "Rassina", "Country Code": "IT", "Population": 1874.0, "Lat": 43.64737, "Lon": 11.83632}], "Rasskazovo": [{"Name": "Rasskazovo", "Country Code": "RU", "Population": 45957.0, "Lat": 52.66384, "Lon": 41.88915}], "Rassnitz": [{"Name": "Ra\u00dfnitz", "Country Code": "DE", "Population": 1097.0, "Lat": 51.39085, "Lon": 12.09406}], "Rassvet": [{"Name": "Rassvet", "Country Code": "RU", "Population": 4765.0, "Lat": 46.83333, "Lon": 40.75}, {"Name": "Rassvet", "Country Code": "RU", "Population": 3454.0, "Lat": 56.999, "Lon": 91.4724}], "Rast": [{"Name": "Rast", "Country Code": "RO", "Population": 3343.0, "Lat": 43.88333, "Lon": 23.28333}], "Rastatt": [{"Name": "Rastatt", "Country Code": "DE", "Population": 47906.0, "Lat": 48.85851, "Lon": 8.20965}], "Rastede": [{"Name": "Rastede", "Country Code": "DE", "Population": 20046.0, "Lat": 53.25, "Lon": 8.2}], "Rastenberg": [{"Name": "Rastenberg", "Country Code": "DE", "Population": 2892.0, "Lat": 51.17496, "Lon": 11.42029}], "Rastenfeld": [{"Name": "Rastenfeld", "Country Code": "AT", "Population": 503.0, "Lat": 48.57348, "Lon": 15.33176}], "Rastignano-Carteria di Sesto": [{"Name": "Rastignano-Carteria di Sesto", "Country Code": "IT", "Population": 5231.0, "Lat": 44.43623, "Lon": 11.35695}], "Rastoaca": [{"Name": "R\u0103stoaca", "Country Code": "RO", "Population": 2499.0, "Lat": 45.66083, "Lon": 27.28723}], "Rastolita": [{"Name": "R\u0103stoli\u0163a", "Country Code": "RO", "Population": 2193.0, "Lat": 46.97258, "Lon": 24.99287}], "Rastow": [{"Name": "Rastow", "Country Code": "DE", "Population": 1618.0, "Lat": 53.45709, "Lon": 11.43145}], "Rastrick": [{"Name": "Rastrick", "Country Code": "GB", "Population": 11351.0, "Lat": 53.6921, "Lon": -1.7883}], "Rasuceni": [{"Name": "R\u0103suceni", "Country Code": "RO", "Population": 3090.0, "Lat": 44.09167, "Lon": 25.66389}], "Rasueros": [{"Name": "Rasueros", "Country Code": "ES", "Population": 287.0, "Lat": 41.02344, "Lon": -5.07377}], "Rasulabad": [{"Name": "Ras\u016bl\u0101b\u0101d", "Country Code": "IN", "Population": 7800.0, "Lat": 26.74491, "Lon": 80.49012}], "Rasulnagar": [{"Name": "Rasulnagar", "Country Code": "PK", "Population": 14392.0, "Lat": 32.32794, "Lon": 73.7804}], "Rasun Anterselva - Rasen-Antholz": [{"Name": "Rasun Anterselva - Rasen-Antholz", "Country Code": "IT", "Population": 2700.0, "Lat": 46.77853, "Lon": 12.04729}], "Rasunda": [{"Name": "R\u00e5sunda", "Country Code": "SE", "Population": 16877.0, "Lat": 59.36588, "Lon": 17.99569}], "Rasura": [{"Name": "Rasura", "Country Code": "IT", "Population": 277.0, "Lat": 46.10059, "Lon": 9.55274}], "Raszczyce": [{"Name": "Raszczyce", "Country Code": "PL", "Population": 1068.0, "Lat": 50.1219, "Lon": 18.29962}], "Raszkow": [{"Name": "Raszk\u00f3w", "Country Code": "PL", "Population": 2079.0, "Lat": 51.71828, "Lon": 17.72571}], "Raszowa": [{"Name": "Raszowa", "Country Code": "PL", "Population": 1041.0, "Lat": 50.39779, "Lon": 18.17722}], "Raszyn": [{"Name": "Raszyn", "Country Code": "PL", "Population": 7109.0, "Lat": 52.15603, "Lon": 20.9226}], "Rat Burana": [{"Name": "Rat Burana", "Country Code": "TH", "Population": 0.0, "Lat": 13.68219, "Lon": 100.50603}], "Ratahan": [{"Name": "Ratahan", "Country Code": "ID", "Population": 0.0, "Lat": 1.0549, "Lon": 124.8012}], "Rataje": [{"Name": "Rataje", "Country Code": "CZ", "Population": 1031.0, "Lat": 49.2713, "Lon": 17.33555}], "Ratangarh": [{"Name": "Ratangarh", "Country Code": "IN", "Population": 66625.0, "Lat": 28.08137, "Lon": 74.61854}, {"Name": "Ratangarh", "Country Code": "IN", "Population": 7494.0, "Lat": 24.81667, "Lon": 75.11667}], "Ratanpur": [{"Name": "Ratanpur", "Country Code": "IN", "Population": 21392.0, "Lat": 22.2866, "Lon": 82.16823}], "Ratba": [{"Name": "Ratba", "Country Code": "MA", "Population": 0.0, "Lat": 34.77772, "Lon": -4.93989}], "Ratby": [{"Name": "Ratby", "Country Code": "GB", "Population": 4468.0, "Lat": 52.64989, "Lon": -1.24137}], "Ratchaburi": [{"Name": "Ratchaburi", "Country Code": "TH", "Population": 92448.0, "Lat": 13.53671, "Lon": 99.81712}], "Ratchasan": [{"Name": "Ratchasan", "Country Code": "TH", "Population": 0.0, "Lat": 13.78211, "Lon": 101.28133}], "Ratchathewi": [{"Name": "Ratchathewi", "Country Code": "TH", "Population": 0.0, "Lat": 13.759, "Lon": 100.53358}], "Ratekau": [{"Name": "Ratekau", "Country Code": "DE", "Population": 15921.0, "Lat": 53.95, "Lon": 10.73333}], "Ratesti": [{"Name": "R\u0103te\u015fti", "Country Code": "RO", "Population": 3368.0, "Lat": 44.73333, "Lon": 25.13333}], "Rath": [{"Name": "Rath", "Country Code": "DE", "Population": 11000.0, "Lat": 50.92379, "Lon": 7.0927}, {"Name": "R\u0101th", "Country Code": "IN", "Population": 61728.0, "Lat": 25.59474, "Lon": 79.5666}], "Rathangan": [{"Name": "Rathangan", "Country Code": "IE", "Population": 2374.0, "Lat": 53.22139, "Lon": -6.995}], "Rathcoole": [{"Name": "Rathcoole", "Country Code": "IE", "Population": 3421.0, "Lat": 53.28278, "Lon": -6.47278}], "Rathcormac": [{"Name": "Rathcormac", "Country Code": "IE", "Population": 1762.0, "Lat": 52.07694, "Lon": -8.28194}], "Rathdowney": [{"Name": "Rathdowney", "Country Code": "IE", "Population": 1208.0, "Lat": 52.85472, "Lon": -7.58028}], "Rathdrum": [{"Name": "Rathdrum", "Country Code": "IE", "Population": 1586.0, "Lat": 52.93179, "Lon": -6.22945}, {"Name": "Rathdrum", "Country Code": "US", "Population": 7538.0, "Lat": 47.8124, "Lon": -116.89659}], "Rathenow": [{"Name": "Rathenow", "Country Code": "DE", "Population": 27115.0, "Lat": 52.60659, "Lon": 12.33696}], "Rathfarnham": [{"Name": "Rathfarnham", "Country Code": "IE", "Population": 17333.0, "Lat": 53.30056, "Lon": -6.28278}], "Rathfriland": [{"Name": "Rathfriland", "Country Code": "GB", "Population": 2063.0, "Lat": 54.25, "Lon": -6.16667}], "Rathgar": [{"Name": "Rathgar", "Country Code": "IE", "Population": 8394.0, "Lat": 53.31457, "Lon": -6.275}], "Rathkeale": [{"Name": "Rathkeale", "Country Code": "IE", "Population": 1550.0, "Lat": 52.52444, "Lon": -8.93806}], "Rathmannsdorf": [{"Name": "Rathmannsdorf", "Country Code": "DE", "Population": 1155.0, "Lat": 50.92993, "Lon": 14.14224}], "Rathmines": [{"Name": "Rathmines", "Country Code": "AU", "Population": 1836.0, "Lat": -33.03773, "Lon": 151.58443}, {"Name": "Rathmines", "Country Code": "IE", "Population": 11044.0, "Lat": 53.32028, "Lon": -6.26333}], "Rathnew": [{"Name": "Rathnew", "Country Code": "IE", "Population": 2964.0, "Lat": 52.99056, "Lon": -6.08528}], "Ratho": [{"Name": "Ratho", "Country Code": "GB", "Population": 1730.0, "Lat": 55.92164, "Lon": -3.38028}], "Ratho Station": [{"Name": "Ratho Station", "Country Code": "GB", "Population": 1190.0, "Lat": 55.9367, "Lon": -3.3889}], "Ratholo": [{"Name": "Ratholo", "Country Code": "BW", "Population": 2377.0, "Lat": -22.72454, "Lon": 27.57199}], "Rathwire": [{"Name": "Rathwire", "Country Code": "IE", "Population": 1226.0, "Lat": 53.50767, "Lon": -7.1351}], "Ratia": [{"Name": "Ratia", "Country Code": "IN", "Population": 26524.0, "Lat": 29.69029, "Lon": 75.57688}], "Ratibor": [{"Name": "Ratibo\u0159", "Country Code": "CZ", "Population": 1719.0, "Lat": 49.36769, "Lon": 17.91499}], "Ratingen": [{"Name": "Ratingen", "Country Code": "DE", "Population": 91606.0, "Lat": 51.29724, "Lon": 6.84929}], "Ratiskovice": [{"Name": "Rat\u00ed\u0161kovice", "Country Code": "CZ", "Population": 3955.0, "Lat": 48.92002, "Lon": 17.16561}], "Ratkovo": [{"Name": "Ratkovo", "Country Code": "RS", "Population": 3411.0, "Lat": 45.45566, "Lon": 19.33728}], "Ratlam": [{"Name": "Ratl\u0101m", "Country Code": "IN", "Population": 236843.0, "Lat": 23.33033, "Lon": 75.04032}], "Ratnagiri": [{"Name": "Ratnagiri", "Country Code": "IN", "Population": 75986.0, "Lat": 16.99154, "Lon": 73.31022}], "Ratnapura": [{"Name": "Ratnapura", "Country Code": "LK", "Population": 47832.0, "Lat": 6.6858, "Lon": 80.4036}], "Ratne": [{"Name": "Ratne", "Country Code": "UA", "Population": 9657.0, "Lat": 51.6683, "Lon": 24.5303}], "Ratoath": [{"Name": "Ratoath", "Country Code": "IE", "Population": 9043.0, "Lat": 53.50806, "Lon": -6.4625}], "Ratodero": [{"Name": "Ratodero", "Country Code": "PK", "Population": 47819.0, "Lat": 27.80227, "Lon": 68.28902}], "Raton": [{"Name": "Raton", "Country Code": "US", "Population": 6187.0, "Lat": 36.90336, "Lon": -104.43915}], "Ratorp": [{"Name": "R\u00e5torp", "Country Code": "SE", "Population": 3287.0, "Lat": 59.40197, "Lon": 13.49144}], "Ratowice": [{"Name": "Ratowice", "Country Code": "PL", "Population": 1100.0, "Lat": 51.03308, "Lon": 17.27205}], "Ratsada": [{"Name": "Ratsada", "Country Code": "TH", "Population": 0.0, "Lat": 7.97467, "Lon": 99.63353}], "Ratsch an der Weinstrasse": [{"Name": "Ratsch an der Weinstra\u00dfe", "Country Code": "AT", "Population": 334.0, "Lat": 46.68944, "Lon": 15.57111}], "Ratschendorf": [{"Name": "Ratschendorf", "Country Code": "AT", "Population": 601.0, "Lat": 46.74222, "Lon": 15.81583}], "Rattanaburi": [{"Name": "Rattanaburi", "Country Code": "TH", "Population": 0.0, "Lat": 15.31788, "Lon": 103.84859}], "Rattanawapi": [{"Name": "Rattanawapi", "Country Code": "TH", "Population": 0.0, "Lat": 18.21365, "Lon": 103.17967}], "Rattaphum": [{"Name": "Rattaphum", "Country Code": "TH", "Population": 0.0, "Lat": 7.13478, "Lon": 100.25647}], "Rattelsdorf": [{"Name": "Rattelsdorf", "Country Code": "DE", "Population": 4550.0, "Lat": 50.01502, "Lon": 10.88857}], "Ratten": [{"Name": "Ratten", "Country Code": "AT", "Population": 0.0, "Lat": 47.48333, "Lon": 15.71667}], "Rattenberg": [{"Name": "Rattenberg", "Country Code": "AT", "Population": 411.0, "Lat": 47.43941, "Lon": 11.89407}, {"Name": "Rattenberg", "Country Code": "DE", "Population": 1841.0, "Lat": 49.08612, "Lon": 12.74912}], "Rattiszell": [{"Name": "Rattiszell", "Country Code": "DE", "Population": 1412.0, "Lat": 49.02573, "Lon": 12.65924}], "Ratzeburg": [{"Name": "Ratzeburg", "Country Code": "DE", "Population": 13623.0, "Lat": 53.69965, "Lon": 10.77256}], "Ratzersdorf an der Traisen": [{"Name": "Ratzersdorf an der Traisen", "Country Code": "AT", "Population": 1645.0, "Lat": 48.22639, "Lon": 15.66629}], "Rau Alb de Jos": [{"Name": "R\u00e2u Alb de Jos", "Country Code": "RO", "Population": 1263.0, "Lat": 45.13653, "Lon": 25.34745}], "Rau Sadului": [{"Name": "R\u00e2u Sadului", "Country Code": "RO", "Population": 627.0, "Lat": 45.61667, "Lon": 24.06667}], "Rau de Mori": [{"Name": "R\u00e2u de Mori", "Country Code": "RO", "Population": 3510.0, "Lat": 45.48333, "Lon": 22.85}], "Raub": [{"Name": "Raub", "Country Code": "MY", "Population": 40024.0, "Lat": 3.7899, "Lon": 101.857}], "Raubach": [{"Name": "Raubach", "Country Code": "DE", "Population": 1944.0, "Lat": 50.57489, "Lon": 7.62496}], "Raubling": [{"Name": "Raubling", "Country Code": "DE", "Population": 11382.0, "Lat": 47.7905, "Lon": 12.11088}], "Raubsville": [{"Name": "Raubsville", "Country Code": "US", "Population": 1088.0, "Lat": 40.63566, "Lon": -75.19295}], "Raucesti": [{"Name": "R\u0103uce\u015fti", "Country Code": "RO", "Population": 8204.0, "Lat": 47.25, "Lon": 26.41667}], "Rauch": [{"Name": "Rauch", "Country Code": "AR", "Population": 0.0, "Lat": -36.77441, "Lon": -59.08829}], "Rauchenwarth": [{"Name": "Rauchenwarth", "Country Code": "AT", "Population": 742.0, "Lat": 48.0833, "Lon": 16.52794}], "Rauco": [{"Name": "Rauco", "Country Code": "CL", "Population": 8566.0, "Lat": -34.92546, "Lon": -71.31722}], "Raudales Malpaso": [{"Name": "Raudales Malpaso", "Country Code": "MX", "Population": 6817.0, "Lat": 17.18833, "Lon": -93.60583}], "Rauen": [{"Name": "Rauen", "Country Code": "DE", "Population": 1901.0, "Lat": 52.33227, "Lon": 14.02797}], "Rauenberg": [{"Name": "Rauenberg", "Country Code": "DE", "Population": 7411.0, "Lat": 49.26943, "Lon": 8.70344}], "Raufoss": [{"Name": "Raufoss", "Country Code": "NO", "Population": 7839.0, "Lat": 60.72604, "Lon": 10.6133}], "Raukhivka": [{"Name": "Raukhivka", "Country Code": "UA", "Population": 2711.0, "Lat": 47.16667, "Lon": 30.81771}], "Rauma": [{"Name": "Rauma", "Country Code": "FI", "Population": 36550.0, "Lat": 61.12724, "Lon": 21.51127}], "Raumanga": [{"Name": "Raumanga", "Country Code": "NZ", "Population": 5770.0, "Lat": -35.74488, "Lon": 174.30578}], "Raumati Beach": [{"Name": "Raumati Beach", "Country Code": "NZ", "Population": 5241.0, "Lat": -40.91667, "Lon": 174.98333}], "Rauna": [{"Name": "Rauna", "Country Code": "LV", "Population": 0.0, "Lat": 57.33173, "Lon": 25.60947}, {"Name": "Rauna", "Country Code": "PG", "Population": 0.0, "Lat": -5.7359, "Lon": 144.28834}], "Raunds": [{"Name": "Raunds", "Country Code": "GB", "Population": 8641.0, "Lat": 52.34428, "Lon": -0.53657}], "Raunheim": [{"Name": "Raunheim", "Country Code": "DE", "Population": 13622.0, "Lat": 50.0132, "Lon": 8.45253}], "Raupunga": [{"Name": "Raupunga", "Country Code": "NZ", "Population": 1188.0, "Lat": -39.03333, "Lon": 177.21667}], "Raureka": [{"Name": "Raureka", "Country Code": "NZ", "Population": 4953.0, "Lat": -39.63824, "Lon": 176.82021}], "Rauris": [{"Name": "Rauris", "Country Code": "AT", "Population": 1146.0, "Lat": 47.22656, "Lon": 12.99459}], "Rauscedo-Domanins": [{"Name": "Rauscedo-Domanins", "Country Code": "IT", "Population": 2240.0, "Lat": 46.04083, "Lon": 12.82472}], "Rauschenberg": [{"Name": "Rauschenberg", "Country Code": "DE", "Population": 4790.0, "Lat": 50.88329, "Lon": 8.91864}], "Rauseni": [{"Name": "R\u0103useni", "Country Code": "RO", "Population": 2987.0, "Lat": 47.56667, "Lon": 27.2}], "Rausu": [{"Name": "Rausu", "Country Code": "JP", "Population": 5395.0, "Lat": 44.01806, "Lon": 145.19197}], "Rautalampi": [{"Name": "Rautalampi", "Country Code": "FI", "Population": 3665.0, "Lat": 62.63333, "Lon": 26.83333}], "Rautavaara": [{"Name": "Rautavaara", "Country Code": "FI", "Population": 2066.0, "Lat": 63.48333, "Lon": 28.3}], "Rautheim": [{"Name": "Rautheim", "Country Code": "DE", "Population": 3434.0, "Lat": 52.2402, "Lon": 10.58696}], "Rautjaervi": [{"Name": "Rautj\u00e4rvi", "Country Code": "FI", "Population": 4316.0, "Lat": 61.43459, "Lon": 29.37151}], "Rauzan": [{"Name": "Rauzan", "Country Code": "FR", "Population": 1131.0, "Lat": 44.77813, "Lon": -0.12506}], "Rava-Ruska": [{"Name": "Rava-Ruska", "Country Code": "UA", "Population": 8494.0, "Lat": 50.23079, "Lon": 23.62825}], "Ravansar": [{"Name": "Rav\u0101nsar", "Country Code": "IR", "Population": 0.0, "Lat": 34.7153, "Lon": 46.6533}], "Ravanusa": [{"Name": "Ravanusa", "Country Code": "IT", "Population": 12051.0, "Lat": 37.26659, "Lon": 13.96834}], "Ravar": [{"Name": "R\u0101var", "Country Code": "IR", "Population": 40167.0, "Lat": 31.26562, "Lon": 56.80545}], "Ravarino": [{"Name": "Ravarino", "Country Code": "IT", "Population": 4291.0, "Lat": 44.72475, "Lon": 11.09588}], "Ravascletto": [{"Name": "Ravascletto", "Country Code": "IT", "Population": 361.0, "Lat": 46.52504, "Lon": 12.92138}], "Ravda": [{"Name": "Ravda", "Country Code": "BG", "Population": 2556.0, "Lat": 42.64185, "Lon": 27.67713}], "Ravello": [{"Name": "Ravello", "Country Code": "IT", "Population": 1523.0, "Lat": 40.64932, "Lon": 14.61167}], "Ravels": [{"Name": "Ravels", "Country Code": "BE", "Population": 13560.0, "Lat": 51.37274, "Lon": 4.9921}], "Ravelsbach": [{"Name": "Ravelsbach", "Country Code": "AT", "Population": 657.0, "Lat": 48.55, "Lon": 15.85}], "Raven": [{"Name": "Raven", "Country Code": "US", "Population": 2270.0, "Lat": 37.08706, "Lon": -81.85512}], "Ravena": [{"Name": "Ravena", "Country Code": "US", "Population": 3267.0, "Lat": 42.46841, "Lon": -73.81624}], "Ravenel": [{"Name": "Ravenel", "Country Code": "FR", "Population": 1064.0, "Lat": 49.51523, "Lon": 2.50192}, {"Name": "Ravenel", "Country Code": "US", "Population": 2600.0, "Lat": 32.76323, "Lon": -80.2501}], "Ravenhall": [{"Name": "Ravenhall", "Country Code": "AU", "Population": 1155.0, "Lat": -37.76552, "Lon": 144.75105}], "Ravenna": [{"Name": "Ravenna", "Country Code": "IT", "Population": 80868.0, "Lat": 44.41344, "Lon": 12.20121}, {"Name": "Ravenna", "Country Code": "US", "Population": 1213.0, "Lat": 43.18947, "Lon": -85.93699}, {"Name": "Ravenna", "Country Code": "US", "Population": 1373.0, "Lat": 41.02612, "Lon": -98.91258}, {"Name": "Ravenna", "Country Code": "US", "Population": 11619.0, "Lat": 41.15756, "Lon": -81.24205}], "Ravensbourne": [{"Name": "Ravensbourne", "Country Code": "NZ", "Population": 1209.0, "Lat": -45.86667, "Lon": 170.55}], "Ravensburg": [{"Name": "Ravensburg", "Country Code": "DE", "Population": 48825.0, "Lat": 47.78198, "Lon": 9.61062}], "Ravensdale": [{"Name": "Ravensdale", "Country Code": "US", "Population": 1101.0, "Lat": 47.35232, "Lon": -121.98373}], "Ravenshead": [{"Name": "Ravenshead", "Country Code": "GB", "Population": 5759.0, "Lat": 53.0865, "Lon": -1.16026}], "Ravenshoe": [{"Name": "Ravenshoe", "Country Code": "AU", "Population": 1452.0, "Lat": -17.60901, "Lon": 145.48413}], "Ravenstein": [{"Name": "Ravenstein", "Country Code": "NL", "Population": 1465.0, "Lat": 51.79667, "Lon": 5.65}], "Ravenstone": [{"Name": "Ravenstone", "Country Code": "GB", "Population": 1623.0, "Lat": 52.72111, "Lon": -1.40582}, {"Name": "Ravenstone", "Country Code": "GB", "Population": 0.0, "Lat": 52.14934, "Lon": -0.75874}], "Ravenswood": [{"Name": "Ravenswood", "Country Code": "AU", "Population": 3600.0, "Lat": -41.41593, "Lon": 147.1825}, {"Name": "Ravenswood", "Country Code": "AU", "Population": 2107.0, "Lat": -32.5824, "Lon": 115.8315}, {"Name": "Ravenswood", "Country Code": "US", "Population": 3843.0, "Lat": 38.94814, "Lon": -81.76096}], "Ravensworth": [{"Name": "Ravensworth", "Country Code": "US", "Population": 2466.0, "Lat": 38.804, "Lon": -77.22054}], "Raveo": [{"Name": "Raveo", "Country Code": "IT", "Population": 386.0, "Lat": 46.43392, "Lon": 12.87165}], "Raver": [{"Name": "R\u0101ver", "Country Code": "IN", "Population": 26635.0, "Lat": 21.24757, "Lon": 76.03509}], "Raviart": [{"Name": "Raviart", "Country Code": "CI", "Population": 7838.0, "Lat": 7.40422, "Lon": -4.88668}], "Ravieres": [{"Name": "Ravi\u00e8res", "Country Code": "FR", "Population": 1011.0, "Lat": 47.73475, "Lon": 4.22777}], "Ravina": [{"Name": "Ravina", "Country Code": "IT", "Population": 3093.0, "Lat": 46.03944, "Lon": 11.11215}], "Raviscanina": [{"Name": "Raviscanina", "Country Code": "IT", "Population": 629.0, "Lat": 41.3709, "Lon": 14.24335}], "Ravna Gora": [{"Name": "Ravna Gora", "Country Code": "HR", "Population": 1477.0, "Lat": 45.37278, "Lon": 14.93528}], "Ravne": [{"Name": "Ravne", "Country Code": "SI", "Population": 1092.0, "Lat": 46.41413, "Lon": 15.06087}], "Ravne na Koroskem": [{"Name": "Ravne na Koro\u0161kem", "Country Code": "SI", "Population": 6979.0, "Lat": 46.54306, "Lon": 14.96917}], "Ravni Topolovac": [{"Name": "Ravni Topolovac", "Country Code": "RS", "Population": 1656.0, "Lat": 45.46082, "Lon": 20.56939}], "Ravnje": [{"Name": "Ravnje", "Country Code": "RS", "Population": 1692.0, "Lat": 44.94326, "Lon": 19.4228}], "Ravno": [{"Name": "Ravno", "Country Code": "BA", "Population": 0.0, "Lat": 42.88741, "Lon": 17.96555}], "Ravno Selo": [{"Name": "Ravno Selo", "Country Code": "RS", "Population": 3574.0, "Lat": 45.44967, "Lon": 19.62097}], "Ravon": [{"Name": "Ravon", "Country Code": "UZ", "Population": 0.0, "Lat": 39.97724, "Lon": 71.13467}], "Rawa Mazowiecka": [{"Name": "Rawa Mazowiecka", "Country Code": "PL", "Population": 17770.0, "Lat": 51.76437, "Lon": 20.25493}], "Rawah": [{"Name": "R\u0101wah", "Country Code": "IQ", "Population": 13000.0, "Lat": 34.48229, "Lon": 41.91898}], "Rawai": [{"Name": "Rawai", "Country Code": "TH", "Population": 13623.0, "Lat": 7.77965, "Lon": 98.32532}], "Rawalakot": [{"Name": "Rawalakot", "Country Code": "PK", "Population": 50000.0, "Lat": 33.85782, "Lon": 73.76043}], "Rawalo": [{"Name": "Rawalo", "Country Code": "ID", "Population": 0.0, "Lat": -7.53694, "Lon": 109.17917}], "Rawalpindi": [{"Name": "Rawalpindi", "Country Code": "PK", "Population": 1743101.0, "Lat": 33.59733, "Lon": 73.0479}], "Rawang": [{"Name": "Rawang", "Country Code": "MY", "Population": 120447.0, "Lat": 3.3213, "Lon": 101.5767}], "Rawannawi Village": [{"Name": "Rawannawi Village", "Country Code": "KI", "Population": 1075.0, "Lat": 2.05379, "Lon": 173.26354}], "Rawatbhata": [{"Name": "R\u0101watbh\u0101ta", "Country Code": "IN", "Population": 36872.0, "Lat": 24.92981, "Lon": 75.59209}], "Rawatsar": [{"Name": "R\u0101wats\u0101r", "Country Code": "IN", "Population": 31016.0, "Lat": 29.26724, "Lon": 74.40288}], "Rawcliffe": [{"Name": "Rawcliffe", "Country Code": "GB", "Population": 1542.0, "Lat": 53.69777, "Lon": -0.96319}], "Rawdon": [{"Name": "Rawdon", "Country Code": "CA", "Population": 5188.0, "Lat": 46.05007, "Lon": -73.71587}], "Rawene": [{"Name": "Rawene", "Country Code": "NZ", "Population": 1236.0, "Lat": -35.40217, "Lon": 173.50317}], "Rawicz": [{"Name": "Rawicz", "Country Code": "PL", "Population": 21380.0, "Lat": 51.60946, "Lon": 16.85852}], "Rawlins": [{"Name": "Rawlins", "Country Code": "US", "Population": 9040.0, "Lat": 41.79107, "Lon": -107.23866}], "Rawls Springs": [{"Name": "Rawls Springs", "Country Code": "US", "Population": 1254.0, "Lat": 31.38073, "Lon": -89.37145}], "Rawmarsh": [{"Name": "Rawmarsh", "Country Code": "GB", "Population": 18616.0, "Lat": 53.46062, "Lon": -1.34437}], "Raworth": [{"Name": "Raworth", "Country Code": "AU", "Population": 1721.0, "Lat": -32.73333, "Lon": 151.61667}], "Rawson": [{"Name": "Rawson", "Country Code": "AR", "Population": 26335.0, "Lat": -43.30016, "Lon": -65.10228}], "Rawtenstall": [{"Name": "Rawtenstall", "Country Code": "GB", "Population": 22114.0, "Lat": 53.70076, "Lon": -2.28442}], "Raxaul": [{"Name": "Raxaul", "Country Code": "IN", "Population": 47965.0, "Lat": 26.97982, "Lon": 84.85065}], "Raxendorf": [{"Name": "Raxendorf", "Country Code": "AT", "Population": 319.0, "Lat": 48.34108, "Lon": 15.27666}], "Raxruha": [{"Name": "Raxruh\u00e1", "Country Code": "GT", "Population": 0.0, "Lat": 15.86587, "Lon": -90.04061}], "Ray": [{"Name": "R\u0101y", "Country Code": "IN", "Population": 5949.0, "Lat": 23.6843, "Lon": 85.05457}], "Ray City": [{"Name": "Ray City", "Country Code": "US", "Population": 1053.0, "Lat": 31.07464, "Lon": -83.19932}], "Raya": [{"Name": "R\u0101ya", "Country Code": "IN", "Population": 20008.0, "Lat": 27.55607, "Lon": 77.78972}], "Raya Zaragoza": [{"Name": "Raya Zaragoza", "Country Code": "MX", "Population": 1471.0, "Lat": 17.40595, "Lon": -92.68519}], "Rayaces": [{"Name": "Rayaces", "Country Code": "ES", "Population": 0.0, "Lat": 41.92137, "Lon": -4.71401}], "Rayachoti": [{"Name": "R\u0101yachoti", "Country Code": "IN", "Population": 81433.0, "Lat": 14.05723, "Lon": 78.75056}], "Rayadrug": [{"Name": "R\u0101yadrug", "Country Code": "IN", "Population": 59968.0, "Lat": 14.69971, "Lon": 76.85241}], "Raybag": [{"Name": "Raybag", "Country Code": "IN", "Population": 17389.0, "Lat": 16.49178, "Lon": 74.77391}], "Raychikhinsk": [{"Name": "Raychikhinsk", "Country Code": "RU", "Population": 23745.0, "Lat": 49.78998, "Lon": 129.40992}], "Raydah": [{"Name": "Raydah", "Country Code": "YE", "Population": 0.0, "Lat": 15.81421, "Lon": 44.04085}], "Rayevskaya": [{"Name": "Rayevskaya", "Country Code": "RU", "Population": 8518.0, "Lat": 44.83571, "Lon": 37.55577}], "Rayevskiy": [{"Name": "Rayevskiy", "Country Code": "RU", "Population": 20060.0, "Lat": 54.0658, "Lon": 54.9468}], "Rayleigh": [{"Name": "Rayleigh", "Country Code": "GB", "Population": 32150.0, "Lat": 51.58571, "Lon": 0.60459}], "Raymond": [{"Name": "Raymond", "Country Code": "CA", "Population": 3708.0, "Lat": 49.46382, "Lon": -112.66024}, {"Name": "Raymond", "Country Code": "US", "Population": 2815.0, "Lat": 46.68649, "Lon": -123.73294}, {"Name": "Raymond", "Country Code": "US", "Population": 2225.0, "Lat": 32.25931, "Lon": -90.4226}, {"Name": "Raymond", "Country Code": "US", "Population": 2855.0, "Lat": 43.0362, "Lon": -71.1834}, {"Name": "Raymond", "Country Code": "US", "Population": 4649.0, "Lat": 43.90146, "Lon": -70.47033}], "Raymond Terrace": [{"Name": "Raymond Terrace", "Country Code": "AU", "Population": 12620.0, "Lat": -32.75952, "Lon": 151.7505}], "Raymondville": [{"Name": "Raymondville", "Country Code": "US", "Population": 11139.0, "Lat": 26.48146, "Lon": -97.78305}], "Raymore": [{"Name": "Raymore", "Country Code": "US", "Population": 20374.0, "Lat": 38.80195, "Lon": -94.45273}], "Raymun": [{"Name": "Raym\u016bn", "Country Code": "JO", "Population": 6082.0, "Lat": 32.28202, "Lon": 35.82779}], "Raymundo Enriquez": [{"Name": "Raymundo Enr\u00edquez", "Country Code": "MX", "Population": 3049.0, "Lat": 14.86722, "Lon": -92.31466}], "Rayne": [{"Name": "Rayne", "Country Code": "GB", "Population": 2018.0, "Lat": 51.86667, "Lon": 0.58333}, {"Name": "Rayne", "Country Code": "US", "Population": 8016.0, "Lat": 30.23493, "Lon": -92.26846}], "Raynham": [{"Name": "Raynham", "Country Code": "US", "Population": 13153.0, "Lat": 41.94871, "Lon": -71.0731}], "Raynham Center": [{"Name": "Raynham Center", "Country Code": "US", "Population": 4100.0, "Lat": 41.92371, "Lon": -71.05227}], "Rayon": [{"Name": "Ray\u00f3n", "Country Code": "MX", "Population": 5895.0, "Lat": 17.20137, "Lon": -93.0111}, {"Name": "Ray\u00f3n", "Country Code": "MX", "Population": 5928.0, "Lat": 21.84329, "Lon": -99.64258}, {"Name": "Ray\u00f3n", "Country Code": "MX", "Population": 1382.0, "Lat": 29.71195, "Lon": -110.56749}], "Rayones": [{"Name": "Rayones", "Country Code": "MX", "Population": 361.0, "Lat": 25.01799, "Lon": -100.07362}], "Rayong": [{"Name": "Rayong", "Country Code": "TH", "Population": 106737.0, "Lat": 12.68095, "Lon": 101.25798}], "Rayside-Balfour": [{"Name": "Rayside-Balfour", "Country Code": "CA", "Population": 14557.0, "Lat": 46.60873, "Lon": -81.20763}], "Raytown": [{"Name": "Raytown", "Country Code": "US", "Population": 29401.0, "Lat": 39.00862, "Lon": -94.46356}], "Rayville": [{"Name": "Rayville", "Country Code": "US", "Population": 3664.0, "Lat": 32.47736, "Lon": -91.75485}], "Razac-sur-l'Isle": [{"Name": "Razac-sur-l'Isle", "Country Code": "FR", "Population": 2470.0, "Lat": 45.16382, "Lon": 0.59976}], "Razam": [{"Name": "R\u0101z\u0101m", "Country Code": "IN", "Population": 27832.0, "Lat": 18.44909, "Lon": 83.65957}], "Razampeta": [{"Name": "R\u0101zampeta", "Country Code": "IN", "Population": 31079.0, "Lat": 14.19544, "Lon": 79.15896}], "Razan": [{"Name": "Razan", "Country Code": "IR", "Population": 0.0, "Lat": 35.38625, "Lon": 49.0334}], "Razanac": [{"Name": "Ra\u017eanac", "Country Code": "HR", "Population": 883.0, "Lat": 44.28194, "Lon": 15.34806}], "Razanj": [{"Name": "Ra\u017eanj", "Country Code": "RS", "Population": 0.0, "Lat": 43.67222, "Lon": 21.54944}], "Razay Balochi": [{"Name": "R\u0101\u1e95ay Balochi", "Country Code": "AF", "Population": 2000.0, "Lat": 31.46404, "Lon": 62.69955}], "Razboieni": [{"Name": "R\u0103zboieni", "Country Code": "RO", "Population": 1200.0, "Lat": 47.21754, "Lon": 27.05039}], "Razboieni-Cetate": [{"Name": "R\u0103zboieni-Cetate", "Country Code": "RO", "Population": 1508.0, "Lat": 46.41335, "Lon": 23.87158}], "Razboienii de Jos": [{"Name": "R\u0103zboienii de Jos", "Country Code": "RO", "Population": 659.0, "Lat": 47.06887, "Lon": 26.56374}], "Razdol'noye": [{"Name": "Razdol\u2019noye", "Country Code": "RU", "Population": 7567.0, "Lat": 43.53894, "Lon": 131.89691}, {"Name": "Razdol\u2019noye", "Country Code": "UA", "Population": 7326.0, "Lat": 45.77083, "Lon": 33.48777}, {"Name": "Razdol\u2019noye", "Country Code": "UA", "Population": 1008.0, "Lat": 45.36161, "Lon": 34.85482}], "Razdolinsk": [{"Name": "Razdolinsk", "Country Code": "RU", "Population": 2762.0, "Lat": 58.418, "Lon": 94.616}], "Razes": [{"Name": "Raz\u00e8s", "Country Code": "FR", "Population": 1034.0, "Lat": 46.03337, "Lon": 1.34415}], "Razgrad": [{"Name": "Razgrad", "Country Code": "BG", "Population": 38285.0, "Lat": 43.53333, "Lon": 26.51667}], "Razkrizje": [{"Name": "Razkri\u017eje", "Country Code": "SI", "Population": 252.0, "Lat": 46.52167, "Lon": 16.28111}], "Razliv": [{"Name": "Razliv", "Country Code": "RU", "Population": 1230.0, "Lat": 60.07919, "Lon": 29.97206}], "Razlog": [{"Name": "Razlog", "Country Code": "BG", "Population": 12486.0, "Lat": 41.8863, "Lon": 23.46714}], "Razole": [{"Name": "R\u0101zole", "Country Code": "IN", "Population": 14204.0, "Lat": 16.47608, "Lon": 81.83912}], "Razorback": [{"Name": "Razorback", "Country Code": "AU", "Population": 1089.0, "Lat": -34.15237, "Lon": 150.65308}], "Razumnoye": [{"Name": "Razumnoye", "Country Code": "RU", "Population": 15529.0, "Lat": 50.53439, "Lon": 36.68462}], "Razvad": [{"Name": "R\u0103zvad", "Country Code": "RO", "Population": 8305.0, "Lat": 44.93333, "Lon": 25.53333}], "Razvani": [{"Name": "R\u0103zvani", "Country Code": "RO", "Population": 2153.0, "Lat": 44.42114, "Lon": 26.88092}], "Razvanje": [{"Name": "Razvanje", "Country Code": "SI", "Population": 1357.0, "Lat": 46.51444, "Lon": 15.63611}], "Razvilka": [{"Name": "Razvilka", "Country Code": "RU", "Population": 8701.0, "Lat": 55.59209, "Lon": 37.74085}], "Razzakov": [{"Name": "Razzakov", "Country Code": "KG", "Population": 34219.0, "Lat": 39.83895, "Lon": 69.5276}], "Re": [{"Name": "Re", "Country Code": "IT", "Population": 502.0, "Lat": 46.13148, "Lon": 8.54569}], "Rea": [{"Name": "Rea", "Country Code": "IT", "Population": 424.0, "Lat": 45.11336, "Lon": 9.15465}], "Readfield": [{"Name": "Readfield", "Country Code": "US", "Population": 2454.0, "Lat": 44.38785, "Lon": -69.96672}], "Reading": [{"Name": "Reading", "Country Code": "GB", "Population": 318014.0, "Lat": 51.45625, "Lon": -0.97113}, {"Name": "Reading", "Country Code": "US", "Population": 10324.0, "Lat": 39.22367, "Lon": -84.44216}, {"Name": "Reading", "Country Code": "US", "Population": 24747.0, "Lat": 42.52565, "Lon": -71.09533}, {"Name": "Reading", "Country Code": "US", "Population": 1056.0, "Lat": 41.83949, "Lon": -84.74801}, {"Name": "Reading", "Country Code": "US", "Population": 87879.0, "Lat": 40.33565, "Lon": -75.92687}], "Real": [{"Name": "Real", "Country Code": "PH", "Population": 2256.0, "Lat": 15.8089, "Lon": 120.34549}, {"Name": "Real", "Country Code": "PH", "Population": 9163.0, "Lat": 14.66397, "Lon": 121.60412}, {"Name": "Real", "Country Code": "PT", "Population": 11700.0, "Lat": 41.55841, "Lon": -8.4433}], "Real Hacienda (Metropolis)": [{"Name": "Real Hacienda (Metr\u00f3polis)", "Country Code": "MX", "Population": 3921.0, "Lat": 19.75056, "Lon": -101.19694}], "Real de Catorce": [{"Name": "Real de Catorce", "Country Code": "MX", "Population": 1392.0, "Lat": 23.68996, "Lon": -100.88676}], "Real de Gandia": [{"Name": "Real de Gand\u00eda", "Country Code": "ES", "Population": 1892.0, "Lat": 38.94817, "Lon": -0.19239}], "Real de Montroi": [{"Name": "Real de Montroi", "Country Code": "ES", "Population": 2031.0, "Lat": 39.33333, "Lon": -0.6}], "Real del Sol": [{"Name": "Real del Sol", "Country Code": "MX", "Population": 5983.0, "Lat": 25.93833, "Lon": -100.18111}], "Real del Valle (El Paraiso) [Fraccionamiento]": [{"Name": "Real del Valle (El Para\u00edso) [Fraccionamiento]", "Country Code": "MX", "Population": 13949.0, "Lat": 20.54556, "Lon": -103.36972}], "Realejo Alto": [{"Name": "Realejo Alto", "Country Code": "ES", "Population": 35963.0, "Lat": 28.37645, "Lon": -16.58575}], "Realeza": [{"Name": "Realeza", "Country Code": "BR", "Population": 10389.0, "Lat": -25.76889, "Lon": -53.5325}], "Realico": [{"Name": "Realic\u00f3", "Country Code": "AR", "Population": 7151.0, "Lat": -35.03821, "Lon": -64.24631}], "Realmont": [{"Name": "R\u00e9almont", "Country Code": "FR", "Population": 3129.0, "Lat": 43.77754, "Lon": 2.18885}], "Realmonte": [{"Name": "Realmonte", "Country Code": "IT", "Population": 3443.0, "Lat": 37.30847, "Lon": 13.46429}], "Realville": [{"Name": "R\u00e9alville", "Country Code": "FR", "Population": 1664.0, "Lat": 44.11463, "Lon": 1.47955}], "Reamstown": [{"Name": "Reamstown", "Country Code": "US", "Population": 3361.0, "Lat": 40.21148, "Lon": -76.12328}], "Reana del Roiale": [{"Name": "Reana del Roiale", "Country Code": "IT", "Population": 4336.0, "Lat": 46.13733, "Lon": 13.2232}], "Reana del Rojale": [{"Name": "Reana del Rojale", "Country Code": "IT", "Population": 4726.0, "Lat": 46.14322, "Lon": 13.24653}], "Reano": [{"Name": "Reano", "Country Code": "IT", "Population": 1598.0, "Lat": 45.05217, "Lon": 7.42779}], "Rebais": [{"Name": "Rebais", "Country Code": "FR", "Population": 2081.0, "Lat": 48.84721, "Lon": 3.23232}], "Rebe": [{"Name": "Rebe", "Country Code": "PH", "Population": 4413.0, "Lat": 7.9076, "Lon": 123.8155}], "Rebecq-Rognon": [{"Name": "Rebecq-Rognon", "Country Code": "BE", "Population": 10049.0, "Lat": 50.65147, "Lon": 4.10683}], "Rebola": [{"Name": "Rebola", "Country Code": "GQ", "Population": 5450.0, "Lat": 3.71667, "Lon": 8.83333}], "Rebolledo de la Torre": [{"Name": "Rebolledo de la Torre", "Country Code": "ES", "Population": 168.0, "Lat": 42.68931, "Lon": -4.22693}], "Rebollo": [{"Name": "Rebollo", "Country Code": "ES", "Population": 130.0, "Lat": 41.19318, "Lon": -3.85771}], "Rebollosa de Jadraque": [{"Name": "Rebollosa de Jadraque", "Country Code": "ES", "Population": 32.0, "Lat": 41.0904, "Lon": -2.84201}], "Rebordoes": [{"Name": "Rebord\u00f5es", "Country Code": "PT", "Population": 3368.0, "Lat": 41.35509, "Lon": -8.42355}], "Rebordosa": [{"Name": "Rebordosa", "Country Code": "PT", "Population": 11491.0, "Lat": 41.22405, "Lon": -8.40669}], "Rebra": [{"Name": "Rebra", "Country Code": "RO", "Population": 3028.0, "Lat": 47.31667, "Lon": 24.5}], "Rebrechien": [{"Name": "Rebr\u00e9chien", "Country Code": "FR", "Population": 1236.0, "Lat": 47.98727, "Lon": 2.04432}], "Rebricea": [{"Name": "Rebricea", "Country Code": "RO", "Population": 3605.0, "Lat": 46.86667, "Lon": 27.55}], "Rebrikha": [{"Name": "Rebrikha", "Country Code": "RU", "Population": 8858.0, "Lat": 53.07333, "Lon": 82.34083}], "Rebrisoara": [{"Name": "Rebri\u015foara", "Country Code": "RO", "Population": 4637.0, "Lat": 47.28333, "Lon": 24.45}], "Rebstein": [{"Name": "Rebstein", "Country Code": "CH", "Population": 4163.0, "Lat": 47.39812, "Lon": 9.58503}], "Recale": [{"Name": "Recale", "Country Code": "IT", "Population": 7553.0, "Lat": 41.05702, "Lon": 14.3027}], "Recanati": [{"Name": "Recanati", "Country Code": "IT", "Population": 14337.0, "Lat": 43.40381, "Lon": 13.55379}], "Recani": [{"Name": "Re\u00e7ani", "Country Code": "MA", "Population": 20469.0, "Lat": 31.28318, "Lon": -4.26565}], "Recany nad Labem": [{"Name": "\u0158e\u010dany nad Labem", "Country Code": "CZ", "Population": 1364.0, "Lat": 50.03589, "Lon": 15.47735}], "Recarei": [{"Name": "Recarei", "Country Code": "PT", "Population": 4856.0, "Lat": 41.15356, "Lon": -8.41178}], "Recas": [{"Name": "Recas", "Country Code": "ES", "Population": 2877.0, "Lat": 40.05286, "Lon": -3.9909}, {"Name": "Reca\u015f", "Country Code": "RO", "Population": 8508.0, "Lat": 45.79889, "Lon": 21.50083}], "Recco": [{"Name": "Recco", "Country Code": "IT", "Population": 9680.0, "Lat": 44.36227, "Lon": 9.14354}], "Recea": [{"Name": "Recea", "Country Code": "RO", "Population": 1028.0, "Lat": 44.31949, "Lon": 22.91659}, {"Name": "Recea", "Country Code": "RO", "Population": 5360.0, "Lat": 47.63333, "Lon": 23.51667}, {"Name": "Recea", "Country Code": "RO", "Population": 3229.0, "Lat": 44.53333, "Lon": 25.01667}, {"Name": "Recea", "Country Code": "RO", "Population": 3213.0, "Lat": 45.71334, "Lon": 24.93152}], "Recea Cristur": [{"Name": "Recea Cristur", "Country Code": "RO", "Population": 1680.0, "Lat": 47.06667, "Lon": 23.53333}], "Recetor": [{"Name": "Recetor", "Country Code": "CO", "Population": 205.0, "Lat": 5.22947, "Lon": -72.76099}], "Recetto": [{"Name": "Recetto", "Country Code": "IT", "Population": 838.0, "Lat": 45.45965, "Lon": 8.43503}], "Rechberghausen": [{"Name": "Rechberghausen", "Country Code": "DE", "Population": 5557.0, "Lat": 48.7308, "Lon": 9.64419}], "Rechenberg-Bienenmuehle": [{"Name": "Rechenberg-Bienenm\u00fchle", "Country Code": "DE", "Population": 2506.0, "Lat": 50.73777, "Lon": 13.53502}], "Rechitsy": [{"Name": "Rechitsy", "Country Code": "RU", "Population": 3436.0, "Lat": 55.59754, "Lon": 38.47134}], "Rechka": [{"Name": "Rechka", "Country Code": "UA", "Population": 2075.0, "Lat": 48.28034, "Lon": 24.9333}], "Rechka-Vydrino": [{"Name": "Rechka-Vydrino", "Country Code": "RU", "Population": 5211.0, "Lat": 51.487, "Lon": 104.848}], "Rechlin": [{"Name": "Rechlin", "Country Code": "DE", "Population": 2357.0, "Lat": 53.33549, "Lon": 12.72543}], "Rechnitz": [{"Name": "Rechnitz", "Country Code": "AT", "Population": 3054.0, "Lat": 47.30467, "Lon": 16.44095}], "Recht": [{"Name": "Recht", "Country Code": "BE", "Population": 1305.0, "Lat": 50.33801, "Lon": 6.04883}], "Rechtenbach": [{"Name": "Rechtenbach", "Country Code": "DE", "Population": 1046.0, "Lat": 49.98306, "Lon": 9.50833}], "Rechthalten": [{"Name": "Rechthalten", "Country Code": "CH", "Population": 1058.0, "Lat": 46.76766, "Lon": 7.24028}], "Rechtmehring": [{"Name": "Rechtmehring", "Country Code": "DE", "Population": 1772.0, "Lat": 48.12478, "Lon": 12.16063}], "Rechtsupweg": [{"Name": "Rechtsupweg", "Country Code": "DE", "Population": 2121.0, "Lat": 53.53333, "Lon": 7.33333}], "Rechytsa": [{"Name": "Rechytsa", "Country Code": "BY", "Population": 65400.0, "Lat": 52.3617, "Lon": 30.3916}], "Reci": [{"Name": "Reci", "Country Code": "RO", "Population": 2204.0, "Lat": 45.85, "Lon": 25.93333}], "Recica ob Savinji": [{"Name": "Re\u010dica ob Savinji", "Country Code": "SI", "Population": 516.0, "Lat": 46.31667, "Lon": 14.91667}], "Recife": [{"Name": "Recife", "Country Code": "BR", "Population": 1653461.0, "Lat": -8.05389, "Lon": -34.88111}], "Reckange-sur-Mess": [{"Name": "Reckange-sur-Mess", "Country Code": "LU", "Population": 571.0, "Lat": 49.5625, "Lon": 6.00889}], "Recke": [{"Name": "Recke", "Country Code": "DE", "Population": 11800.0, "Lat": 52.36885, "Lon": 7.72116}], "Recklinghausen": [{"Name": "Recklinghausen", "Country Code": "DE", "Population": 122438.0, "Lat": 51.61379, "Lon": 7.19738}], "Recoaro Terme": [{"Name": "Recoaro Terme", "Country Code": "IT", "Population": 3259.0, "Lat": 45.70373, "Lon": 11.22216}], "Recodo": [{"Name": "Recodo", "Country Code": "PH", "Population": 42788.0, "Lat": 6.95194, "Lon": 121.96361}, {"Name": "Recodo", "Country Code": "PH", "Population": 2160.0, "Lat": 11.94914, "Lon": 123.73695}], "Recogne": [{"Name": "Recogne", "Country Code": "BE", "Population": 1810.0, "Lat": 49.91232, "Lon": 5.3537}], "Reconquista": [{"Name": "Reconquista", "Country Code": "AR", "Population": 90184.0, "Lat": -29.15, "Lon": -59.65}], "Reconvilier": [{"Name": "Reconvilier", "Country Code": "CH", "Population": 2291.0, "Lat": 47.23431, "Lon": 7.22239}], "Recoveco": [{"Name": "Recoveco", "Country Code": "MX", "Population": 1618.0, "Lat": 24.99356, "Lon": -107.72796}], "Recquignies": [{"Name": "Recquignies", "Country Code": "FR", "Population": 2560.0, "Lat": 50.28396, "Lon": 4.03722}], "Recreio": [{"Name": "Recreio", "Country Code": "BR", "Population": 8882.0, "Lat": -21.525, "Lon": -42.46917}], "Recreo": [{"Name": "Recreo", "Country Code": "AR", "Population": 12798.0, "Lat": -31.49076, "Lon": -60.73299}, {"Name": "Recreo", "Country Code": "AR", "Population": 14204.0, "Lat": -29.28184, "Lon": -65.06096}], "Recsk": [{"Name": "Recsk", "Country Code": "HU", "Population": 2992.0, "Lat": 47.93333, "Lon": 20.11667}], "Rector": [{"Name": "Rector", "Country Code": "US", "Population": 1840.0, "Lat": 36.26312, "Lon": -90.2926}], "Recuay": [{"Name": "Recuay", "Country Code": "PE", "Population": 0.0, "Lat": -9.72215, "Lon": -77.4563}], "Recuerda": [{"Name": "Recuerda", "Country Code": "ES", "Population": 114.0, "Lat": 41.47408, "Lon": -2.9946}], "Recz": [{"Name": "Recz", "Country Code": "PL", "Population": 2992.0, "Lat": 53.25989, "Lon": 15.54713}], "Reczno": [{"Name": "R\u0119czno", "Country Code": "PL", "Population": 690.0, "Lat": 51.19026, "Lon": 19.85375}], "Red Bank": [{"Name": "Red Bank", "Country Code": "US", "Population": 11769.0, "Lat": 35.11229, "Lon": -85.29413}, {"Name": "Red Bank", "Country Code": "US", "Population": 12204.0, "Lat": 40.34705, "Lon": -74.06431}, {"Name": "Red Bank", "Country Code": "US", "Population": 9617.0, "Lat": 33.93209, "Lon": -81.23843}], "Red Bay": [{"Name": "Red Bay", "Country Code": "US", "Population": 3131.0, "Lat": 34.43982, "Lon": -88.14087}], "Red Bluff": [{"Name": "Red Bluff", "Country Code": "US", "Population": 14131.0, "Lat": 40.17849, "Lon": -122.23583}], "Red Boiling Springs": [{"Name": "Red Boiling Springs", "Country Code": "US", "Population": 1140.0, "Lat": 36.53339, "Lon": -85.84998}], "Red Bud": [{"Name": "Red Bud", "Country Code": "US", "Population": 3586.0, "Lat": 38.21172, "Lon": -89.99427}], "Red Chute": [{"Name": "Red Chute", "Country Code": "US", "Population": 6261.0, "Lat": 32.55598, "Lon": -93.61323}], "Red Cliffs": [{"Name": "Red Cliffs", "Country Code": "AU", "Population": 5294.0, "Lat": -34.30942, "Lon": 142.18971}], "Red Cloud": [{"Name": "Red Cloud", "Country Code": "US", "Population": 963.0, "Lat": 40.0889, "Lon": -98.5195}], "Red Corral": [{"Name": "Red Corral", "Country Code": "US", "Population": 1413.0, "Lat": 38.41165, "Lon": -120.60552}], "Red Deer": [{"Name": "Red Deer", "Country Code": "CA", "Population": 73593.0, "Lat": 52.26682, "Lon": -113.802}], "Red Hill": [{"Name": "Red Hill", "Country Code": "AU", "Population": 5406.0, "Lat": -20.31667, "Lon": 148.5}, {"Name": "Red Hill", "Country Code": "AU", "Population": 5390.0, "Lat": -27.45247, "Lon": 153.00208}, {"Name": "Red Hill", "Country Code": "AU", "Population": 3085.0, "Lat": -35.32624, "Lon": 149.11906}, {"Name": "Red Hill", "Country Code": "NZ", "Population": 2556.0, "Lat": -37.0582, "Lon": 174.97019}, {"Name": "Red Hill", "Country Code": "US", "Population": 13223.0, "Lat": 33.82073, "Lon": -79.01892}, {"Name": "Red Hill", "Country Code": "US", "Population": 2383.0, "Lat": 40.37288, "Lon": -75.48101}, {"Name": "Red Hill", "Country Code": "US", "Population": 13223.0, "Lat": 33.99961, "Lon": -79.2581}], "Red Hook": [{"Name": "Red Hook", "Country Code": "US", "Population": 1990.0, "Lat": 41.99509, "Lon": -73.87541}], "Red Lake": [{"Name": "Red Lake", "Country Code": "CA", "Population": 1177.0, "Lat": 51.06676, "Lon": -93.73373}, {"Name": "Red Lake", "Country Code": "CA", "Population": 4366.0, "Lat": 51.01678, "Lon": -93.82736}, {"Name": "Red Lake", "Country Code": "US", "Population": 1731.0, "Lat": 47.87635, "Lon": -95.01694}], "Red Lake Falls": [{"Name": "Red Lake Falls", "Country Code": "US", "Population": 1406.0, "Lat": 47.88219, "Lon": -96.27421}], "Red Lick": [{"Name": "Red Lick", "Country Code": "US", "Population": 1006.0, "Lat": 33.46485, "Lon": -94.17103}], "Red Lion": [{"Name": "Red Lion", "Country Code": "US", "Population": 6321.0, "Lat": 39.90093, "Lon": -76.6058}, {"Name": "Red Lion", "Country Code": "US", "Population": 6055.0, "Lat": 40.48065, "Lon": -75.61602}], "Red Lodge": [{"Name": "Red Lodge", "Country Code": "US", "Population": 2222.0, "Lat": 45.18578, "Lon": -109.24682}], "Red Oak": [{"Name": "Red Oak", "Country Code": "US", "Population": 3424.0, "Lat": 36.03849, "Lon": -77.90637}, {"Name": "Red Oak", "Country Code": "US", "Population": 5472.0, "Lat": 41.00972, "Lon": -95.22555}, {"Name": "Red Oak", "Country Code": "US", "Population": 12022.0, "Lat": 32.51764, "Lon": -96.80444}], "Red Oaks Mill": [{"Name": "Red Oaks Mill", "Country Code": "US", "Population": 3613.0, "Lat": 41.65565, "Lon": -73.87486}], "Red Springs": [{"Name": "Red Springs", "Country Code": "US", "Population": 3433.0, "Lat": 34.81516, "Lon": -79.18309}], "Red Wing": [{"Name": "Red Wing", "Country Code": "US", "Population": 16445.0, "Lat": 44.56247, "Lon": -92.5338}], "Reda": [{"Name": "Reda", "Country Code": "PL", "Population": 18116.0, "Lat": 54.60528, "Lon": 18.34717}], "Redan": [{"Name": "Redan", "Country Code": "AU", "Population": 2852.0, "Lat": -37.57649, "Lon": 143.83862}, {"Name": "Redan", "Country Code": "US", "Population": 33015.0, "Lat": 33.74538, "Lon": -84.13158}], "Redange-sur-Attert": [{"Name": "Redange-sur-Attert", "Country Code": "LU", "Population": 1164.0, "Lat": 49.76437, "Lon": 5.88997}], "Redavalle": [{"Name": "Redavalle", "Country Code": "IT", "Population": 1015.0, "Lat": 45.03796, "Lon": 9.20225}], "Redbank": [{"Name": "Redbank", "Country Code": "AU", "Population": 1815.0, "Lat": -27.6, "Lon": 152.86667}], "Redbank Plains": [{"Name": "Redbank Plains", "Country Code": "AU", "Population": 19094.0, "Lat": -27.64613, "Lon": 152.85965}], "Redbourn": [{"Name": "Redbourn", "Country Code": "GB", "Population": 5113.0, "Lat": 51.79896, "Lon": -0.39594}], "Redbourne": [{"Name": "Redbourne", "Country Code": "GB", "Population": 400.0, "Lat": 53.48728, "Lon": -0.53567}], "Redby": [{"Name": "Redby", "Country Code": "US", "Population": 1334.0, "Lat": 47.87857, "Lon": -94.91305}], "Redcar": [{"Name": "Redcar", "Country Code": "GB", "Population": 37203.0, "Lat": 54.61657, "Lon": -1.05999}], "Redcliff": [{"Name": "Redcliff", "Country Code": "ZW", "Population": 41526.0, "Lat": -19.03333, "Lon": 29.78333}], "Redcliffe": [{"Name": "Redcliffe", "Country Code": "AU", "Population": 4904.0, "Lat": -31.93845, "Lon": 115.94645}], "Redcliffs": [{"Name": "Redcliffs", "Country Code": "NZ", "Population": 2080.0, "Lat": -43.56152, "Lon": 172.73654}], "Redding": [{"Name": "Redding", "Country Code": "GB", "Population": 2540.0, "Lat": 55.98861, "Lon": -3.7323}, {"Name": "Redding", "Country Code": "US", "Population": 91582.0, "Lat": 40.58654, "Lon": -122.39168}], "Reddingmuirhead": [{"Name": "Reddingmuirhead", "Country Code": "GB", "Population": 1580.0, "Lat": 55.98026, "Lon": -3.74853}], "Redditch": [{"Name": "Redditch", "Country Code": "GB", "Population": 84300.0, "Lat": 52.3065, "Lon": -1.94569}], "Reddivaripalle": [{"Name": "Reddivaripalle", "Country Code": "IN", "Population": 2324.0, "Lat": 13.6031, "Lon": 79.0466}], "Redea": [{"Name": "Redea", "Country Code": "RO", "Population": 3217.0, "Lat": 44.05, "Lon": 24.3}], "Redecilla del Camino": [{"Name": "Redecilla del Camino", "Country Code": "ES", "Population": 143.0, "Lat": 42.43804, "Lon": -3.06547}], "Redecilla del Campo": [{"Name": "Redecilla del Campo", "Country Code": "ES", "Population": 79.0, "Lat": 42.46675, "Lon": -3.11531}], "Redencao": [{"Name": "Reden\u00e7\u00e3o", "Country Code": "BR", "Population": 14174.0, "Lat": -4.22583, "Lon": -38.73056}, {"Name": "Reden\u00e7\u00e3o", "Country Code": "BR", "Population": 82464.0, "Lat": -8.02861, "Lon": -50.03139}], "Redene": [{"Name": "R\u00e9den\u00e9", "Country Code": "FR", "Population": 2456.0, "Lat": 47.85994, "Lon": -3.46148}], "Redessan": [{"Name": "Redessan", "Country Code": "FR", "Population": 3113.0, "Lat": 43.83147, "Lon": 4.49628}], "Redfern": [{"Name": "Redfern", "Country Code": "AU", "Population": 13052.0, "Lat": -33.89279, "Lon": 151.20415}], "Redfield": [{"Name": "Redfield", "Country Code": "US", "Population": 2379.0, "Lat": 44.87581, "Lon": -98.51871}, {"Name": "Redfield", "Country Code": "US", "Population": 1541.0, "Lat": 34.4451, "Lon": -92.1832}], "Redford": [{"Name": "Redford", "Country Code": "US", "Population": 49936.0, "Lat": 42.38337, "Lon": -83.2966}], "Redgranite": [{"Name": "Redgranite", "Country Code": "US", "Population": 2113.0, "Lat": 44.04192, "Lon": -89.09845}], "Redhead": [{"Name": "Redhead", "Country Code": "AU", "Population": 3390.0, "Lat": -33.01178, "Lon": 151.71142}], "Redhill": [{"Name": "Redhill", "Country Code": "GB", "Population": 51559.0, "Lat": 51.24048, "Lon": -0.17044}, {"Name": "Redhill", "Country Code": "ZA", "Population": 23153.0, "Lat": -26.26074, "Lon": 30.82545}], "Reding": [{"Name": "Reding", "Country Code": "AT", "Population": 2914.0, "Lat": 46.81667, "Lon": 14.85}, {"Name": "R\u00e9ding", "Country Code": "FR", "Population": 2432.0, "Lat": 48.75177, "Lon": 7.10747}], "Redington Beach": [{"Name": "Redington Beach", "Country Code": "US", "Population": 1471.0, "Lat": 27.80864, "Lon": -82.81121}], "Redington Shores": [{"Name": "Redington Shores", "Country Code": "US", "Population": 2205.0, "Lat": 27.82614, "Lon": -82.82899}], "Rediu": [{"Name": "Rediu", "Country Code": "RO", "Population": 1118.0, "Lat": 48.23075, "Lon": 26.77841}, {"Name": "Rediu", "Country Code": "RO", "Population": 6548.0, "Lat": 47.21667, "Lon": 27.5}, {"Name": "Rediu", "Country Code": "RO", "Population": 5182.0, "Lat": 46.75598, "Lon": 26.56254}, {"Name": "Rediu", "Country Code": "RO", "Population": 3855.0, "Lat": 45.71667, "Lon": 27.83333}, {"Name": "Rediu", "Country Code": "RO", "Population": 1413.0, "Lat": 47.24033, "Lon": 26.86406}, {"Name": "Rediu", "Country Code": "RO", "Population": 1061.0, "Lat": 46.63374, "Lon": 27.69439}], "Redkey": [{"Name": "Redkey", "Country Code": "US", "Population": 1344.0, "Lat": 40.34893, "Lon": -85.14997}], "Redkino": [{"Name": "Redkino", "Country Code": "RU", "Population": 11507.0, "Lat": 56.64754, "Lon": 36.29674}], "Redland": [{"Name": "Redland", "Country Code": "US", "Population": 1047.0, "Lat": 31.40435, "Lon": -94.72132}, {"Name": "Redland", "Country Code": "US", "Population": 17242.0, "Lat": 39.14539, "Lon": -77.14415}], "Redland Bay": [{"Name": "Redland Bay", "Country Code": "AU", "Population": 14626.0, "Lat": -27.6113, "Lon": 153.30022}], "Redlands": [{"Name": "Redlands", "Country Code": "US", "Population": 71035.0, "Lat": 34.05557, "Lon": -117.18254}, {"Name": "Redlands", "Country Code": "US", "Population": 8685.0, "Lat": 39.07887, "Lon": -108.63565}], "Redlham": [{"Name": "Redlham", "Country Code": "AT", "Population": 389.0, "Lat": 48.02443, "Lon": 13.74738}], "Redlynch": [{"Name": "Redlynch", "Country Code": "AU", "Population": 9666.0, "Lat": -16.9254, "Lon": 145.69559}, {"Name": "Redlynch", "Country Code": "GB", "Population": 2674.0, "Lat": 51.09861, "Lon": -2.42667}], "Redmond": [{"Name": "Redmond", "Country Code": "US", "Population": 60598.0, "Lat": 47.67399, "Lon": -122.12151},