{"Erembodegem": [{"Name": "Erembodegem", "Country Code": "BE", "Population": 12152.0, "Lat": 50.91905, "Lon": 4.05041}], "Eremitu": [{"Name": "Eremitu", "Country Code": "RO", "Population": 3818.0, "Lat": 46.66667, "Lon": 24.93333}], "Eremo": [{"Name": "Eremo", "Country Code": "IT", "Population": 5232.0, "Lat": 45.13119, "Lon": 10.74271}], "Erenas": [{"Name": "Erenas", "Country Code": "PH", "Population": 2243.0, "Lat": 12.4245, "Lon": 124.3238}], "Erenhot": [{"Name": "Erenhot", "Country Code": "CN", "Population": 16427.0, "Lat": 43.6475, "Lon": 111.97667}], "Erenler": [{"Name": "Erenler", "Country Code": "TR", "Population": 0.0, "Lat": 40.75504, "Lon": 30.39344}], "Erentepe": [{"Name": "Erentepe", "Country Code": "TR", "Population": 0.0, "Lat": 39.00893, "Lon": 42.04364}], "Eresing": [{"Name": "Eresing", "Country Code": "DE", "Population": 1709.0, "Lat": 48.087, "Lon": 11.02388}], "Eresos": [{"Name": "Eres\u00f3s", "Country Code": "GR", "Population": 1042.0, "Lat": 39.16973, "Lon": 25.93437}], "Eretria": [{"Name": "Er\u00e9tria", "Country Code": "GR", "Population": 4166.0, "Lat": 38.40097, "Lon": 23.8022}], "Erezee": [{"Name": "\u00c9rez\u00e9e", "Country Code": "BE", "Population": 2930.0, "Lat": 50.29292, "Lon": 5.55815}], "Erfde": [{"Name": "Erfde", "Country Code": "DE", "Population": 2118.0, "Lat": 54.3, "Lon": 9.31667}], "Erfelek": [{"Name": "Erfelek", "Country Code": "TR", "Population": 3596.0, "Lat": 41.87926, "Lon": 34.91838}], "Erftstadt": [{"Name": "Erftstadt", "Country Code": "DE", "Population": 51207.0, "Lat": 50.81481, "Lon": 6.79387}], "Erfurt": [{"Name": "Erfurt", "Country Code": "DE", "Population": 213692.0, "Lat": 50.9787, "Lon": 11.03283}], "Erfweiler": [{"Name": "Erfweiler", "Country Code": "DE", "Population": 1250.0, "Lat": 49.15712, "Lon": 7.81231}], "Ergani": [{"Name": "Ergani", "Country Code": "TR", "Population": 52684.0, "Lat": 38.26899, "Lon": 39.75446}], "Ergates": [{"Name": "Erg\u00e1tes", "Country Code": "CY", "Population": 1656.0, "Lat": 35.05365, "Lon": 33.24292}], "Ergel": [{"Name": "Ergel", "Country Code": "MN", "Population": 0.0, "Lat": 43.15, "Lon": 109.13333}], "Ergersheim": [{"Name": "Ergersheim", "Country Code": "DE", "Population": 1169.0, "Lat": 49.51667, "Lon": 10.33333}], "Ergli": [{"Name": "\u0112rg\u013ci", "Country Code": "LV", "Population": 2186.0, "Lat": 56.89752, "Lon": 25.63668}], "Ergolding": [{"Name": "Ergolding", "Country Code": "DE", "Population": 11438.0, "Lat": 48.57654, "Lon": 12.17102}], "Ergoldsbach": [{"Name": "Ergoldsbach", "Country Code": "DE", "Population": 7482.0, "Lat": 48.69263, "Lon": 12.20442}], "Ergue-Gaberic": [{"Name": "Ergu\u00e9-Gab\u00e9ric", "Country Code": "FR", "Population": 7326.0, "Lat": 47.99657, "Lon": -4.02438}], "Erhet": [{"Name": "Erhet", "Country Code": "MN", "Population": 0.0, "Lat": 48.27394, "Lon": 102.9812}], "Erice": [{"Name": "Erice", "Country Code": "IT", "Population": 565.0, "Lat": 38.03785, "Lon": 12.58778}], "Ericeira": [{"Name": "Ericeira", "Country Code": "PT", "Population": 7538.0, "Lat": 38.96275, "Lon": -9.41563}], "Erick": [{"Name": "Erick", "Country Code": "US", "Population": 1093.0, "Lat": 35.21533, "Lon": -99.86649}], "Erie": [{"Name": "Erie", "Country Code": "US", "Population": 1105.0, "Lat": 37.56811, "Lon": -95.24331}, {"Name": "Erie", "Country Code": "US", "Population": 99475.0, "Lat": 42.12922, "Lon": -80.08506}, {"Name": "Erie", "Country Code": "US", "Population": 21420.0, "Lat": 40.05026, "Lon": -105.04998}, {"Name": "Erie", "Country Code": "US", "Population": 1553.0, "Lat": 41.65642, "Lon": -90.07929}], "Eriksberg": [{"Name": "Eriksberg", "Country Code": "SE", "Population": 3200.0, "Lat": 59.24241, "Lon": 17.81631}], "Eriksbo": [{"Name": "Eriksbo", "Country Code": "SE", "Population": 2564.0, "Lat": 57.77141, "Lon": 12.04183}], "Erimi": [{"Name": "Er\u00edmi", "Country Code": "CY", "Population": 1493.0, "Lat": 34.67766, "Lon": 32.91815}], "Erin": [{"Name": "Erin", "Country Code": "US", "Population": 1295.0, "Lat": 36.31839, "Lon": -87.69474}], "Erina": [{"Name": "Erina", "Country Code": "AU", "Population": 4676.0, "Lat": -33.43218, "Lon": 151.38972}], "Erindale": [{"Name": "Erindale", "Country Code": "AU", "Population": 1163.0, "Lat": -34.92785, "Lon": 138.66313}], "Ering": [{"Name": "Ering", "Country Code": "DE", "Population": 1885.0, "Lat": 48.29921, "Lon": 13.15029}], "Eringate-Centennial-West Deane": [{"Name": "Eringate-Centennial-West Deane", "Country Code": "CA", "Population": 18588.0, "Lat": 43.65802, "Lon": -79.58044}], "Eriskirch": [{"Name": "Eriskirch", "Country Code": "DE", "Population": 4319.0, "Lat": 47.62479, "Lon": 9.54197}], "Eriswil": [{"Name": "Eriswil", "Country Code": "CH", "Population": 1414.0, "Lat": 47.07816, "Lon": 7.85149}], "Erith": [{"Name": "Erith", "Country Code": "GB", "Population": 9811.0, "Lat": 51.48315, "Lon": 0.17484}], "Erkelenz": [{"Name": "Erkelenz", "Country Code": "DE", "Population": 44650.0, "Lat": 51.07947, "Lon": 6.31531}], "Erken-Shakhar": [{"Name": "Erken-Shakhar", "Country Code": "RU", "Population": 0.0, "Lat": 44.3778, "Lon": 41.9584}], "Erkenbrechtsweiler": [{"Name": "Erkenbrechtsweiler", "Country Code": "DE", "Population": 2139.0, "Lat": 48.55656, "Lon": 9.43211}], "Erkerode": [{"Name": "Erkerode", "Country Code": "DE", "Population": 1073.0, "Lat": 52.20485, "Lon": 10.70982}], "Erkheim": [{"Name": "Erkheim", "Country Code": "DE", "Population": 3046.0, "Lat": 48.0373, "Lon": 10.3357}], "Erkilet": [{"Name": "Erkilet", "Country Code": "TR", "Population": 0.0, "Lat": 38.82043, "Lon": 35.44011}], "Erkner": [{"Name": "Erkner", "Country Code": "DE", "Population": 11741.0, "Lat": 52.42, "Lon": 13.75437}], "Erkoklu": [{"Name": "Erk\u00f6kl\u00fc", "Country Code": "TR", "Population": 1099.0, "Lat": 37.86182, "Lon": 41.14413}], "Erkrath": [{"Name": "Erkrath", "Country Code": "DE", "Population": 47815.0, "Lat": 51.22235, "Lon": 6.90831}], "Erl": [{"Name": "Erl", "Country Code": "AT", "Population": 528.0, "Lat": 47.68333, "Lon": 12.18333}], "Erla": [{"Name": "Erla", "Country Code": "ES", "Population": 432.0, "Lat": 42.11732, "Lon": -0.95019}], "Erlabrunn": [{"Name": "Erlabrunn", "Country Code": "DE", "Population": 1584.0, "Lat": 49.85972, "Lon": 9.84417}], "Erlach": [{"Name": "Erlach", "Country Code": "CH", "Population": 1108.0, "Lat": 47.0422, "Lon": 7.09728}], "Erlands Point-Kitsap Lake": [{"Name": "Erlands Point-Kitsap Lake", "Country Code": "US", "Population": 2935.0, "Lat": 47.59719, "Lon": -122.70225}], "Erlang": [{"Name": "Erlang", "Country Code": "CN", "Population": 17295.0, "Lat": 30.36264, "Lon": 105.99213}, {"Name": "Erlang", "Country Code": "CN", "Population": 4977.0, "Lat": 33.83946, "Lon": 105.58831}], "Erlangen": [{"Name": "Erlangen", "Country Code": "DE", "Population": 102675.0, "Lat": 49.59099, "Lon": 11.00783}], "Erlanger": [{"Name": "Erlanger", "Country Code": "US", "Population": 18797.0, "Lat": 39.01673, "Lon": -84.60078}], "Erlau": [{"Name": "Erlau", "Country Code": "DE", "Population": 3638.0, "Lat": 51.00938, "Lon": 12.94549}], "Erlauf": [{"Name": "Erlauf", "Country Code": "AT", "Population": 716.0, "Lat": 48.18333, "Lon": 15.18333}], "Erlbach": [{"Name": "Erlbach", "Country Code": "DE", "Population": 1895.0, "Lat": 50.31667, "Lon": 12.36667}, {"Name": "Erlbach", "Country Code": "DE", "Population": 1239.0, "Lat": 48.3, "Lon": 12.78333}], "Erlen": [{"Name": "Erlen", "Country Code": "CH", "Population": 3057.0, "Lat": 47.54814, "Lon": 9.23415}], "Erlenbach": [{"Name": "Erlenbach", "Country Code": "CH", "Population": 4519.0, "Lat": 47.30298, "Lon": 8.59743}, {"Name": "Erlenbach", "Country Code": "DE", "Population": 4853.0, "Lat": 49.1725, "Lon": 9.26833}, {"Name": "Erlenbach", "Country Code": "DE", "Population": 2381.0, "Lat": 49.97857, "Lon": 9.64459}], "Erlenbach / links des Dorfbachs oberhalb Bahnlinie": [{"Name": "Erlenbach / links des Dorfbachs oberhalb Bahnlinie", "Country Code": "CH", "Population": 1709.0, "Lat": 47.2995, "Lon": 8.60188}], "Erlenbach / rechts des Dorfbachs oberhalb Bahnlinie": [{"Name": "Erlenbach / rechts des Dorfbachs oberhalb Bahnlinie", "Country Code": "CH", "Population": 1470.0, "Lat": 47.30658, "Lon": 8.60271}], "Erlenbach am Main": [{"Name": "Erlenbach am Main", "Country Code": "DE", "Population": 10235.0, "Lat": 49.80341, "Lon": 9.16311}], "Erlenbach im Simmental": [{"Name": "Erlenbach im Simmental", "Country Code": "CH", "Population": 1730.0, "Lat": 46.66021, "Lon": 7.55445}], "Erlenmoos": [{"Name": "Erlenmoos", "Country Code": "DE", "Population": 1650.0, "Lat": 48.0653, "Lon": 9.97567}], "Erlensee": [{"Name": "Erlensee", "Country Code": "DE", "Population": 12663.0, "Lat": 50.16304, "Lon": 8.97823}], "Erlestoke": [{"Name": "Erlestoke", "Country Code": "GB", "Population": 0.0, "Lat": 51.28472, "Lon": -2.05444}], "Erli": [{"Name": "Erli", "Country Code": "IT", "Population": 184.0, "Lat": 44.13719, "Lon": 8.1043}], "Erligheim": [{"Name": "Erligheim", "Country Code": "DE", "Population": 2697.0, "Lat": 49.0225, "Lon": 9.09722}], "Erlinsbach": [{"Name": "Erlinsbach", "Country Code": "CH", "Population": 2258.0, "Lat": 47.39753, "Lon": 8.00797}], "Erma": [{"Name": "Erma", "Country Code": "US", "Population": 2134.0, "Lat": 38.98776, "Lon": -74.9017}], "Ermatingen": [{"Name": "Ermatingen", "Country Code": "CH", "Population": 2453.0, "Lat": 47.67057, "Lon": 9.08573}], "Ermelo": [{"Name": "Ermelo", "Country Code": "NL", "Population": 10255.0, "Lat": 52.29833, "Lon": 5.62222}, {"Name": "Ermelo", "Country Code": "ZA", "Population": 41124.0, "Lat": -26.53333, "Lon": 29.98333}], "Ermenek": [{"Name": "Ermenek", "Country Code": "TR", "Population": 16986.0, "Lat": 36.64043, "Lon": 32.89179}], "Ermesinde": [{"Name": "Ermesinde", "Country Code": "PT", "Population": 39420.0, "Lat": 41.21653, "Lon": -8.55318}], "Ermington": [{"Name": "Ermington", "Country Code": "AU", "Population": 10550.0, "Lat": -33.81483, "Lon": 151.05467}], "Ermioni": [{"Name": "Ermi\u00f3ni", "Country Code": "GR", "Population": 2505.0, "Lat": 37.38492, "Lon": 23.24686}], "Ermita": [{"Name": "Ermita", "Country Code": "PH", "Population": 2304.0, "Lat": 10.9, "Lon": 122.71667}], "Ermita de Guadalupe": [{"Name": "Ermita de Guadalupe", "Country Code": "MX", "Population": 2351.0, "Lat": 22.58579, "Lon": -103.03133}], "Ermitagana": [{"Name": "Ermitaga\u00f1a", "Country Code": "ES", "Population": 17163.0, "Lat": 42.81084, "Lon": -1.66409}], "Ermlitz": [{"Name": "Ermlitz", "Country Code": "DE", "Population": 1468.0, "Lat": 51.39182, "Lon": 12.15946}], "Ermont": [{"Name": "Ermont", "Country Code": "FR", "Population": 28117.0, "Lat": 48.99004, "Lon": 2.25804}], "Ermoupolis": [{"Name": "Ermo\u00fapolis", "Country Code": "GR", "Population": 11351.0, "Lat": 37.44466, "Lon": 24.9429}], "Ermua": [{"Name": "Ermua", "Country Code": "ES", "Population": 16252.0, "Lat": 43.18725, "Lon": -2.50261}], "Ernage": [{"Name": "Ernage", "Country Code": "BE", "Population": 1188.0, "Lat": 50.59484, "Lon": 4.67588}], "Erndtebrueck": [{"Name": "Erndtebr\u00fcck", "Country Code": "DE", "Population": 7685.0, "Lat": 50.98927, "Lon": 8.25288}], "Ernee": [{"Name": "Ern\u00e9e", "Country Code": "FR", "Population": 6127.0, "Lat": 48.29722, "Lon": -0.93263}], "Ernei": [{"Name": "Ernei", "Country Code": "RO", "Population": 5141.0, "Lat": 46.60505, "Lon": 24.64148}], "Ernestinovo": [{"Name": "Ernestinovo", "Country Code": "HR", "Population": 996.0, "Lat": 45.45194, "Lon": 18.65917}], "Ernolsheim-Bruche": [{"Name": "Ernolsheim-Bruche", "Country Code": "FR", "Population": 1786.0, "Lat": 48.56531, "Lon": 7.56503}], "Ernsgaden": [{"Name": "Ernsgaden", "Country Code": "DE", "Population": 1445.0, "Lat": 48.73333, "Lon": 11.58333}], "Ernstbrunn": [{"Name": "Ernstbrunn", "Country Code": "AT", "Population": 1536.0, "Lat": 48.53333, "Lon": 16.35}], "Ernsthofen": [{"Name": "Ernsthofen", "Country Code": "AT", "Population": 2230.0, "Lat": 48.12915, "Lon": 14.48058}], "Ernstroda": [{"Name": "Ernstroda", "Country Code": "DE", "Population": 1044.0, "Lat": 50.86484, "Lon": 10.62056}], "Erode": [{"Name": "Erode", "Country Code": "IN", "Population": 521891.0, "Lat": 11.3428, "Lon": 77.72741}], "Erolzheim": [{"Name": "Erolzheim", "Country Code": "DE", "Population": 3140.0, "Lat": 48.09001, "Lon": 10.073}], "Erondegem": [{"Name": "Erondegem", "Country Code": "BE", "Population": 1742.0, "Lat": 50.94118, "Lon": 3.95611}], "Erong": [{"Name": "Erong", "Country Code": "CN", "Population": 18260.0, "Lat": 28.57128, "Lon": 109.28837}], "Erongaricuaro": [{"Name": "Erongar\u00edcuaro", "Country Code": "MX", "Population": 2573.0, "Lat": 19.58881, "Lon": -101.7211}], "Erp": [{"Name": "Erp", "Country Code": "NL", "Population": 3600.0, "Lat": 51.6, "Lon": 5.60694}], "Erpe": [{"Name": "Erpe", "Country Code": "BE", "Population": 5056.0, "Lat": 50.93565, "Lon": 3.97219}], "Erpel": [{"Name": "Erpel", "Country Code": "DE", "Population": 2635.0, "Lat": 50.58333, "Lon": 7.23333}], "Erpeldange": [{"Name": "Erpeldange", "Country Code": "LU", "Population": 845.0, "Lat": 49.86472, "Lon": 6.11472}], "Erpeli": [{"Name": "Erpeli", "Country Code": "RU", "Population": 3619.0, "Lat": 42.80584, "Lon": 46.97732}], "Erpent": [{"Name": "Erpent", "Country Code": "BE", "Population": 2758.0, "Lat": 50.45116, "Lon": 4.90557}], "Erpersdorf": [{"Name": "Erpersdorf", "Country Code": "AT", "Population": 1531.0, "Lat": 48.3421, "Lon": 15.91747}], "Erpfendorf": [{"Name": "Erpfendorf", "Country Code": "AT", "Population": 1141.0, "Lat": 47.58333, "Lon": 12.46667}], "Erping": [{"Name": "Erping", "Country Code": "CN", "Population": 7806.0, "Lat": 29.89892, "Lon": 106.15679}], "Erpolzheim": [{"Name": "Erpolzheim", "Country Code": "DE", "Population": 1208.0, "Lat": 49.48917, "Lon": 8.22472}], "Erps-Kwerps": [{"Name": "Erps-Kwerps", "Country Code": "BE", "Population": 6213.0, "Lat": 50.90119, "Lon": 4.55984}], "Erqu": [{"Name": "Erqu", "Country Code": "CN", "Population": 0.0, "Lat": 34.15278, "Lon": 108.20639}], "Erquelinnes": [{"Name": "Erquelinnes", "Country Code": "BE", "Population": 9396.0, "Lat": 50.30688, "Lon": 4.11129}], "Erquinghem-Lys": [{"Name": "Erquinghem-Lys", "Country Code": "FR", "Population": 4581.0, "Lat": 50.67601, "Lon": 2.84505}], "Erquy": [{"Name": "Erquy", "Country Code": "FR", "Population": 3722.0, "Lat": 48.63126, "Lon": -2.46507}], "Errachidia": [{"Name": "Errachidia", "Country Code": "MA", "Population": 100870.0, "Lat": 31.9314, "Lon": -4.42663}], "Erraguntla": [{"Name": "Erraguntla", "Country Code": "IN", "Population": 27874.0, "Lat": 14.63853, "Lon": 78.53974}], "Erre": [{"Name": "Erre", "Country Code": "FR", "Population": 1359.0, "Lat": 50.36252, "Lon": 3.31561}], "Errenteria": [{"Name": "Errenteria", "Country Code": "ES", "Population": 38767.0, "Lat": 43.31195, "Lon": -1.90234}], "Errezil": [{"Name": "Errezil", "Country Code": "ES", "Population": 0.0, "Lat": 43.16505, "Lon": -2.17395}], "Erriadh": [{"Name": "Erriadh", "Country Code": "TN", "Population": 14426.0, "Lat": 33.82063, "Lon": 10.85394}], "Errigoiti": [{"Name": "Errigoiti", "Country Code": "ES", "Population": 0.0, "Lat": 43.31667, "Lon": -2.71667}], "Errol": [{"Name": "Errol", "Country Code": "GB", "Population": 1410.0, "Lat": 56.39234, "Lon": -3.21275}], "Ersekcsanad": [{"Name": "\u00c9rsekcsan\u00e1d", "Country Code": "HU", "Population": 2863.0, "Lat": 46.25352, "Lon": 18.98457}], "Erseke": [{"Name": "Ersek\u00eb", "Country Code": "AL", "Population": 7890.0, "Lat": 40.33778, "Lon": 20.67889}], "Ersekvadkert": [{"Name": "\u00c9rsekvadkert", "Country Code": "HU", "Population": 3762.0, "Lat": 47.99619, "Lon": 19.20231}], "Ersheng": [{"Name": "Ersheng", "Country Code": "CN", "Population": 16461.0, "Lat": 29.46583, "Lon": 106.77083}], "Ersigen": [{"Name": "Ersigen", "Country Code": "CH", "Population": 1507.0, "Lat": 47.09368, "Lon": 7.59507}], "Ersingen": [{"Name": "Ersingen", "Country Code": "DE", "Population": 1200.0, "Lat": 48.2926, "Lon": 9.8551}], "Erskine": [{"Name": "Erskine", "Country Code": "AU", "Population": 4384.0, "Lat": -32.55717, "Lon": 115.70657}, {"Name": "Erskine", "Country Code": "GB", "Population": 15530.0, "Lat": 55.9005, "Lon": -4.45028}], "Erskine Park": [{"Name": "Erskine Park", "Country Code": "AU", "Population": 6393.0, "Lat": -33.81301, "Lon": 150.79773}], "Erskineville": [{"Name": "Erskineville", "Country Code": "AU", "Population": 7856.0, "Lat": -33.90254, "Lon": 151.18579}], "Ersmark": [{"Name": "Ersmark", "Country Code": "SE", "Population": 1650.0, "Lat": 63.88333, "Lon": 20.31667}], "Erstein": [{"Name": "Erstein", "Country Code": "FR", "Population": 9647.0, "Lat": 48.42373, "Lon": 7.66262}], "Erstfeld": [{"Name": "Erstfeld", "Country Code": "CH", "Population": 3876.0, "Lat": 46.81885, "Lon": 8.65052}], "Ertil'": [{"Name": "Ertil\u2019", "Country Code": "RU", "Population": 0.0, "Lat": 51.80508, "Lon": 40.51325}, {"Name": "Ertil\u2019", "Country Code": "RU", "Population": 12622.0, "Lat": 51.83962, "Lon": 40.80416}], "Ertingen": [{"Name": "Ertingen", "Country Code": "DE", "Population": 5516.0, "Lat": 48.1, "Lon": 9.46667}], "Ertl": [{"Name": "Ertl", "Country Code": "AT", "Population": 1252.0, "Lat": 47.97704, "Lon": 14.63134}], "Erto": [{"Name": "Erto", "Country Code": "IT", "Population": 328.0, "Lat": 46.2764, "Lon": 12.37149}], "Ertugrul": [{"Name": "Ertu\u011frul", "Country Code": "TR", "Population": 0.0, "Lat": 39.57578, "Lon": 27.70672}], "Ertvelde": [{"Name": "Ertvelde", "Country Code": "BE", "Population": 10730.0, "Lat": 51.17921, "Lon": 3.74722}], "Eruh": [{"Name": "Eruh", "Country Code": "TR", "Population": 7868.0, "Lat": 37.74183, "Lon": 42.17422}], "Erula": [{"Name": "Erula", "Country Code": "IT", "Population": 507.0, "Lat": 40.79244, "Lon": 8.94418}], "Erumaippatti": [{"Name": "Erumaippatti", "Country Code": "IN", "Population": 9585.0, "Lat": 11.14671, "Lon": 78.28996}], "Erustes": [{"Name": "Erustes", "Country Code": "ES", "Population": 212.0, "Lat": 39.95667, "Lon": -4.49656}], "Eruwa": [{"Name": "Eruwa", "Country Code": "NG", "Population": 0.0, "Lat": 7.53906, "Lon": 3.42453}], "Erve": [{"Name": "Erve", "Country Code": "IT", "Population": 740.0, "Lat": 45.82158, "Lon": 9.45285}], "Ervedosa do Douro": [{"Name": "Ervedosa do Douro", "Country Code": "PT", "Population": 1294.0, "Lat": 41.16626, "Lon": -7.47305}], "Ervenik": [{"Name": "Ervenik", "Country Code": "HR", "Population": 227.0, "Lat": 44.10924, "Lon": 15.94139}], "Erving": [{"Name": "Erving", "Country Code": "US", "Population": 1493.0, "Lat": 42.60009, "Lon": -72.39814}], "Ervy-le-Chatel": [{"Name": "Ervy-le-Ch\u00e2tel", "Country Code": "FR", "Population": 1200.0, "Lat": 48.04116, "Lon": 3.90988}], "Erwangzhuang": [{"Name": "Erwangzhuang", "Country Code": "CN", "Population": 1282.0, "Lat": 39.39167, "Lon": 117.35389}], "Erwetegem": [{"Name": "Erwetegem", "Country Code": "BE", "Population": 3102.0, "Lat": 50.85547, "Lon": 3.81444}], "Erwin": [{"Name": "Erwin", "Country Code": "US", "Population": 4679.0, "Lat": 35.32683, "Lon": -78.67613}, {"Name": "Erwin", "Country Code": "US", "Population": 5979.0, "Lat": 36.14511, "Lon": -82.41681}], "Erwinville": [{"Name": "Erwinville", "Country Code": "US", "Population": 2192.0, "Lat": 30.53102, "Lon": -91.40789}], "Erwitte": [{"Name": "Erwitte", "Country Code": "DE", "Population": 16081.0, "Lat": 51.6127, "Lon": 8.3384}], "Erxleben": [{"Name": "Erxleben", "Country Code": "DE", "Population": 1329.0, "Lat": 52.21812, "Lon": 11.24245}], "Ery-Makouguie II": [{"Name": "Ery-Makougui\u00e9 II", "Country Code": "CI", "Population": 4340.0, "Lat": 5.90458, "Lon": -4.17084}], "Erythres": [{"Name": "Erythr\u00e9s", "Country Code": "GR", "Population": 2862.0, "Lat": 38.21741, "Lon": 23.32234}], "Erzhausen": [{"Name": "Erzhausen", "Country Code": "DE", "Population": 7297.0, "Lat": 49.95528, "Lon": 8.6475}], "Erzin": [{"Name": "Erzin", "Country Code": "RU", "Population": 2952.0, "Lat": 50.26, "Lon": 95.1623}, {"Name": "Erzin", "Country Code": "TR", "Population": 26316.0, "Lat": 36.95348, "Lon": 36.19839}], "Erzincan": [{"Name": "Erzincan", "Country Code": "TR", "Population": 150714.0, "Lat": 39.73919, "Lon": 39.49015}], "Erzsebetvaros": [{"Name": "Erzs\u00e9betv\u00e1ros", "Country Code": "HU", "Population": 62000.0, "Lat": 47.50207, "Lon": 19.07218}], "Erzurum": [{"Name": "Erzurum", "Country Code": "TR", "Population": 767848.0, "Lat": 39.90861, "Lon": 41.27694}], "Es Castell": [{"Name": "Es Castell", "Country Code": "ES", "Population": 7440.0, "Lat": 39.8776, "Lon": 4.2899}], "Es Migjorn Gran": [{"Name": "Es Migjorn Gran", "Country Code": "ES", "Population": 0.0, "Lat": 39.94657, "Lon": 4.05121}], "Es Molinar": [{"Name": "Es Molinar", "Country Code": "ES", "Population": 8376.0, "Lat": 39.5614, "Lon": 2.67517}], "Es Senia": [{"Name": "Es Senia", "Country Code": "DZ", "Population": 39064.0, "Lat": 35.64779, "Lon": -0.62397}], "Esanatoglia": [{"Name": "Esanatoglia", "Country Code": "IT", "Population": 1720.0, "Lat": 43.25248, "Lon": 12.9493}], "Esashi": [{"Name": "Esashi", "Country Code": "JP", "Population": 8578.0, "Lat": 44.93528, "Lon": 142.58472}], "Esbjerg": [{"Name": "Esbjerg", "Country Code": "DK", "Population": 71698.0, "Lat": 55.47028, "Lon": 8.45187}], "Esbly": [{"Name": "Esbly", "Country Code": "FR", "Population": 5609.0, "Lat": 48.9052, "Lon": 2.81235}], "Escacena del Campo": [{"Name": "Escacena del Campo", "Country Code": "ES", "Population": 2156.0, "Lat": 37.40837, "Lon": -6.3887}], "Escada": [{"Name": "Escada", "Country Code": "BR", "Population": 48083.0, "Lat": -8.35917, "Lon": -35.22361}], "Escalante": [{"Name": "Escalante", "Country Code": "ES", "Population": 763.0, "Lat": 43.43678, "Lon": -3.51347}, {"Name": "Escalante", "Country Code": "PH", "Population": 39177.0, "Lat": 10.84028, "Lon": 123.49917}], "Escalaplano": [{"Name": "Escalaplano", "Country Code": "IT", "Population": 2220.0, "Lat": 39.62574, "Lon": 9.3535}], "Escaleras": [{"Name": "Escaleras", "Country Code": "MX", "Population": 2790.0, "Lat": 22.25054, "Lon": -102.33377}], "Escalerilla Lagunas": [{"Name": "Escalerilla Lagunas", "Country Code": "MX", "Population": 1196.0, "Lat": 17.37806, "Lon": -98.84667}], "Escalerillas": [{"Name": "Escalerillas", "Country Code": "MX", "Population": 4778.0, "Lat": 22.11167, "Lon": -101.07305}], "Escalon": [{"Name": "Escalon", "Country Code": "US", "Population": 7523.0, "Lat": 37.79781, "Lon": -120.99792}], "Escalona": [{"Name": "Escalona", "Country Code": "ES", "Population": 2700.0, "Lat": 40.1669, "Lon": -4.40484}], "Escalona del Prado": [{"Name": "Escalona del Prado", "Country Code": "ES", "Population": 628.0, "Lat": 41.16682, "Lon": -4.12272}], "Escalonilla": [{"Name": "Escalonilla", "Country Code": "ES", "Population": 1458.0, "Lat": 39.9257, "Lon": -4.35095}], "Escalquens": [{"Name": "Escalquens", "Country Code": "FR", "Population": 6162.0, "Lat": 43.51835, "Lon": 1.56093}], "Escamilla": [{"Name": "Escamilla", "Country Code": "ES", "Population": 104.0, "Lat": 40.54979, "Lon": -2.56292}], "Escamillas": [{"Name": "Escamillas", "Country Code": "MX", "Population": 1083.0, "Lat": 23.27217, "Lon": -106.2467}], "Escanaba": [{"Name": "Escanaba", "Country Code": "US", "Population": 12334.0, "Lat": 45.74525, "Lon": -87.06458}], "Escanaffles": [{"Name": "Escanaffles", "Country Code": "BE", "Population": 1138.0, "Lat": 50.75743, "Lon": 3.45294}], "Escanuela": [{"Name": "Esca\u00f1uela", "Country Code": "ES", "Population": 930.0, "Lat": 37.87885, "Lon": -4.03376}], "Escarabajosa de Cabezas": [{"Name": "Escarabajosa de Cabezas", "Country Code": "ES", "Population": 357.0, "Lat": 41.1047, "Lon": -4.19411}], "Escarcega": [{"Name": "Esc\u00e1rcega", "Country Code": "MX", "Population": 29477.0, "Lat": 18.60891, "Lon": -90.74544}], "Escariche": [{"Name": "Escariche", "Country Code": "ES", "Population": 222.0, "Lat": 40.40553, "Lon": -3.0531}], "Escatawpa": [{"Name": "Escatawpa", "Country Code": "US", "Population": 3722.0, "Lat": 30.487, "Lon": -88.552}], "Escatron": [{"Name": "Escatr\u00f3n", "Country Code": "ES", "Population": 1145.0, "Lat": 41.29149, "Lon": -0.32308}], "Escaudain": [{"Name": "Escaudain", "Country Code": "FR", "Population": 9479.0, "Lat": 50.33315, "Lon": 3.3443}], "Escaudoeuvres": [{"Name": "Escaud\u0153uvres", "Country Code": "FR", "Population": 3375.0, "Lat": 50.2, "Lon": 3.26667}], "Escautpont": [{"Name": "Escautpont", "Country Code": "FR", "Population": 4324.0, "Lat": 50.41875, "Lon": 3.55341}], "Escazu": [{"Name": "Escaz\u00fa", "Country Code": "CR", "Population": 12071.0, "Lat": 9.91887, "Lon": -84.13989}], "Esch": [{"Name": "Esch", "Country Code": "AT", "Population": 1721.0, "Lat": 47.8403, "Lon": 13.09223}, {"Name": "Esch", "Country Code": "NL", "Population": 1820.0, "Lat": 51.61083, "Lon": 5.29028}], "Esch-sur-Alzette": [{"Name": "Esch-sur-Alzette", "Country Code": "LU", "Population": 28228.0, "Lat": 49.49583, "Lon": 5.98056}], "Esch-sur-Sure": [{"Name": "Esch-sur-S\u00fbre", "Country Code": "LU", "Population": 333.0, "Lat": 49.91139, "Lon": 5.93639}], "Eschach": [{"Name": "Eschach", "Country Code": "DE", "Population": 1874.0, "Lat": 48.88832, "Lon": 9.86999}], "Eschau": [{"Name": "Eschau", "Country Code": "DE", "Population": 4129.0, "Lat": 49.81889, "Lon": 9.2592}, {"Name": "Eschau", "Country Code": "FR", "Population": 4641.0, "Lat": 48.48897, "Lon": 7.71644}], "Eschbach": [{"Name": "Eschbach", "Country Code": "FR", "Population": 1012.0, "Lat": 48.87465, "Lon": 7.73609}], "Eschborn": [{"Name": "Eschborn", "Country Code": "DE", "Population": 21641.0, "Lat": 50.14328, "Lon": 8.57111}], "Escheburg": [{"Name": "Escheburg", "Country Code": "DE", "Population": 2988.0, "Lat": 53.46667, "Lon": 10.31667}], "Eschede": [{"Name": "Eschede", "Country Code": "DE", "Population": 3894.0, "Lat": 52.73494, "Lon": 10.2354}], "Eschelbronn": [{"Name": "Eschelbronn", "Country Code": "DE", "Population": 2572.0, "Lat": 49.31944, "Lon": 8.86528}], "Eschen": [{"Name": "Eschen", "Country Code": "LI", "Population": 4008.0, "Lat": 47.21071, "Lon": 9.52223}], "Eschenau": [{"Name": "Eschenau", "Country Code": "AT", "Population": 572.0, "Lat": 48.04825, "Lon": 15.56694}], "Eschenbach": [{"Name": "Eschenbach", "Country Code": "CH", "Population": 9175.0, "Lat": 47.23981, "Lon": 8.92156}, {"Name": "Eschenbach", "Country Code": "DE", "Population": 2316.0, "Lat": 48.65264, "Lon": 9.67037}], "Eschenlohe": [{"Name": "Eschenlohe", "Country Code": "DE", "Population": 1647.0, "Lat": 48.01731, "Lon": 12.03012}], "Eschentzwiller": [{"Name": "Eschentzwiller", "Country Code": "FR", "Population": 1309.0, "Lat": 47.7127, "Lon": 7.39773}], "Eschenz": [{"Name": "Eschenz", "Country Code": "CH", "Population": 1508.0, "Lat": 47.64793, "Lon": 8.87472}], "Eschershausen": [{"Name": "Eschershausen", "Country Code": "DE", "Population": 3794.0, "Lat": 51.92664, "Lon": 9.64282}], "Esches": [{"Name": "Esches", "Country Code": "FR", "Population": 1113.0, "Lat": 49.22086, "Lon": 2.16595}], "Eschlikon": [{"Name": "Eschlikon", "Country Code": "CH", "Population": 3425.0, "Lat": 47.46361, "Lon": 8.96381}], "Eschlkam": [{"Name": "Eschlkam", "Country Code": "DE", "Population": 3575.0, "Lat": 49.29883, "Lon": 12.91573}], "Eschol Park": [{"Name": "Eschol Park", "Country Code": "AU", "Population": 2576.0, "Lat": -34.02982, "Lon": 150.80957}], "Escholzmatt": [{"Name": "Escholzmatt", "Country Code": "CH", "Population": 3192.0, "Lat": 46.9135, "Lon": 7.93426}], "Eschwege": [{"Name": "Eschwege", "Country Code": "DE", "Population": 21191.0, "Lat": 51.18386, "Lon": 10.05329}], "Eschweiler": [{"Name": "Eschweiler", "Country Code": "DE", "Population": 55778.0, "Lat": 50.81854, "Lon": 6.27184}], "Escobal": [{"Name": "Escobal", "Country Code": "PA", "Population": 1790.0, "Lat": 9.14758, "Lon": -79.9638}], "Escobar de Campos": [{"Name": "Escobar de Campos", "Country Code": "ES", "Population": 70.0, "Lat": 42.31337, "Lon": -4.96573}], "Escobar de Polendos": [{"Name": "Escobar de Polendos", "Country Code": "ES", "Population": 245.0, "Lat": 41.09079, "Lon": -4.13117}], "Escobares": [{"Name": "Escobares", "Country Code": "US", "Population": 2451.0, "Lat": 26.41062, "Lon": -98.96253}], "Escobedo": [{"Name": "Escobedo", "Country Code": "MX", "Population": 533.0, "Lat": 27.23372, "Lon": -101.41314}], "Escobosa de Almazan": [{"Name": "Escobosa de Almaz\u00e1n", "Country Code": "ES", "Population": 36.0, "Lat": 41.48626, "Lon": -2.3714}], "Escolasticas": [{"Name": "Escolasticas", "Country Code": "MX", "Population": 2510.0, "Lat": 20.42809, "Lon": -100.21186}], "Escolca": [{"Name": "Escolca", "Country Code": "IT", "Population": 624.0, "Lat": 39.69861, "Lon": 9.12139}], "Escolin de Olarte": [{"Name": "Escol\u00edn de Olarte", "Country Code": "MX", "Population": 1055.0, "Lat": 20.4984, "Lon": -97.42336}], "Escondido": [{"Name": "Escondido", "Country Code": "US", "Population": 151038.0, "Lat": 33.11921, "Lon": -117.08642}], "Escopete": [{"Name": "Escopete", "Country Code": "ES", "Population": 74.0, "Lat": 40.41324, "Lon": -3.0046}], "Escorca": [{"Name": "Escorca", "Country Code": "ES", "Population": 293.0, "Lat": 39.82138, "Lon": 2.86941}], "Escorihuela": [{"Name": "Escorihuela", "Country Code": "ES", "Population": 200.0, "Lat": 40.544, "Lon": -0.97078}], "Escoutoux": [{"Name": "Escoutoux", "Country Code": "FR", "Population": 1201.0, "Lat": 45.81942, "Lon": 3.56336}], "Escuadron Doscientos Uno": [{"Name": "Escuadr\u00f3n Doscientos Uno", "Country Code": "MX", "Population": 1066.0, "Lat": 25.67433, "Lon": -103.34829}], "Escucha": [{"Name": "Escucha", "Country Code": "ES", "Population": 1097.0, "Lat": 40.79467, "Lon": -0.81012}], "Escuinapa": [{"Name": "Escuinapa", "Country Code": "MX", "Population": 30790.0, "Lat": 22.83279, "Lon": -105.77772}], "Escuintla": [{"Name": "Escuintla", "Country Code": "GT", "Population": 156313.0, "Lat": 14.3009, "Lon": -90.78581}, {"Name": "Escuintla", "Country Code": "MX", "Population": 9570.0, "Lat": 15.31944, "Lon": -92.65833}], "Escuque": [{"Name": "Escuque", "Country Code": "VE", "Population": 18128.0, "Lat": 9.29687, "Lon": -70.67189}], "Escurial": [{"Name": "Escurial", "Country Code": "ES", "Population": 883.0, "Lat": 39.16857, "Lon": -5.88465}], "Escurial de la Sierra": [{"Name": "Escurial de la Sierra", "Country Code": "ES", "Population": 294.0, "Lat": 40.61731, "Lon": -5.9552}], "Escuzar": [{"Name": "Esc\u00fazar", "Country Code": "ES", "Population": 745.0, "Lat": 37.06219, "Lon": -3.76126}], "Eseka": [{"Name": "Es\u00e9ka", "Country Code": "CM", "Population": 27928.0, "Lat": 3.65, "Lon": 10.76667}], "Eselnita": [{"Name": "E\u015felni\u0163a", "Country Code": "RO", "Population": 2994.0, "Lat": 44.69917, "Lon": 22.36222}], "Esen": [{"Name": "Esen", "Country Code": "BE", "Population": 3152.0, "Lat": 51.0294, "Lon": 2.90189}, {"Name": "E\u015fen", "Country Code": "TR", "Population": 0.0, "Lat": 36.4548, "Lon": 29.28154}], "Esencay": [{"Name": "Esen\u00e7ay", "Country Code": "TR", "Population": 0.0, "Lat": 40.66806, "Lon": 36.38028}], "Esendere": [{"Name": "Esendere", "Country Code": "TR", "Population": 0.0, "Lat": 37.71144, "Lon": 44.60099}], "Esenler": [{"Name": "Esenler", "Country Code": "TR", "Population": 520235.0, "Lat": 41.0435, "Lon": 28.87619}], "Esens": [{"Name": "Esens", "Country Code": "DE", "Population": 6856.0, "Lat": 53.64866, "Lon": 7.61267}], "Esenyurt": [{"Name": "Esenyurt", "Country Code": "TR", "Population": 211330.0, "Lat": 41.02697, "Lon": 28.67732}], "Esfarayen": [{"Name": "Esfar\u0101yen", "Country Code": "IR", "Population": 59678.0, "Lat": 37.07645, "Lon": 57.51009}], "Esfuerzos Unidos": [{"Name": "Esfuerzos Unidos", "Country Code": "MX", "Population": 1083.0, "Lat": 24.82214, "Lon": -104.99}], "Esgos": [{"Name": "Esgos", "Country Code": "ES", "Population": 1294.0, "Lat": 42.32549, "Lon": -7.69691}], "Esgueira": [{"Name": "Esgueira", "Country Code": "PT", "Population": 13431.0, "Lat": 40.64899, "Lon": -8.62943}], "Esguevillas de Esgueva": [{"Name": "Esguevillas de Esgueva", "Country Code": "ES", "Population": 342.0, "Lat": 41.75018, "Lon": -4.38062}], "Esh Sheikh Dannun": [{"Name": "Esh Sheikh Dann\u016bn", "Country Code": "IL", "Population": 2887.0, "Lat": 32.9941, "Lon": 35.14805}], "Esher": [{"Name": "Esher", "Country Code": "GB", "Population": 52392.0, "Lat": 51.36969, "Lon": -0.36693}], "Eshowe": [{"Name": "Eshowe", "Country Code": "ZA", "Population": 14786.0, "Lat": -28.88649, "Lon": 31.4699}], "Eshta'ol": [{"Name": "Eshta\u2019ol", "Country Code": "IL", "Population": 1238.0, "Lat": 31.78072, "Lon": 35.00994}], "Eshtehard": [{"Name": "Eshteh\u0101rd", "Country Code": "IR", "Population": 0.0, "Lat": 35.7255, "Lon": 50.3662}], "Esigodini": [{"Name": "Esigodini", "Country Code": "ZW", "Population": 2228.0, "Lat": -20.28979, "Lon": 28.92261}], "Esik": [{"Name": "Esik", "Country Code": "KZ", "Population": 32995.0, "Lat": 43.3552, "Lon": 77.45245}], "Esil": [{"Name": "Esil", "Country Code": "KZ", "Population": 13504.0, "Lat": 51.95453, "Lon": 66.40772}], "Esim": [{"Name": "Esim", "Country Code": "GH", "Population": 35487.0, "Lat": 4.86641, "Lon": -2.24181}], "Esine": [{"Name": "Esine", "Country Code": "IT", "Population": 3289.0, "Lat": 45.92515, "Lon": 10.25102}], "Esino Lario": [{"Name": "Esino Lario", "Country Code": "IT", "Population": 698.0, "Lat": 45.99437, "Lon": 9.33399}], "Esiroglu": [{"Name": "Esiro\u011flu", "Country Code": "TR", "Population": 0.0, "Lat": 40.87331, "Lon": 39.68829}], "Esk": [{"Name": "Esk", "Country Code": "AU", "Population": 1718.0, "Lat": -27.23895, "Lon": 152.42223}], "Eskasoni 3": [{"Name": "Eskasoni 3", "Country Code": "CA", "Population": 2120.0, "Lat": 45.94522, "Lon": -60.61617}], "Eskhar": [{"Name": "Eskhar", "Country Code": "UA", "Population": 5349.0, "Lat": 49.79736, "Lon": 36.59025}], "Eskiarab": [{"Name": "Eskiarab", "Country Code": "UZ", "Population": 8781.0, "Lat": 40.36972, "Lon": 71.41861}], "Eskifjoerdur": [{"Name": "Eskifj\u00f6r\u00f0ur", "Country Code": "IS", "Population": 1014.0, "Lat": 65.07306, "Lon": -14.01525}], "Eskil": [{"Name": "Eskil", "Country Code": "TR", "Population": 0.0, "Lat": 38.40167, "Lon": 33.41306}], "Eskilstrup": [{"Name": "Eskilstrup", "Country Code": "DK", "Population": 1066.0, "Lat": 54.85574, "Lon": 11.88668}], "Eskilstuna": [{"Name": "Eskilstuna", "Country Code": "SE", "Population": 67359.0, "Lat": 59.36661, "Lon": 16.5077}], "Eskipazar": [{"Name": "Eskipazar", "Country Code": "TR", "Population": 0.0, "Lat": 40.94298, "Lon": 32.53091}], "Eskisehir": [{"Name": "Eski\u015fehir", "Country Code": "TR", "Population": 898369.0, "Lat": 39.77667, "Lon": 30.52056}], "Esko": [{"Name": "Esko", "Country Code": "US", "Population": 1869.0, "Lat": 46.70578, "Lon": -92.36325}], "Eskoriatza": [{"Name": "Eskoriatza", "Country Code": "ES", "Population": 4000.0, "Lat": 43.01829, "Lon": -2.52598}], "Eslam Qaleh": [{"Name": "Eslam Qaleh", "Country Code": "AF", "Population": 18086.0, "Lat": 34.66667, "Lon": 61.06667}], "Eslamabad-e Gharb": [{"Name": "Esl\u0101m\u0101b\u0101d-e Gharb", "Country Code": "IR", "Population": 0.0, "Lat": 34.1089, "Lon": 46.52988}], "Eslamshahr": [{"Name": "Eslamshahr", "Country Code": "IR", "Population": 450000.0, "Lat": 35.55222, "Lon": 51.23504}], "Eslarn": [{"Name": "Eslarn", "Country Code": "DE", "Population": 3117.0, "Lat": 49.58345, "Lon": 12.52156}], "Eslava": [{"Name": "Eslava", "Country Code": "ES", "Population": 154.0, "Lat": 42.56459, "Lon": -1.45947}], "Eslettes": [{"Name": "Eslettes", "Country Code": "FR", "Population": 1431.0, "Lat": 49.5482, "Lon": 1.05515}], "Eslida": [{"Name": "Eslida", "Country Code": "ES", "Population": 856.0, "Lat": 39.88333, "Lon": -0.3}], "Esloev": [{"Name": "Esl\u00f6v", "Country Code": "SE", "Population": 18592.0, "Lat": 55.83928, "Lon": 13.30393}], "Eslohe": [{"Name": "Eslohe", "Country Code": "DE", "Population": 9304.0, "Lat": 51.25369, "Lon": 8.16949}], "Esman": [{"Name": "Esman", "Country Code": "UA", "Population": 1800.0, "Lat": 51.77006, "Lon": 34.06729}], "Esme": [{"Name": "E\u015fme", "Country Code": "TR", "Population": 1316.0, "Lat": 37.15486, "Lon": 40.64121}, {"Name": "E\u015fme", "Country Code": "TR", "Population": 11000.0, "Lat": 38.39976, "Lon": 28.96905}], "Esmeralda": [{"Name": "Esmeralda", "Country Code": "CU", "Population": 20274.0, "Lat": 21.85139, "Lon": -78.11725}, {"Name": "Esmeralda", "Country Code": "MX", "Population": 2249.0, "Lat": 25.74326, "Lon": -103.43097}, {"Name": "Esmeralda", "Country Code": "PH", "Population": 2674.0, "Lat": 15.86722, "Lon": 120.715}], "Esmeraldas": [{"Name": "Esmeraldas", "Country Code": "BR", "Population": 103206.0, "Lat": -19.7625, "Lon": -44.31389}, {"Name": "Esmeraldas", "Country Code": "EC", "Population": 218727.0, "Lat": 0.9592, "Lon": -79.65397}], "Esmoriz": [{"Name": "Esmoriz", "Country Code": "PT", "Population": 11393.0, "Lat": 40.95773, "Lon": -8.62753}], "Esna": [{"Name": "Esna", "Country Code": "EG", "Population": 96818.0, "Lat": 25.29336, "Lon": 32.55402}], "Esnandes": [{"Name": "Esnandes", "Country Code": "FR", "Population": 1959.0, "Lat": 46.24992, "Lon": -1.1159}], "Esneux": [{"Name": "Esneux", "Country Code": "BE", "Population": 13497.0, "Lat": 50.53596, "Lon": 5.56775}], "Espadana": [{"Name": "Espada\u00f1a", "Country Code": "ES", "Population": 47.0, "Lat": 41.06085, "Lon": -6.28457}], "Espadanedo": [{"Name": "Espada\u00f1edo", "Country Code": "ES", "Population": 185.0, "Lat": 42.11618, "Lon": -6.39419}], "Espadilla": [{"Name": "Espadilla", "Country Code": "ES", "Population": 58.0, "Lat": 40.03333, "Lon": -0.35}], "Espalion": [{"Name": "Espalion", "Country Code": "FR", "Population": 4652.0, "Lat": 44.52237, "Lon": 2.76265}], "Espaly-Saint-Marcel": [{"Name": "Espaly-Saint-Marcel", "Country Code": "FR", "Population": 3971.0, "Lat": 45.0479, "Lon": 3.86557}], "Espana": [{"Name": "Espa\u00f1a", "Country Code": "PH", "Population": 2624.0, "Lat": 12.38414, "Lon": 122.49901}], "Espanita": [{"Name": "Espa\u00f1ita", "Country Code": "MX", "Population": 2445.0, "Lat": 19.46286, "Lon": -98.42434}], "Espanola": [{"Name": "Espanola", "Country Code": "CA", "Population": 4682.0, "Lat": 46.25837, "Lon": -81.76649}, {"Name": "Espa\u00f1ola", "Country Code": "US", "Population": 10224.0, "Lat": 35.99113, "Lon": -106.08058}], "Espargo": [{"Name": "Espargo", "Country Code": "PT", "Population": 1309.0, "Lat": 40.92462, "Lon": -8.57495}], "Espargos": [{"Name": "Espargos", "Country Code": "CV", "Population": 24500.0, "Lat": 16.75524, "Lon": -22.9446}], "Esparragal": [{"Name": "Esparragal", "Country Code": "ES", "Population": 6420.0, "Lat": 38.03333, "Lon": -1.08333}], "Esparragalejo": [{"Name": "Esparragalejo", "Country Code": "ES", "Population": 1524.0, "Lat": 38.9433, "Lon": -6.43549}], "Esparragosa de Lares": [{"Name": "Esparragosa de Lares", "Country Code": "ES", "Population": 1054.0, "Lat": 38.97517, "Lon": -5.26968}], "Esparragosa de la Serena": [{"Name": "Esparragosa de la Serena", "Country Code": "ES", "Population": 1118.0, "Lat": 38.651, "Lon": -5.60657}], "Esparreguera": [{"Name": "Esparreguera", "Country Code": "ES", "Population": 21855.0, "Lat": 41.53809, "Lon": 1.87025}], "Espartinas": [{"Name": "Espartinas", "Country Code": "ES", "Population": 12648.0, "Lat": 37.38154, "Lon": -6.12578}], "Esparto": [{"Name": "Esparto", "Country Code": "US", "Population": 3108.0, "Lat": 38.69213, "Lon": -122.01719}], "Esparza": [{"Name": "Esparza", "Country Code": "CR", "Population": 15575.0, "Lat": 9.99197, "Lon": -84.66628}], "Espave": [{"Name": "Espav\u00e9", "Country Code": "PA", "Population": 1236.0, "Lat": 8.66339, "Lon": -79.8725}], "Espeja": [{"Name": "Espeja", "Country Code": "ES", "Population": 272.0, "Lat": 40.56565, "Lon": -6.71582}], "Espeja de San Marcelino": [{"Name": "Espeja de San Marcelino", "Country Code": "ES", "Population": 237.0, "Lat": 41.80227, "Lon": -3.2223}], "Espejo": [{"Name": "Espejo", "Country Code": "ES", "Population": 3796.0, "Lat": 37.6798, "Lon": -4.55355}], "Espejon": [{"Name": "Espej\u00f3n", "Country Code": "ES", "Population": 200.0, "Lat": 41.83023, "Lon": -3.25936}], "Espeland": [{"Name": "Espeland", "Country Code": "NO", "Population": 1793.0, "Lat": 60.38249, "Lon": 5.4657}], "Espelette": [{"Name": "Espelette", "Country Code": "FR", "Population": 2032.0, "Lat": 43.34052, "Lon": -1.44798}], "Espelkamp": [{"Name": "Espelkamp", "Country Code": "DE", "Population": 26378.0, "Lat": 52.38251, "Lon": 8.62127}], "Espeluy": [{"Name": "Espel\u00fay", "Country Code": "ES", "Population": 771.0, "Lat": 38.0318, "Lon": -3.86309}], "Espenau": [{"Name": "Espenau", "Country Code": "DE", "Population": 4876.0, "Lat": 51.39664, "Lon": 9.47021}], "Espenhain": [{"Name": "Espenhain", "Country Code": "DE", "Population": 2843.0, "Lat": 51.18926, "Lon": 12.47885}], "Espera": [{"Name": "Espera", "Country Code": "ES", "Population": 3810.0, "Lat": 36.87446, "Lon": -5.806}], "Espera Feliz": [{"Name": "Espera Feliz", "Country Code": "BR", "Population": 13030.0, "Lat": -20.65028, "Lon": -41.90722}], "Esperalvillo": [{"Name": "Esperalvillo", "Country Code": "DO", "Population": 5445.0, "Lat": 18.81509, "Lon": -70.03557}], "Esperanca": [{"Name": "Esperan\u00e7a", "Country Code": "BR", "Population": 18817.0, "Lat": -7.03306, "Lon": -35.85722}], "Esperance": [{"Name": "Esperance", "Country Code": "AU", "Population": 2263.0, "Lat": -33.85919, "Lon": 121.89164}, {"Name": "Esperance", "Country Code": "US", "Population": 3601.0, "Lat": 47.78899, "Lon": -122.35541}], "Esperance Trebuchet": [{"Name": "Esp\u00e9rance Tr\u00e9buchet", "Country Code": "MU", "Population": 2323.0, "Lat": -20.06972, "Lon": 57.64194}], "Esperantina": [{"Name": "Esperantina", "Country Code": "BR", "Population": 21044.0, "Lat": -3.90167, "Lon": -42.23361}], "Esperantinopolis": [{"Name": "Esperantin\u00f3polis", "Country Code": "BR", "Population": 13166.0, "Lat": -4.86667, "Lon": -44.70833}], "Esperanza": [{"Name": "Esperanza", "Country Code": "AR", "Population": 35885.0, "Lat": -31.4488, "Lon": -60.93173}, {"Name": "Esperanza", "Country Code": "BZ", "Population": 1262.0, "Lat": 17.17453, "Lon": -89.04415}, {"Name": "Esperanza", "Country Code": "CU", "Population": 10462.0, "Lat": 22.4468, "Lon": -80.09711}, {"Name": "Esperanza", "Country Code": "DO", "Population": 42169.0, "Lat": 19.58469, "Lon": -70.98489}, {"Name": "Esperanza", "Country Code": "MX", "Population": 38969.0, "Lat": 27.57916, "Lon": -109.9298}, {"Name": "Esperanza", "Country Code": "MX", "Population": 7833.0, "Lat": 18.85853, "Lon": -97.37641}, {"Name": "Esperanza", "Country Code": "MX", "Population": 2537.0, "Lat": 20.6461, "Lon": -100.11128}, {"Name": "Esperanza", "Country Code": "PH", "Population": 2723.0, "Lat": 7.49167, "Lon": 125.72806}, {"Name": "Esperanza", "Country Code": "PH", "Population": 2141.0, "Lat": 8.18083, "Lon": 124.00722}, {"Name": "Esperanza", "Country Code": "PH", "Population": 0.0, "Lat": 11.7365, "Lon": 124.042}, {"Name": "Esperanza", "Country Code": "PH", "Population": 5257.0, "Lat": 10.6995, "Lon": 124.3143}, {"Name": "Esperanza", "Country Code": "PH", "Population": 6193.0, "Lat": 8.67694, "Lon": 125.64694}, {"Name": "Esperanza", "Country Code": "PH", "Population": 3251.0, "Lat": 10.7027, "Lon": 124.4143}, {"Name": "Esperanza", "Country Code": "PH", "Population": 2398.0, "Lat": 6.49804, "Lon": 124.66741}, {"Name": "Esperanza", "Country Code": "PH", "Population": 6009.0, "Lat": 6.72306, "Lon": 124.51972}, {"Name": "Esperanza", "Country Code": "PR", "Population": 1092.0, "Lat": 18.09719, "Lon": -65.47071}], "Esperanza East": [{"Name": "Esperanza East", "Country Code": "PH", "Population": 2181.0, "Lat": 17.02327, "Lon": 121.68402}], "Esperaza": [{"Name": "Esp\u00e9raza", "Country Code": "FR", "Population": 2175.0, "Lat": 42.93503, "Lon": 2.22082}], "Espergaerde": [{"Name": "Esperg\u00e6rde", "Country Code": "DK", "Population": 11358.0, "Lat": 55.99464, "Lon": 12.54733}], "Esperia": [{"Name": "Esperia", "Country Code": "IT", "Population": 903.0, "Lat": 41.38237, "Lon": 13.68491}], "Espiel": [{"Name": "Espiel", "Country Code": "ES", "Population": 2332.0, "Lat": 38.2, "Lon": -5.01667}], "Espinal": [{"Name": "Espinal", "Country Code": "CO", "Population": 56213.0, "Lat": 4.14924, "Lon": -74.88429}, {"Name": "Espinal", "Country Code": "MX", "Population": 2676.0, "Lat": 20.25817, "Lon": -97.40028}], "Espinho": [{"Name": "Espinho", "Country Code": "PT", "Population": 32786.0, "Lat": 41.00763, "Lon": -8.64125}], "Espino": [{"Name": "Espino", "Country Code": "PR", "Population": 1422.0, "Lat": 18.27634, "Lon": -67.11935}], "Espino de la Orbada": [{"Name": "Espino de la Orbada", "Country Code": "ES", "Population": 311.0, "Lat": 41.10693, "Lon": -5.42515}], "Espinosa": [{"Name": "Espinosa", "Country Code": "BR", "Population": 17548.0, "Lat": -14.92611, "Lon": -42.81917}], "Espinosa de Cerrato": [{"Name": "Espinosa de Cerrato", "Country Code": "ES", "Population": 208.0, "Lat": 41.96679, "Lon": -3.95346}], "Espinosa de Cervera": [{"Name": "Espinosa de Cervera", "Country Code": "ES", "Population": 97.0, "Lat": 41.89683, "Lon": -3.46858}], "Espinosa de Henares": [{"Name": "Espinosa de Henares", "Country Code": "ES", "Population": 668.0, "Lat": 40.90053, "Lon": -3.06956}], "Espinosa de Villagonzalo": [{"Name": "Espinosa de Villagonzalo", "Country Code": "ES", "Population": 221.0, "Lat": 42.47949, "Lon": -4.37218}], "Espinosa de los Monteros": [{"Name": "Espinosa de los Monteros", "Country Code": "ES", "Population": 1970.0, "Lat": 43.07754, "Lon": -3.55365}], "Espinosa del Camino": [{"Name": "Espinosa del Camino", "Country Code": "ES", "Population": 35.0, "Lat": 42.4059, "Lon": -3.28019}], "Espinoso del Rey": [{"Name": "Espinoso del Rey", "Country Code": "ES", "Population": 599.0, "Lat": 39.65333, "Lon": -4.78371}], "Espirdo": [{"Name": "Espirdo", "Country Code": "ES", "Population": 422.0, "Lat": 40.99764, "Lon": -4.07331}], "Espirito Santo do Pinhal": [{"Name": "Esp\u00edrito Santo do Pinhal", "Country Code": "BR", "Population": 37448.0, "Lat": -22.11583, "Lon": -46.68278}], "Espiritu": [{"Name": "Espiritu", "Country Code": "PH", "Population": 3566.0, "Lat": 17.9809, "Lon": 120.6569}], "Espita": [{"Name": "Espita", "Country Code": "MX", "Population": 11551.0, "Lat": 21.01098, "Lon": -88.30681}], "Espiye": [{"Name": "Espiye", "Country Code": "TR", "Population": 15058.0, "Lat": 40.94705, "Lon": 38.70299}], "Esplanada": [{"Name": "Esplanada", "Country Code": "BR", "Population": 18859.0, "Lat": -11.79611, "Lon": -37.945}], "Esplegares": [{"Name": "Esplegares", "Country Code": "ES", "Population": 52.0, "Lat": 40.8565, "Lon": -2.37084}], "Esplugues de Llobregat": [{"Name": "Esplugues de Llobregat", "Country Code": "ES", "Population": 46355.0, "Lat": 41.37732, "Lon": 2.08809}], "Esplus": [{"Name": "Espl\u00fas", "Country Code": "ES", "Population": 734.0, "Lat": 41.7987, "Lon": 0.27586}], "Espolla": [{"Name": "Espolla", "Country Code": "ES", "Population": 385.0, "Lat": 42.3912, "Lon": 3.00064}], "Esponella": [{"Name": "Esponell\u00e0", "Country Code": "ES", "Population": 434.0, "Lat": 42.16667, "Lon": 2.8}], "Espoo": [{"Name": "Espoo", "Country Code": "FI", "Population": 256760.0, "Lat": 60.2052, "Lon": 24.6522}], "Esporlatu": [{"Name": "Esporlatu", "Country Code": "IT", "Population": 408.0, "Lat": 40.38456, "Lon": 8.98983}], "Esporles": [{"Name": "Esporles", "Country Code": "ES", "Population": 4457.0, "Lat": 39.66794, "Lon": 2.57867}], "Esporoes": [{"Name": "Espor\u00f5es", "Country Code": "PT", "Population": 1709.0, "Lat": 41.51006, "Lon": -8.41729}], "Esposende": [{"Name": "Esposende", "Country Code": "PT", "Population": 34625.0, "Lat": 41.5361, "Lon": -8.78201}], "Espot": [{"Name": "Espot", "Country Code": "ES", "Population": 388.0, "Lat": 42.57838, "Lon": 1.08666}], "Espronceda": [{"Name": "Espronceda", "Country Code": "ES", "Population": 160.0, "Lat": 42.59707, "Lon": -2.30524}], "Espumoso": [{"Name": "Espumoso", "Country Code": "BR", "Population": 10340.0, "Lat": -28.72472, "Lon": -52.84972}], "Espy": [{"Name": "Espy", "Country Code": "US", "Population": 1642.0, "Lat": 41.0062, "Lon": -76.40994}], "Esqueda": [{"Name": "Esqueda", "Country Code": "MX", "Population": 6749.0, "Lat": 30.72412, "Lon": -109.5893}], "Esqueheries": [{"Name": "Esqu\u00e9h\u00e9ries", "Country Code": "FR", "Population": 1222.0, "Lat": 49.98391, "Lon": 3.74743}], "Esquel": [{"Name": "Esquel", "Country Code": "AR", "Population": 28486.0, "Lat": -42.91147, "Lon": -71.31947}], "Esquelbecq": [{"Name": "Esquelbecq", "Country Code": "FR", "Population": 2181.0, "Lat": 50.88694, "Lon": 2.43215}], "Esquerdes": [{"Name": "Esquerdes", "Country Code": "FR", "Population": 1506.0, "Lat": 50.70414, "Lon": 2.18851}], "Esquias": [{"Name": "Esqu\u00edas", "Country Code": "HN", "Population": 1339.0, "Lat": 14.74392, "Lon": -87.3712}], "Esquibien": [{"Name": "Esquibien", "Country Code": "FR", "Population": 1707.0, "Lat": 48.02506, "Lon": -4.56139}], "Esquimalt": [{"Name": "Esquimalt", "Country Code": "CA", "Population": 17655.0, "Lat": 48.43569, "Lon": -123.41174}], "Esquina": [{"Name": "Esquina", "Country Code": "AR", "Population": 26399.0, "Lat": -30.01476, "Lon": -59.5289}], "Esquipulas": [{"Name": "Esquipulas", "Country Code": "CR", "Population": 1512.0, "Lat": 10.05676, "Lon": -84.42337}, {"Name": "Esquipulas", "Country Code": "GT", "Population": 20674.0, "Lat": 14.56571, "Lon": -89.35166}, {"Name": "Esquipulas", "Country Code": "NI", "Population": 0.0, "Lat": 12.66446, "Lon": -85.78734}], "Esquipulas Palo Gordo": [{"Name": "Esquipulas Palo Gordo", "Country Code": "GT", "Population": 1533.0, "Lat": 14.94135, "Lon": -91.82564}], "Esquivias": [{"Name": "Esquivias", "Country Code": "ES", "Population": 4634.0, "Lat": 40.1044, "Lon": -3.76677}], "Essan Kouakoukro": [{"Name": "Essan Kouakoukro", "Country Code": "CI", "Population": 1505.0, "Lat": 7.37168, "Lon": -4.70139}], "Essang": [{"Name": "Essang", "Country Code": "ID", "Population": 0.0, "Lat": 4.45752, "Lon": 126.7319}], "Essaouira": [{"Name": "Essaouira", "Country Code": "MA", "Population": 85137.0, "Lat": 31.5125, "Lon": -9.77}], "Essars": [{"Name": "Essars", "Country Code": "FR", "Population": 1672.0, "Lat": 50.54868, "Lon": 2.6662}], "Essau": [{"Name": "Essau", "Country Code": "GM", "Population": 11758.0, "Lat": 13.48389, "Lon": -16.53472}], "Esse": [{"Name": "Ess\u00e9", "Country Code": "CM", "Population": 3803.0, "Lat": 4.1, "Lon": 11.9}], "Essegnon": [{"Name": "Essegnon", "Country Code": "CI", "Population": 1890.0, "Lat": 5.99467, "Lon": -4.45556}], "Essekhinat": [{"Name": "Essekhinat", "Country Code": "MA", "Population": 3831.0, "Lat": 34.03394, "Lon": -4.86151}], "Essel": [{"Name": "Essel", "Country Code": "DE", "Population": 1095.0, "Lat": 52.69131, "Lon": 9.64141}], "Esselbach": [{"Name": "Esselbach", "Country Code": "DE", "Population": 2018.0, "Lat": 49.85528, "Lon": 9.52583}], "Essen": [{"Name": "Essen", "Country Code": "BE", "Population": 10000.0, "Lat": 51.46791, "Lon": 4.46901}, {"Name": "Essen", "Country Code": "DE", "Population": 593085.0, "Lat": 51.45657, "Lon": 7.01228}, {"Name": "Essen", "Country Code": "DE", "Population": 8185.0, "Lat": 52.72258, "Lon": 7.9371}], "Essenbach": [{"Name": "Essenbach", "Country Code": "DE", "Population": 11070.0, "Lat": 48.61332, "Lon": 12.21833}], "Essendine": [{"Name": "Essendine", "Country Code": "GB", "Population": 448.0, "Lat": 52.70187, "Lon": -0.4525}], "Essendon": [{"Name": "Essendon", "Country Code": "AU", "Population": 21240.0, "Lat": -37.74981, "Lon": 144.9109}], "Essendon North": [{"Name": "Essendon North", "Country Code": "AU", "Population": 2985.0, "Lat": -37.74225, "Lon": 144.90546}], "Essendon West": [{"Name": "Essendon West", "Country Code": "AU", "Population": 1416.0, "Lat": -37.75489, "Lon": 144.88338}], "Essene": [{"Name": "Essene", "Country Code": "BE", "Population": 3445.0, "Lat": 50.90163, "Lon": 4.13743}], "Essenheim": [{"Name": "Essenheim", "Country Code": "DE", "Population": 3161.0, "Lat": 49.93056, "Lon": 8.15556}], "Essert": [{"Name": "Essert", "Country Code": "FR", "Population": 2891.0, "Lat": 47.63342, "Lon": 6.81702}], "Essesteijn": [{"Name": "Essesteijn", "Country Code": "NL", "Population": 4900.0, "Lat": 52.08534, "Lon": 4.37263}], "Essex": [{"Name": "Essex", "Country Code": "CA", "Population": 7446.0, "Lat": 42.17509, "Lon": -82.82483}, {"Name": "Essex", "Country Code": "US", "Population": 1471.0, "Lat": 42.63204, "Lon": -70.78283}, {"Name": "Essex", "Country Code": "US", "Population": 39262.0, "Lat": 39.30927, "Lon": -76.47496}], "Essex Fells": [{"Name": "Essex Fells", "Country Code": "US", "Population": 2159.0, "Lat": 40.82454, "Lon": -74.28459}], "Essex Junction": [{"Name": "Essex Junction", "Country Code": "US", "Population": 10111.0, "Lat": 44.49061, "Lon": -73.11096}], "Essex Village": [{"Name": "Essex Village", "Country Code": "US", "Population": 2495.0, "Lat": 41.35544, "Lon": -72.39101}], "Essexville": [{"Name": "Essexville", "Country Code": "US", "Population": 3396.0, "Lat": 43.6153, "Lon": -83.84192}], "Essey-les-Nancy": [{"Name": "Essey-l\u00e8s-Nancy", "Country Code": "FR", "Population": 8090.0, "Lat": 48.705, "Lon": 6.22691}], "Essigny-le-Grand": [{"Name": "Essigny-le-Grand", "Country Code": "FR", "Population": 1216.0, "Lat": 49.77865, "Lon": 3.27774}], "Essing": [{"Name": "Essing", "Country Code": "DE", "Population": 1002.0, "Lat": 48.93467, "Lon": 11.78972}], "Essingen": [{"Name": "Essingen", "Country Code": "DE", "Population": 2043.0, "Lat": 49.23583, "Lon": 8.17472}, {"Name": "Essingen", "Country Code": "DE", "Population": 6383.0, "Lat": 48.80859, "Lon": 10.02773}], "Essington": [{"Name": "Essington", "Country Code": "GB", "Population": 4829.0, "Lat": 52.6291, "Lon": -2.0577}], "Esslingen": [{"Name": "Esslingen", "Country Code": "CH", "Population": 1203.0, "Lat": 47.28325, "Lon": 8.71038}, {"Name": "Esslingen", "Country Code": "DE", "Population": 92390.0, "Lat": 48.73961, "Lon": 9.30473}], "Esso": [{"Name": "Esso", "Country Code": "RU", "Population": 1965.0, "Lat": 55.92738, "Lon": 158.70708}], "Essomes-sur-Marne": [{"Name": "Ess\u00f4mes-sur-Marne", "Country Code": "FR", "Population": 2483.0, "Lat": 49.02881, "Lon": 3.37571}], "Essoyla": [{"Name": "Essoyla", "Country Code": "RU", "Population": 3300.0, "Lat": 61.86983, "Lon": 33.14901}], "Essuikro": [{"Name": "Essuikro", "Country Code": "CI", "Population": 1262.0, "Lat": 6.63024, "Lon": -4.3}], "Estables": [{"Name": "Establ\u00e9s", "Country Code": "ES", "Population": 52.0, "Lat": 41.00767, "Lon": -2.02438}], "Estaca": [{"Name": "Estaca", "Country Code": "PH", "Population": 2661.0, "Lat": 9.6933, "Lon": 124.2722}], "Estacada": [{"Name": "Estacada", "Country Code": "US", "Population": 3152.0, "Lat": 45.28957, "Lon": -122.3337}], "Estacion": [{"Name": "Estacion", "Country Code": "PH", "Population": 4478.0, "Lat": 15.69944, "Lon": 120.60833}], "Estacion Bamoa": [{"Name": "Estacion Bamoa", "Country Code": "MX", "Population": 6733.0, "Lat": 25.70842, "Lon": -108.31298}], "Estacion Camacho": [{"Name": "Estaci\u00f3n Camacho", "Country Code": "MX", "Population": 1189.0, "Lat": 24.44038, "Lon": -102.37283}], "Estacion Capomas": [{"Name": "Estaci\u00f3n Capomas", "Country Code": "MX", "Population": 1265.0, "Lat": 25.60066, "Lon": -108.22333}], "Estacion Chimaneco": [{"Name": "Estaci\u00f3n Chimaneco", "Country Code": "MX", "Population": 2041.0, "Lat": 24.9543, "Lon": -107.74913}], "Estacion Coahuila": [{"Name": "Estaci\u00f3n Coahuila", "Country Code": "MX", "Population": 7596.0, "Lat": 32.19304, "Lon": -114.99933}], "Estacion Conchos": [{"Name": "Estaci\u00f3n Conchos", "Country Code": "MX", "Population": 1670.0, "Lat": 27.97326, "Lon": -105.28843}], "Estacion Consuelo": [{"Name": "Estaci\u00f3n Consuelo", "Country Code": "MX", "Population": 1981.0, "Lat": 28.33118, "Lon": -105.59471}], "Estacion Corral": [{"Name": "Estaci\u00f3n Corral", "Country Code": "MX", "Population": 1788.0, "Lat": 27.62889, "Lon": -109.96611}], "Estacion Corralejo": [{"Name": "Estaci\u00f3n Corralejo", "Country Code": "MX", "Population": 1008.0, "Lat": 20.47, "Lon": -101.61639}], "Estacion Dobladero": [{"Name": "Estaci\u00f3n Dobladero", "Country Code": "MX", "Population": 1266.0, "Lat": 18.115, "Lon": -95.76611}], "Estacion Huehuetan": [{"Name": "Estaci\u00f3n Huehuet\u00e1n", "Country Code": "MX", "Population": 6314.0, "Lat": 15.01091, "Lon": -92.40662}], "Estacion Joaquin": [{"Name": "Estaci\u00f3n Joaqu\u00edn", "Country Code": "MX", "Population": 1960.0, "Lat": 20.56082, "Lon": -101.51993}], "Estacion Juanita": [{"Name": "Estaci\u00f3n Juanita", "Country Code": "MX", "Population": 3813.0, "Lat": 17.80889, "Lon": -95.2175}], "Estacion Llano": [{"Name": "Estaci\u00f3n Llano", "Country Code": "MX", "Population": 1292.0, "Lat": 30.36149, "Lon": -111.10381}], "Estacion Mogone": [{"Name": "Estaci\u00f3n Mogo\u00f1\u00e9", "Country Code": "MX", "Population": 1466.0, "Lat": 16.99472, "Lon": -95.03667}], "Estacion Obispo": [{"Name": "Estaci\u00f3n Obispo", "Country Code": "MX", "Population": 1622.0, "Lat": 24.29306, "Lon": -107.15944}], "Estacion Penjamo": [{"Name": "Estaci\u00f3n P\u00e9njamo", "Country Code": "MX", "Population": 2615.0, "Lat": 20.3947, "Lon": -101.69188}], "Estacion Pescaderos": [{"Name": "Estaci\u00f3n Pescaderos", "Country Code": "MX", "Population": 1051.0, "Lat": 32.31196, "Lon": -115.13823}], "Estacion Porvenir": [{"Name": "Estaci\u00f3n Porvenir", "Country Code": "UY", "Population": 1055.0, "Lat": -32.37085, "Lon": -57.85371}], "Estacion Querendaro": [{"Name": "Estaci\u00f3n Quer\u00e9ndaro", "Country Code": "MX", "Population": 8770.0, "Lat": 19.88285, "Lon": -100.94861}], "Estacion Rosales": [{"Name": "Estaci\u00f3n Rosales", "Country Code": "MX", "Population": 1085.0, "Lat": 24.83719, "Lon": -107.58005}], "Estacion San Jose": [{"Name": "Estaci\u00f3n San Jos\u00e9", "Country Code": "MX", "Population": 3487.0, "Lat": 23.18972, "Lon": -102.78472}], "Estacion San Manuel": [{"Name": "Estaci\u00f3n San Manuel", "Country Code": "MX", "Population": 1315.0, "Lat": 17.65256, "Lon": -93.38427}], "Estacion Santa Engracia": [{"Name": "Estaci\u00f3n Santa Engracia", "Country Code": "MX", "Population": 6606.0, "Lat": 24.01528, "Lon": -99.20194}], "Estacion Tamuin": [{"Name": "Estaci\u00f3n Tamu\u00edn", "Country Code": "MX", "Population": 1130.0, "Lat": 22.0775, "Lon": -98.81111}], "Estacion Tuzantan": [{"Name": "Estaci\u00f3n Tuzant\u00e1n", "Country Code": "MX", "Population": 1225.0, "Lat": 15.10643, "Lon": -92.45092}], "Estacion Zamora": [{"Name": "Estaci\u00f3n Zamora", "Country Code": "MX", "Population": 1049.0, "Lat": 29.26116, "Lon": -110.88653}], "Estacion de Apulco": [{"Name": "Estaci\u00f3n de Apulco", "Country Code": "MX", "Population": 1438.0, "Lat": 20.28611, "Lon": -98.3475}], "Estacion de Cartama": [{"Name": "Estaci\u00f3n de C\u00e1rtama", "Country Code": "ES", "Population": 5000.0, "Lat": 36.73333, "Lon": -4.61667}], "Estacion de San Francisco": [{"Name": "Estaci\u00f3n de San Francisco", "Country Code": "MX", "Population": 1140.0, "Lat": 21.03722, "Lon": -101.82472}], "Estacion la Piedad": [{"Name": "Estaci\u00f3n la Piedad", "Country Code": "MX", "Population": 1123.0, "Lat": 20.3675, "Lon": -101.99806}], "Estada": [{"Name": "Estada", "Country Code": "ES", "Population": 197.0, "Lat": 42.07201, "Lon": 0.23219}], "Estadilla": [{"Name": "Estadilla", "Country Code": "ES", "Population": 831.0, "Lat": 42.05657, "Lon": 0.24343}], "Estagel": [{"Name": "Estagel", "Country Code": "FR", "Population": 2129.0, "Lat": 42.77276, "Lon": 2.69819}], "Estahban": [{"Name": "Estahb\u0101n", "Country Code": "IR", "Population": 0.0, "Lat": 29.1266, "Lon": 54.0421}], "Estaimbourg": [{"Name": "Estaimbourg", "Country Code": "BE", "Population": 1508.0, "Lat": 50.67998, "Lon": 3.30785}], "Estaimpuis": [{"Name": "Estaimpuis", "Country Code": "BE", "Population": 9340.0, "Lat": 50.70485, "Lon": 3.26785}], "Estaires": [{"Name": "Estaires", "Country Code": "FR", "Population": 5979.0, "Lat": 50.64574, "Lon": 2.72782}], "Estancia": [{"Name": "Est\u00e2ncia", "Country Code": "BR", "Population": 55654.0, "Lat": -11.26833, "Lon": -37.43833}, {"Name": "Estancia", "Country Code": "PH", "Population": 3708.0, "Lat": 13.3589, "Lon": 123.6796}, {"Name": "Estancia", "Country Code": "PH", "Population": 11050.0, "Lat": 11.4551, "Lon": 123.152}, {"Name": "Estancia", "Country Code": "US", "Population": 1597.0, "Lat": 34.75839, "Lon": -106.05585}], "Estancia Velha": [{"Name": "Est\u00e2ncia Velha", "Country Code": "BR", "Population": 40390.0, "Lat": -29.64833, "Lon": -51.17389}], "Estancia de Animas": [{"Name": "Estancia de \u00c1nimas", "Country Code": "MX", "Population": 2605.0, "Lat": 22.48795, "Lon": -101.99526}], "Estancia de Guadalupe": [{"Name": "Estancia de Guadalupe", "Country Code": "MX", "Population": 1744.0, "Lat": 22.28063, "Lon": -101.65745}], "Estancia del Llano": [{"Name": "Estancia del Llano", "Country Code": "MX", "Population": 1863.0, "Lat": 20.51101, "Lon": -100.72637}], "Estancias de Florida": [{"Name": "Estancias de Florida", "Country Code": "PR", "Population": 5972.0, "Lat": 18.36662, "Lon": -66.56962}], "Estanislao del Campo": [{"Name": "Estanislao del Campo", "Country Code": "AR", "Population": 4055.0, "Lat": -25.05358, "Lon": -60.09066}], "Estanzuela": [{"Name": "Estanzuela", "Country Code": "GT", "Population": 8937.0, "Lat": 14.99777, "Lon": -89.57285}, {"Name": "Estanzuela", "Country Code": "MX", "Population": 1379.0, "Lat": 22.26889, "Lon": -101.00806}, {"Name": "Estanzuela", "Country Code": "MX", "Population": 4492.0, "Lat": 19.46081, "Lon": -96.85819}], "Estanzuela de Romero": [{"Name": "Estanzuela de Romero", "Country Code": "MX", "Population": 1505.0, "Lat": 20.18477, "Lon": -100.50448}], "Estapilla": [{"Name": "Estapilla", "Country Code": "MX", "Population": 1089.0, "Lat": 17.54491, "Lon": -91.40503}], "Estarreja": [{"Name": "Estarreja", "Country Code": "PT", "Population": 0.0, "Lat": 40.75648, "Lon": -8.57207}], "Estavayer-le-Lac": [{"Name": "Estavayer-le-Lac", "Country Code": "CH", "Population": 5061.0, "Lat": 46.84876, "Lon": 6.8465}], "Estcourt": [{"Name": "Estcourt", "Country Code": "ZA", "Population": 0.0, "Lat": -29.01269, "Lon": 29.86619}], "Este": [{"Name": "Este", "Country Code": "IT", "Population": 16963.0, "Lat": 45.22338, "Lon": 11.66379}], "Estebania": [{"Name": "Esteban\u00eda", "Country Code": "DO", "Population": 5591.0, "Lat": 18.4577, "Lon": -70.6435}], "Estefania": [{"Name": "Estefania", "Country Code": "PH", "Population": 2165.0, "Lat": 17.79952, "Lon": 121.7231}], "Esteio": [{"Name": "Esteio", "Country Code": "BR", "Population": 84902.0, "Lat": -29.86139, "Lon": -51.17917}], "Estela": [{"Name": "Estela", "Country Code": "PT", "Population": 2307.0, "Lat": 41.44944, "Lon": -8.75166}], "Esteli": [{"Name": "Estel\u00ed", "Country Code": "NI", "Population": 96422.0, "Lat": 13.09185, "Lon": -86.35384}], "Estell Manor": [{"Name": "Estell Manor", "Country Code": "US", "Population": 1731.0, "Lat": 39.41206, "Lon": -74.74239}], "Estella": [{"Name": "Estella", "Country Code": "AU", "Population": 2196.0, "Lat": -35.07254, "Lon": 147.35748}], "Estella-Lizarra": [{"Name": "Estella-Lizarra", "Country Code": "ES", "Population": 14238.0, "Lat": 42.67182, "Lon": -2.03226}], "Estelle": [{"Name": "Estelle", "Country Code": "US", "Population": 16377.0, "Lat": 29.84576, "Lon": -90.10674}], "Estellencs": [{"Name": "Estellencs", "Country Code": "ES", "Population": 386.0, "Lat": 39.65338, "Lon": 2.4813}], "Estelnic": [{"Name": "Estelnic", "Country Code": "RO", "Population": 814.0, "Lat": 46.10445, "Lon": 26.21262}], "Estenfeld": [{"Name": "Estenfeld", "Country Code": "DE", "Population": 4907.0, "Lat": 49.82896, "Lon": 10.00588}], "Estepa": [{"Name": "Estepa", "Country Code": "ES", "Population": 12632.0, "Lat": 37.29263, "Lon": -4.87896}], "Estepa de San Juan": [{"Name": "Estepa de San Juan", "Country Code": "ES", "Population": 11.0, "Lat": 41.92661, "Lon": -2.33322}], "Estepar": [{"Name": "Est\u00e9par", "Country Code": "ES", "Population": 786.0, "Lat": 42.27731, "Lon": -3.89946}], "Estepona": [{"Name": "Estepona", "Country Code": "ES", "Population": 65592.0, "Lat": 36.42764, "Lon": -5.14589}], "Ester": [{"Name": "Ester", "Country Code": "US", "Population": 2422.0, "Lat": 64.84722, "Lon": -148.01444}], "Estercuel": [{"Name": "Estercuel", "Country Code": "ES", "Population": 312.0, "Lat": 40.855, "Lon": -0.63208}], "Esterhazy": [{"Name": "Esterhazy", "Country Code": "CA", "Population": 2194.0, "Lat": 50.65001, "Lon": -102.08426}], "Esternay": [{"Name": "Esternay", "Country Code": "FR", "Population": 1639.0, "Lat": 48.73232, "Lon": 3.56159}], "Estero": [{"Name": "Estero", "Country Code": "US", "Population": 30799.0, "Lat": 26.43814, "Lon": -81.80675}], "Estero Hondo": [{"Name": "Estero Hondo", "Country Code": "DO", "Population": 1649.0, "Lat": 19.82712, "Lon": -71.17411}], "Estero de Milpas": [{"Name": "Estero de Milpas", "Country Code": "MX", "Population": 1529.0, "Lat": 21.2537, "Lon": -97.45082}], "Estero del Idolo": [{"Name": "Estero del \u00cddolo", "Country Code": "MX", "Population": 3833.0, "Lat": 20.88953, "Lon": -97.65878}], "Esteros": [{"Name": "Esteros", "Country Code": "MX", "Population": 2230.0, "Lat": 22.52005, "Lon": -98.12607}], "Esterwegen": [{"Name": "Esterwegen", "Country Code": "DE", "Population": 5208.0, "Lat": 52.99288, "Lon": 7.63327}], "Esterzili": [{"Name": "Esterzili", "Country Code": "IT", "Population": 716.0, "Lat": 39.78041, "Lon": 9.28357}], "Estes Park": [{"Name": "Estes Park", "Country Code": "US", "Population": 6257.0, "Lat": 40.37721, "Lon": -105.52167}], "Estevan": [{"Name": "Estevan", "Country Code": "CA", "Population": 11258.0, "Lat": 49.13337, "Lon": -102.98422}], "Estevelles": [{"Name": "Estevelles", "Country Code": "FR", "Population": 1713.0, "Lat": 50.47653, "Lon": 2.90928}], "Esthal": [{"Name": "Esthal", "Country Code": "DE", "Population": 1567.0, "Lat": 49.38333, "Lon": 7.98333}], "Esther": [{"Name": "Esther", "Country Code": "US", "Population": 1161.0, "Lat": 37.85033, "Lon": -90.49874}], "Estherville": [{"Name": "Estherville", "Country Code": "US", "Population": 6011.0, "Lat": 43.40163, "Lon": -94.83276}], "Estill": [{"Name": "Estill", "Country Code": "US", "Population": 1950.0, "Lat": 32.75489, "Lon": -81.24205}], "Estill Springs": [{"Name": "Estill Springs", "Country Code": "US", "Population": 2044.0, "Lat": 35.27064, "Lon": -86.12804}], "Estillac": [{"Name": "Estillac", "Country Code": "FR", "Population": 1374.0, "Lat": 44.15716, "Lon": 0.56421}], "Estinnes-au-Mont": [{"Name": "Estinnes-au-Mont", "Country Code": "BE", "Population": 2042.0, "Lat": 50.39692, "Lon": 4.09653}], "Estinnes-au-Val": [{"Name": "Estinnes-au-Val", "Country Code": "BE", "Population": 7573.0, "Lat": 50.41016, "Lon": 4.10477}], "Estipa": [{"Name": "Estipa", "Country Code": "MX", "Population": 2618.0, "Lat": 20.36199, "Lon": -103.72345}], "Estipona": [{"Name": "Estipona", "Country Code": "PH", "Population": 4351.0, "Lat": 15.5902, "Lon": 120.6377}], "Estique": [{"Name": "Estique", "Country Code": "PE", "Population": 262.0, "Lat": -17.54167, "Lon": -70.01861}], "Estissac": [{"Name": "Estissac", "Country Code": "FR", "Population": 1746.0, "Lat": 48.2692, "Lon": 3.80515}], "Estivareilles": [{"Name": "Estivareilles", "Country Code": "FR", "Population": 1058.0, "Lat": 46.42526, "Lon": 2.61872}], "Estivella": [{"Name": "Estivella", "Country Code": "ES", "Population": 1164.0, "Lat": 39.71667, "Lon": -0.35}], "Estoi": [{"Name": "Est\u00f3i", "Country Code": "PT", "Population": 3538.0, "Lat": 37.09503, "Lon": -7.89445}], "Estollo": [{"Name": "Estollo", "Country Code": "ES", "Population": 129.0, "Lat": 42.32953, "Lon": -2.85092}], "Estombar": [{"Name": "Est\u00f4mbar", "Country Code": "PT", "Population": 8590.0, "Lat": 37.14629, "Lon": -8.48505}], "Eston": [{"Name": "Eston", "Country Code": "GB", "Population": 7005.0, "Lat": 54.55932, "Lon": -1.1434}], "Estorf": [{"Name": "Estorf", "Country Code": "DE", "Population": 1709.0, "Lat": 52.5885, "Lon": 9.14147}, {"Name": "Estorf", "Country Code": "DE", "Population": 1484.0, "Lat": 53.57601, "Lon": 9.20271}], "Estoril": [{"Name": "Estoril", "Country Code": "PT", "Population": 23700.0, "Lat": 38.70571, "Lon": -9.39773}], "Estrablin": [{"Name": "Estrablin", "Country Code": "FR", "Population": 3492.0, "Lat": 45.51546, "Lon": 4.96173}], "Estrada": [{"Name": "Estrada", "Country Code": "MX", "Population": 1715.0, "Lat": 20.52918, "Lon": -100.8655}], "Estrees": [{"Name": "Estr\u00e9es", "Country Code": "FR", "Population": 1047.0, "Lat": 50.30079, "Lon": 3.0698}], "Estrees-Saint-Denis": [{"Name": "Estr\u00e9es-Saint-Denis", "Country Code": "FR", "Population": 3769.0, "Lat": 49.42602, "Lon": 2.64293}], "Estreito": [{"Name": "Estreito", "Country Code": "BR", "Population": 17647.0, "Lat": -5.78333, "Lon": -43.25}], "Estreito da Calheta": [{"Name": "Estreito da Calheta", "Country Code": "PT", "Population": 1630.0, "Lat": 32.73704, "Lon": -17.18674}], "Estrela": [{"Name": "Estrela", "Country Code": "BR", "Population": 24200.0, "Lat": -28.06111, "Lon": -50.93833}], "Estrella": [{"Name": "Estrella", "Country Code": "PH", "Population": 2615.0, "Lat": 13.32898, "Lon": 121.31092}, {"Name": "Estrella", "Country Code": "PH", "Population": 4463.0, "Lat": 15.75, "Lon": 121.03333}], "Estrella de Belen": [{"Name": "Estrella de Bel\u00e9n", "Country Code": "MX", "Population": 1151.0, "Lat": 17.38722, "Lon": -91.95861}], "Estremera": [{"Name": "Estremera", "Country Code": "ES", "Population": 1180.0, "Lat": 40.18333, "Lon": -3.1}], "Estremoz": [{"Name": "Estremoz", "Country Code": "PT", "Population": 9350.0, "Lat": 38.84432, "Lon": -7.58585}], "Estriegana": [{"Name": "Estri\u00e9gana", "Country Code": "ES", "Population": 24.0, "Lat": 41.05821, "Lon": -2.52363}], "Estubeny": [{"Name": "Estubeny", "Country Code": "ES", "Population": 183.0, "Lat": 39.01792, "Lon": -0.62379}], "Esuk Oron": [{"Name": "Esuk Oron", "Country Code": "NG", "Population": 112033.0, "Lat": 4.80293, "Lon": 8.25341}], "Esvres": [{"Name": "Esvres", "Country Code": "FR", "Population": 4492.0, "Lat": 47.28537, "Lon": 0.78588}], "Esztergom": [{"Name": "Esztergom", "Country Code": "HU", "Population": 28785.0, "Lat": 47.7928, "Lon": 18.74148}], "Et Taiyiba": [{"Name": "E\u1e6d \u1e6caiyiba", "Country Code": "IL", "Population": 43957.0, "Lat": 32.26616, "Lon": 35.00893}], "Et Tira": [{"Name": "E\u1e6d \u1e6c\u012bra", "Country Code": "IL", "Population": 26552.0, "Lat": 32.2341, "Lon": 34.95023}], "Etables-sur-Mer": [{"Name": "\u00c9tables-sur-Mer", "Country Code": "FR", "Population": 2623.0, "Lat": 48.63333, "Lon": -2.83333}], "Etagnac": [{"Name": "\u00c9tagnac", "Country Code": "FR", "Population": 1012.0, "Lat": 45.89498, "Lon": 0.77871}], "Etain": [{"Name": "\u00c9tain", "Country Code": "FR", "Population": 3710.0, "Lat": 49.21259, "Lon": 5.64022}], "Etainhus": [{"Name": "\u00c9tainhus", "Country Code": "FR", "Population": 1027.0, "Lat": 49.56648, "Lon": 0.31285}], "Etajima": [{"Name": "Etajima", "Country Code": "JP", "Population": 0.0, "Lat": 34.23863, "Lon": 132.47967}], "Etalans": [{"Name": "\u00c9talans", "Country Code": "FR", "Population": 1030.0, "Lat": 47.15125, "Lon": 6.27315}], "Etalle": [{"Name": "\u00c9talle", "Country Code": "BE", "Population": 5228.0, "Lat": 49.67385, "Lon": 5.60019}], "Etampes": [{"Name": "\u00c9tampes", "Country Code": "FR", "Population": 23012.0, "Lat": 48.43507, "Lon": 2.16233}], "Etampes-sur-Marne": [{"Name": "\u00c9tampes-sur-Marne", "Country Code": "FR", "Population": 1323.0, "Lat": 49.03464, "Lon": 3.41893}], "Etang-sur-Arroux": [{"Name": "\u00c9tang-sur-Arroux", "Country Code": "FR", "Population": 1929.0, "Lat": 46.8656, "Lon": 4.18988}], "Etaples": [{"Name": "\u00c9taples", "Country Code": "FR", "Population": 11397.0, "Lat": 50.52194, "Lon": 1.63319}], "Etaules": [{"Name": "\u00c9taules", "Country Code": "FR", "Population": 2009.0, "Lat": 45.73209, "Lon": -1.0988}], "Etauliers": [{"Name": "\u00c9tauliers", "Country Code": "FR", "Population": 1514.0, "Lat": 45.22383, "Lon": -0.57358}], "Etaux": [{"Name": "Etaux", "Country Code": "FR", "Population": 1212.0, "Lat": 46.06835, "Lon": 6.29533}], "Etawa": [{"Name": "Et\u0101wa", "Country Code": "IN", "Population": 55185.0, "Lat": 24.18351, "Lon": 78.20289}], "Etawah": [{"Name": "Et\u0101wah", "Country Code": "IN", "Population": 257448.0, "Lat": 26.77615, "Lon": 79.02133}], "Etayo": [{"Name": "Etayo", "Country Code": "ES", "Population": 95.0, "Lat": 42.61695, "Lon": -2.15447}], "Etchojoa": [{"Name": "Etchojoa", "Country Code": "MX", "Population": 9710.0, "Lat": 26.91094, "Lon": -109.6261}], "Etchoropo": [{"Name": "Etchoropo", "Country Code": "MX", "Population": 1162.0, "Lat": 26.76727, "Lon": -109.68236}], "Ete": [{"Name": "Ete", "Country Code": "NG", "Population": 9805.0, "Lat": 7.08956, "Lon": 7.45341}], "Etel": [{"Name": "\u00c9tel", "Country Code": "FR", "Population": 2068.0, "Lat": 47.65773, "Lon": -3.20098}], "Eten": [{"Name": "Eten", "Country Code": "PE", "Population": 13693.0, "Lat": -6.90806, "Lon": -79.86417}], "Eterville": [{"Name": "\u00c9terville", "Country Code": "FR", "Population": 1098.0, "Lat": 49.14423, "Lon": -0.42512}], "Ethe": [{"Name": "\u00c9the", "Country Code": "BE", "Population": 1857.0, "Lat": 49.58, "Lon": 5.58208}], "Ethelton": [{"Name": "Ethelton", "Country Code": "AU", "Population": 1435.0, "Lat": -34.84869, "Lon": 138.49103}], "Ethete": [{"Name": "Ethete", "Country Code": "US", "Population": 1553.0, "Lat": 43.02496, "Lon": -108.77262}], "Eti-Osa": [{"Name": "Eti-Osa", "Country Code": "NG", "Population": 0.0, "Lat": 6.53094, "Lon": 3.32648}], "Etikhove": [{"Name": "Etikhove", "Country Code": "BE", "Population": 1867.0, "Lat": 50.81162, "Lon": 3.62489}], "Etikoppaka": [{"Name": "Etikopp\u0101ka", "Country Code": "IN", "Population": 12000.0, "Lat": 17.5, "Lon": 82.73333}], "Etili": [{"Name": "Etili", "Country Code": "TR", "Population": 0.0, "Lat": 39.98556, "Lon": 26.89667}], "Etimesgut": [{"Name": "Etimesgut", "Country Code": "TR", "Population": 0.0, "Lat": 39.95328, "Lon": 32.63285}], "Etinan": [{"Name": "Etinan", "Country Code": "NG", "Population": 10318.0, "Lat": 4.84262, "Lon": 7.85252}], "Etiolles": [{"Name": "\u00c9tiolles", "Country Code": "FR", "Population": 2788.0, "Lat": 48.63248, "Lon": 2.48226}], "Etival-Clairefontaine": [{"Name": "\u00c9tival-Clairefontaine", "Country Code": "FR", "Population": 2445.0, "Lat": 48.36519, "Lon": 6.86118}], "Etival-les-le-Mans": [{"Name": "\u00c9tival-l\u00e8s-le-Mans", "Country Code": "FR", "Population": 2044.0, "Lat": 47.95671, "Lon": 0.08763}], "Etna": [{"Name": "Etna", "Country Code": "US", "Population": 1215.0, "Lat": 39.95729, "Lon": -82.68183}, {"Name": "Etna", "Country Code": "US", "Population": 1052.0, "Lat": 44.8209, "Lon": -69.11115}, {"Name": "Etna", "Country Code": "US", "Population": 3401.0, "Lat": 40.50424, "Lon": -79.94894}], "Etne": [{"Name": "Etne", "Country Code": "NO", "Population": 1283.0, "Lat": 59.66528, "Lon": 5.93708}], "Etobicoke": [{"Name": "Etobicoke", "Country Code": "CA", "Population": 365000.0, "Lat": 43.64415, "Lon": -79.56985}], "Etobicoke West Mall": [{"Name": "Etobicoke West Mall", "Country Code": "CA", "Population": 11848.0, "Lat": 43.64639, "Lon": -79.56985}], "Etoile-sur-Rhone": [{"Name": "\u00c9toile-sur-Rh\u00f4ne", "Country Code": "FR", "Population": 4345.0, "Lat": 44.83883, "Lon": 4.8905}], "Etoka": [{"Name": "Etoka", "Country Code": "RU", "Population": 3152.0, "Lat": 43.91944, "Lon": 43.04833}], "Eton": [{"Name": "Eton", "Country Code": "GB", "Population": 3025.0, "Lat": 51.48833, "Lon": -0.60905}], "Eton Wick": [{"Name": "Eton Wick", "Country Code": "GB", "Population": 2029.0, "Lat": 51.49722, "Lon": -0.63437}], "Etoumbi": [{"Name": "Etoumbi", "Country Code": "CG", "Population": 11139.0, "Lat": 0.02889, "Lon": 14.90556}], "Etowah": [{"Name": "Etowah", "Country Code": "US", "Population": 6944.0, "Lat": 35.31762, "Lon": -82.59429}, {"Name": "Etowah", "Country Code": "US", "Population": 3500.0, "Lat": 35.32341, "Lon": -84.52493}], "Etrechy": [{"Name": "\u00c9tr\u00e9chy", "Country Code": "FR", "Population": 6461.0, "Lat": 48.49465, "Lon": 2.19489}], "Etreillers": [{"Name": "\u00c9treillers", "Country Code": "FR", "Population": 1048.0, "Lat": 49.83059, "Lon": 3.16029}], "Etrelles": [{"Name": "\u00c9trelles", "Country Code": "FR", "Population": 2395.0, "Lat": 48.06057, "Lon": -1.19377}], "Etrembieres": [{"Name": "\u00c9trembi\u00e8res", "Country Code": "FR", "Population": 1573.0, "Lat": 46.17923, "Lon": 6.22725}], "Etrepagny": [{"Name": "\u00c9tr\u00e9pagny", "Country Code": "FR", "Population": 3761.0, "Lat": 49.30623, "Lon": 1.61139}], "Etretat": [{"Name": "\u00c9tretat", "Country Code": "FR", "Population": 1658.0, "Lat": 49.70669, "Lon": 0.20523}], "Etreux": [{"Name": "\u00c9treux", "Country Code": "FR", "Population": 1645.0, "Lat": 49.98333, "Lon": 3.65}], "Etriche": [{"Name": "\u00c9trich\u00e9", "Country Code": "FR", "Population": 1272.0, "Lat": 47.65127, "Lon": -0.44423}], "Etropole": [{"Name": "Etropole", "Country Code": "BG", "Population": 11031.0, "Lat": 42.8328, "Lon": 23.99636}], "Etroubles": [{"Name": "Etroubles", "Country Code": "IT", "Population": 363.0, "Lat": 45.82082, "Lon": 7.23137}], "Etroukro": [{"Name": "Etroukro", "Country Code": "CI", "Population": 4113.0, "Lat": 7.25889, "Lon": -3.76389}], "Etruria": [{"Name": "Etruria", "Country Code": "AR", "Population": 3788.0, "Lat": -32.93941, "Lon": -63.24743}], "Ettaiyapuram": [{"Name": "Ettaiyapuram", "Country Code": "IN", "Population": 12956.0, "Lat": 9.14405, "Lon": 77.99066}], "Ettal": [{"Name": "Ettal", "Country Code": "FM", "Population": 0.0, "Lat": 5.584, "Lon": 153.586}], "Ettalong": [{"Name": "Ettalong", "Country Code": "AU", "Population": 4205.0, "Lat": -33.51301, "Lon": 151.3383}], "Ettalong Beach": [{"Name": "Ettalong Beach", "Country Code": "AU", "Population": 4791.0, "Lat": -33.51058, "Lon": 151.33044}], "Ettelbruck": [{"Name": "Ettelbruck", "Country Code": "LU", "Population": 6364.0, "Lat": 49.8475, "Lon": 6.10417}], "Ettelgem": [{"Name": "Ettelgem", "Country Code": "BE", "Population": 1181.0, "Lat": 51.17984, "Lon": 3.02919}], "Etten": [{"Name": "Etten", "Country Code": "NL", "Population": 1470.0, "Lat": 51.91667, "Lon": 6.33611}], "Ettenheim": [{"Name": "Ettenheim", "Country Code": "DE", "Population": 11995.0, "Lat": 48.25696, "Lon": 7.81247}], "Etterbeek": [{"Name": "Etterbeek", "Country Code": "BE", "Population": 48344.0, "Lat": 50.83272, "Lon": 4.38835}], "Ettienkro": [{"Name": "Ettienkro", "Country Code": "CI", "Population": 1357.0, "Lat": 6.8669, "Lon": -4.42076}], "Ettingen": [{"Name": "Ettingen", "Country Code": "CH", "Population": 4980.0, "Lat": 47.48225, "Lon": 7.54654}], "Ettiswil": [{"Name": "Ettiswil", "Country Code": "CH", "Population": 1801.0, "Lat": 47.15031, "Lon": 8.01759}], "Ettlingen": [{"Name": "Ettlingen", "Country Code": "DE", "Population": 38942.0, "Lat": 48.94094, "Lon": 8.40763}], "Etton": [{"Name": "Etton", "Country Code": "GB", "Population": 277.0, "Lat": 53.87848, "Lon": -0.51314}], "Ettrick": [{"Name": "Ettrick", "Country Code": "US", "Population": 6682.0, "Lat": 37.24015, "Lon": -77.42998}], "Ettringen": [{"Name": "Ettringen", "Country Code": "DE", "Population": 3372.0, "Lat": 48.1, "Lon": 10.65}, {"Name": "Ettringen", "Country Code": "DE", "Population": 2851.0, "Lat": 50.35, "Lon": 7.21667}], "Etucuaro": [{"Name": "Et\u00facuaro", "Country Code": "MX", "Population": 1263.0, "Lat": 19.89286, "Lon": -102.12945}, {"Name": "Et\u00facuaro", "Country Code": "MX", "Population": 1146.0, "Lat": 19.41939, "Lon": -101.21547}], "Etueboue": [{"Name": "Etu\u00e9bou\u00e9", "Country Code": "CI", "Population": 2377.0, "Lat": 5.21101, "Lon": -3.21473}], "Etupes": [{"Name": "\u00c9tupes", "Country Code": "FR", "Population": 3459.0, "Lat": 47.50525, "Lon": 6.87075}], "Etwall": [{"Name": "Etwall", "Country Code": "GB", "Population": 2572.0, "Lat": 52.88353, "Lon": -1.60023}], "Etxalar": [{"Name": "Etxalar", "Country Code": "ES", "Population": 813.0, "Lat": 43.23376, "Lon": -1.63671}], "Etxebarria": [{"Name": "Etxebarria", "Country Code": "ES", "Population": 0.0, "Lat": 43.25414, "Lon": -2.47776}], "Etyek": [{"Name": "Etyek", "Country Code": "HU", "Population": 3626.0, "Lat": 47.44794, "Lon": 18.75328}], "Etzatlan": [{"Name": "Etzatl\u00e1n", "Country Code": "MX", "Population": 13513.0, "Lat": 20.76839, "Lon": -104.07735}], "Etzbach": [{"Name": "Etzbach", "Country Code": "DE", "Population": 1289.0, "Lat": 50.77831, "Lon": 7.688}], "Etzelwang": [{"Name": "Etzelwang", "Country Code": "DE", "Population": 1562.0, "Lat": 49.5276, "Lon": 11.58603}], "Etzenricht": [{"Name": "Etzenricht", "Country Code": "DE", "Population": 1672.0, "Lat": 49.63333, "Lon": 12.1}], "Etzling": [{"Name": "Etzling", "Country Code": "FR", "Population": 1215.0, "Lat": 49.17943, "Lon": 6.95864}], "Eu": [{"Name": "Eu", "Country Code": "FR", "Population": 8425.0, "Lat": 50.04606, "Lon": 1.42079}], "Euan": [{"Name": "Eu\u00e1n", "Country Code": "MX", "Population": 1186.0, "Lat": 20.99715, "Lon": -89.34187}], "Eucaliptus": [{"Name": "Eucaliptus", "Country Code": "BO", "Population": 2373.0, "Lat": -17.58333, "Lon": -67.51667}], "Eucalyptus Hills": [{"Name": "Eucalyptus Hills", "Country Code": "US", "Population": 5313.0, "Lat": 32.87977, "Lon": -116.94669}], "Euclid": [{"Name": "Euclid", "Country Code": "US", "Population": 47676.0, "Lat": 41.5931, "Lon": -81.52679}], "Euclides da Cunha": [{"Name": "Euclides da Cunha", "Country Code": "BR", "Population": 29738.0, "Lat": -10.5075, "Lon": -39.01583}], "Eudlo": [{"Name": "Eudlo", "Country Code": "AU", "Population": 1118.0, "Lat": -26.72963, "Lon": 152.95395}], "Eudora": [{"Name": "Eudora", "Country Code": "US", "Population": 6378.0, "Lat": 38.94334, "Lon": -95.09858}, {"Name": "Eudora", "Country Code": "US", "Population": 2102.0, "Lat": 33.10957, "Lon": -91.26206}], "Euerbach": [{"Name": "Euerbach", "Country Code": "DE", "Population": 3158.0, "Lat": 50.06199, "Lon": 10.13695}], "Euerdorf": [{"Name": "Euerdorf", "Country Code": "DE", "Population": 1632.0, "Lat": 50.14853, "Lon": 10.02331}], "Eufaula": [{"Name": "Eufaula", "Country Code": "US", "Population": 12596.0, "Lat": 31.89127, "Lon": -85.14549}, {"Name": "Eufaula", "Country Code": "US", "Population": 2936.0, "Lat": 35.28722, "Lon": -95.5825}], "Eugendorf": [{"Name": "Eugendorf", "Country Code": "AT", "Population": 2544.0, "Lat": 47.86765, "Lon": 13.12609}], "Eugene": [{"Name": "Eugene", "Country Code": "US", "Population": 163460.0, "Lat": 44.05207, "Lon": -123.08675}], "Eugies": [{"Name": "Eugies", "Country Code": "BE", "Population": 3160.0, "Lat": 50.38893, "Lon": 3.88513}], "Euharlee": [{"Name": "Euharlee", "Country Code": "US", "Population": 4261.0, "Lat": 34.14482, "Lon": -84.933}], "Eulate": [{"Name": "Eulate", "Country Code": "ES", "Population": 339.0, "Lat": 42.77641, "Lon": -2.20638}], "Euless": [{"Name": "Euless", "Country Code": "US", "Population": 54219.0, "Lat": 32.83707, "Lon": -97.08195}], "Eulmont": [{"Name": "Eulmont", "Country Code": "FR", "Population": 1004.0, "Lat": 48.75026, "Lon": 6.22731}], "Eulomogo": [{"Name": "Eulomogo", "Country Code": "AU", "Population": 1373.0, "Lat": -32.26667, "Lon": 148.68333}], "Eumemmerring": [{"Name": "Eumemmerring", "Country Code": "AU", "Population": 2060.0, "Lat": -37.9978, "Lon": 145.24821}], "Eumundi": [{"Name": "Eumundi", "Country Code": "AU", "Population": 2194.0, "Lat": -26.47737, "Lon": 152.95115}], "Eunapolis": [{"Name": "Eun\u00e1polis", "Country Code": "BR", "Population": 114275.0, "Lat": -16.3775, "Lon": -39.58028}], "Eunice": [{"Name": "Eunice", "Country Code": "US", "Population": 3136.0, "Lat": 32.43734, "Lon": -103.15908}, {"Name": "Eunice", "Country Code": "US", "Population": 10310.0, "Lat": 30.49437, "Lon": -92.41763}], "Eupen": [{"Name": "Eupen", "Country Code": "BE", "Population": 18029.0, "Lat": 50.6279, "Lon": 6.03647}], "Eupora": [{"Name": "Eupora", "Country Code": "US", "Population": 2106.0, "Lat": 33.54068, "Lon": -89.26701}], "Eura": [{"Name": "Eura", "Country Code": "FI", "Population": 9338.0, "Lat": 61.13333, "Lon": 22.13333}], "Eurajoki": [{"Name": "Eurajoki", "Country Code": "FI", "Population": 5656.0, "Lat": 61.2, "Lon": 21.73333}], "Eurasburg": [{"Name": "Eurasburg", "Country Code": "DE", "Population": 1657.0, "Lat": 48.33333, "Lon": 11.08333}, {"Name": "Eurasburg", "Country Code": "DE", "Population": 4397.0, "Lat": 47.85389, "Lon": 11.40587}], "Euratsfeld": [{"Name": "Euratsfeld", "Country Code": "AT", "Population": 2639.0, "Lat": 48.08181, "Lon": 14.93154}], "Eureka": [{"Name": "Eureka", "Country Code": "US", "Population": 1074.0, "Lat": 48.87996, "Lon": -115.0535}, {"Name": "Eureka", "Country Code": "US", "Population": 2450.0, "Lat": 37.82392, "Lon": -96.28917}, {"Name": "Eureka", "Country Code": "US", "Population": 610.0, "Lat": 39.51271, "Lon": -115.96061}, {"Name": "Eureka", "Country Code": "US", "Population": 27017.0, "Lat": 40.80207, "Lon": -124.16367}, {"Name": "Eureka", "Country Code": "US", "Population": 5377.0, "Lat": 40.72143, "Lon": -89.27286}, {"Name": "Eureka", "Country Code": "US", "Population": 10602.0, "Lat": 38.50255, "Lon": -90.6279}], "Eureka Mill": [{"Name": "Eureka Mill", "Country Code": "US", "Population": 1476.0, "Lat": 34.71764, "Lon": -81.1937}], "Eureka Springs": [{"Name": "Eureka Springs", "Country Code": "US", "Population": 2083.0, "Lat": 36.40118, "Lon": -93.73797}], "Eureka de Media Luna (Eureka)": [{"Name": "Eureka de Media Luna (Eureka)", "Country Code": "MX", "Population": 1201.0, "Lat": 25.79889, "Lon": -103.37361}], "Eureka y Belen": [{"Name": "Eureka y Bel\u00e9n", "Country Code": "MX", "Population": 1517.0, "Lat": 17.55968, "Lon": -92.92899}], "Euroa": [{"Name": "Euroa", "Country Code": "AU", "Population": 3176.0, "Lat": -36.75555, "Lon": 145.57075}], "Eurre": [{"Name": "Eurre", "Country Code": "FR", "Population": 1087.0, "Lat": 44.75825, "Lon": 4.98843}], "Eurville-Bienville": [{"Name": "Eurville-Bienville", "Country Code": "FR", "Population": 2047.0, "Lat": 48.58333, "Lon": 5.03333}], "Eusebio": [{"Name": "Eus\u00e9bio", "Country Code": "BR", "Population": 37289.0, "Lat": -3.89, "Lon": -38.45056}], "Eusebio Ayala": [{"Name": "Eusebio Ayala", "Country Code": "PY", "Population": 8253.0, "Lat": -25.38276, "Lon": -56.96088}], "Euskirchen": [{"Name": "Euskirchen", "Country Code": "DE", "Population": 54889.0, "Lat": 50.66057, "Lon": 6.78722}], "Eussenheim": [{"Name": "Eu\u00dfenheim", "Country Code": "DE", "Population": 3302.0, "Lat": 49.98589, "Lon": 9.80899}], "Eustaquio Lopez": [{"Name": "Eustaquio Lopez", "Country Code": "PH", "Population": 14408.0, "Lat": 10.8195, "Lon": 123.0412}], "Eustis": [{"Name": "Eustis", "Country Code": "US", "Population": 19986.0, "Lat": 28.85277, "Lon": -81.68535}], "Eutaw": [{"Name": "Eutaw", "Country Code": "US", "Population": 2766.0, "Lat": 32.84059, "Lon": -87.88762}], "Eutin": [{"Name": "Eutin", "Country Code": "DE", "Population": 16984.0, "Lat": 54.14054, "Lon": 10.60751}], "Eutingen an der Enz": [{"Name": "Eutingen an der Enz", "Country Code": "DE", "Population": 5583.0, "Lat": 48.91246, "Lon": 8.74898}], "Euville": [{"Name": "Euville", "Country Code": "FR", "Population": 1450.0, "Lat": 48.7503, "Lon": 5.62603}], "Euxton": [{"Name": "Euxton", "Country Code": "GB", "Population": 7863.0, "Lat": 53.6699, "Lon": -2.67615}], "Evadale": [{"Name": "Evadale", "Country Code": "US", "Population": 1483.0, "Lat": 30.35493, "Lon": -94.07268}], "Evandale": [{"Name": "Evandale", "Country Code": "AU", "Population": 1303.0, "Lat": -41.56858, "Lon": 147.25271}, {"Name": "Evandale", "Country Code": "AU", "Population": 1351.0, "Lat": -34.90552, "Lon": 138.63542}], "Evangelista": [{"Name": "Evangelista", "Country Code": "PH", "Population": 2585.0, "Lat": 13.3335, "Lon": 121.0972}], "Evangelisti-Rubino": [{"Name": "Evangelisti-Rubino", "Country Code": "IT", "Population": 540.0, "Lat": 37.98412, "Lon": 15.17324}], "Evans": [{"Name": "Evans", "Country Code": "US", "Population": 29011.0, "Lat": 33.53375, "Lon": -82.13067}, {"Name": "Evans", "Country Code": "US", "Population": 21383.0, "Lat": 40.37637, "Lon": -104.69219}], "Evans City": [{"Name": "Evans City", "Country Code": "US", "Population": 1773.0, "Lat": 40.76923, "Lon": -80.06284}], "Evans Head": [{"Name": "Evans Head", "Country Code": "AU", "Population": 3320.0, "Lat": -29.11777, "Lon": 153.43072}], "Evansburg": [{"Name": "Evansburg", "Country Code": "US", "Population": 2129.0, "Lat": 40.18094, "Lon": -75.42907}], "Evansdale": [{"Name": "Evansdale", "Country Code": "US", "Population": 4812.0, "Lat": 42.46915, "Lon": -92.28102}], "Evanston": [{"Name": "Evanston", "Country Code": "AU", "Population": 2245.0, "Lat": -34.61657, "Lon": 138.73369}, {"Name": "Evanston", "Country Code": "US", "Population": 12133.0, "Lat": 41.26828, "Lon": -110.96324}, {"Name": "Evanston", "Country Code": "US", "Population": 75527.0, "Lat": 42.04114, "Lon": -87.69006}], "Evanston Gardens": [{"Name": "Evanston Gardens", "Country Code": "AU", "Population": 1832.0, "Lat": -34.62323, "Lon": 138.72166}], "Evanston Park": [{"Name": "Evanston Park", "Country Code": "AU", "Population": 4184.0, "Lat": -34.62284, "Lon": 138.74123}], "Evansville": [{"Name": "Evansville", "Country Code": "US", "Population": 119943.0, "Lat": 37.97476, "Lon": -87.55585}, {"Name": "Evansville", "Country Code": "US", "Population": 2931.0, "Lat": 42.85997, "Lon": -106.26836}, {"Name": "Evansville", "Country Code": "US", "Population": 5228.0, "Lat": 42.78028, "Lon": -89.29928}], "Evanton": [{"Name": "Evanton", "Country Code": "GB", "Population": 1380.0, "Lat": 57.66385, "Lon": -4.34004}], "Evart": [{"Name": "Evart", "Country Code": "US", "Population": 1861.0, "Lat": 43.90058, "Lon": -85.2581}], "Evatt": [{"Name": "Evatt", "Country Code": "AU", "Population": 5187.0, "Lat": -35.21191, "Lon": 149.06891}], "Evaux-les-Bains": [{"Name": "\u00c9vaux-les-Bains", "Country Code": "FR", "Population": 1592.0, "Lat": 46.17475, "Lon": 2.48546}], "Evciler": [{"Name": "Evciler", "Country Code": "TR", "Population": 4902.0, "Lat": 38.04139, "Lon": 29.88667}, {"Name": "Evciler", "Country Code": "TR", "Population": 1346.0, "Lat": 39.77556, "Lon": 26.77167}], "Eveleth": [{"Name": "Eveleth", "Country Code": "US", "Population": 3673.0, "Lat": 47.46243, "Lon": -92.53991}], "Even Shemu'el": [{"Name": "Even Shemu\u2019el", "Country Code": "IL", "Population": 1807.0, "Lat": 31.57641, "Lon": 34.76342}], "Even Yehuda": [{"Name": "Even Yehuda", "Country Code": "IL", "Population": 13826.0, "Lat": 32.26959, "Lon": 34.88759}], "Evendale": [{"Name": "Evendale", "Country Code": "US", "Population": 2767.0, "Lat": 39.25617, "Lon": -84.418}], "Evenos": [{"Name": "\u00c9venos", "Country Code": "FR", "Population": 2062.0, "Lat": 43.16365, "Lon": 5.84628}], "Evensk": [{"Name": "Evensk", "Country Code": "RU", "Population": 2024.0, "Lat": 61.91722, "Lon": 159.23348}], "Evenskjer": [{"Name": "Evenskjer", "Country Code": "NO", "Population": 601.0, "Lat": 68.58283, "Lon": 16.57203}], "Evenwood": [{"Name": "Evenwood", "Country Code": "GB", "Population": 1608.0, "Lat": 54.62213, "Lon": -1.76133}], "Everard Park": [{"Name": "Everard Park", "Country Code": "AU", "Population": 1060.0, "Lat": -34.95196, "Lon": 138.57481}], "Everbeek": [{"Name": "Everbeek", "Country Code": "BE", "Population": 2124.0, "Lat": 50.7626, "Lon": 3.80852}], "Everberg": [{"Name": "Everberg", "Country Code": "BE", "Population": 4064.0, "Lat": 50.87685, "Lon": 4.56983}], "Evercreech": [{"Name": "Evercreech", "Country Code": "GB", "Population": 1845.0, "Lat": 51.14806, "Lon": -2.50556}], "Everdingen": [{"Name": "Everdingen", "Country Code": "NL", "Population": 1200.0, "Lat": 51.965, "Lon": 5.15556}], "Evere": [{"Name": "Evere", "Country Code": "BE", "Population": 41667.0, "Lat": 50.87441, "Lon": 4.39905}], "Everett": [{"Name": "Everett", "Country Code": "US", "Population": 1759.0, "Lat": 40.01147, "Lon": -78.37335}, {"Name": "Everett", "Country Code": "US", "Population": 46050.0, "Lat": 42.40843, "Lon": -71.05366}, {"Name": "Everett", "Country Code": "US", "Population": 108010.0, "Lat": 47.97898, "Lon": -122.20208}], "Evergem": [{"Name": "Evergem", "Country Code": "BE", "Population": 31615.0, "Lat": 51.11306, "Lon": 3.70976}], "Evergreen": [{"Name": "Evergreen", "Country Code": "US", "Population": 9038.0, "Lat": 39.63332, "Lon": -105.31721}, {"Name": "Evergreen", "Country Code": "US", "Population": 3669.0, "Lat": 44.84247, "Lon": -89.63762}, {"Name": "Evergreen", "Country Code": "US", "Population": 3774.0, "Lat": 31.4335, "Lon": -86.95692}, {"Name": "Evergreen", "Country Code": "US", "Population": 7616.0, "Lat": 48.22579, "Lon": -114.27624}], "Evergreen Park": [{"Name": "Evergreen Park", "Country Code": "US", "Population": 19841.0, "Lat": 41.72059, "Lon": -87.70172}], "Everman": [{"Name": "Everman", "Country Code": "US", "Population": 6352.0, "Lat": 32.63097, "Lon": -97.28918}], "Eversholt": [{"Name": "Eversholt", "Country Code": "GB", "Population": 420.0, "Lat": 51.98702, "Lon": -0.55983}], "Eversley": [{"Name": "Eversley", "Country Code": "GB", "Population": 2600.0, "Lat": 51.35387, "Lon": -0.88888}], "Everson": [{"Name": "Everson", "Country Code": "US", "Population": 2600.0, "Lat": 48.92012, "Lon": -122.34266}], "Everswinkel": [{"Name": "Everswinkel", "Country Code": "DE", "Population": 9576.0, "Lat": 51.92595, "Lon": 7.8469}], "Everton": [{"Name": "Everton", "Country Code": "GB", "Population": 523.0, "Lat": 52.14581, "Lon": -0.24616}], "Everton Hills": [{"Name": "Everton Hills", "Country Code": "AU", "Population": 5833.0, "Lat": -27.38909, "Lon": 152.97126}], "Everton Park": [{"Name": "Everton Park", "Country Code": "AU", "Population": 8751.0, "Lat": -27.40732, "Lon": 152.9884}], "Evesbatch": [{"Name": "Evesbatch", "Country Code": "GB", "Population": 0.0, "Lat": 52.13333, "Lon": -2.45}], "Evesham": [{"Name": "Evesham", "Country Code": "GB", "Population": 23576.0, "Lat": 52.09237, "Lon": -1.94887}], "Evessen": [{"Name": "Evessen", "Country Code": "DE", "Population": 1422.0, "Lat": 52.18888, "Lon": 10.71081}], "Evian-les-Bains": [{"Name": "\u00c9vian-les-Bains", "Country Code": "FR", "Population": 8207.0, "Lat": 46.40111, "Lon": 6.58793}], "Evijaervi": [{"Name": "Evij\u00e4rvi", "Country Code": "FI", "Population": 2878.0, "Lat": 63.36667, "Lon": 23.48333}], "Evilard": [{"Name": "Evilard", "Country Code": "CH", "Population": 2328.0, "Lat": 47.15046, "Lon": 7.23895}], "Evin-Malmaison": [{"Name": "\u00c9vin-Malmaison", "Country Code": "FR", "Population": 4805.0, "Lat": 50.43923, "Lon": 3.03139}], "Evinayong": [{"Name": "Evinayong", "Country Code": "GQ", "Population": 8462.0, "Lat": 1.43677, "Lon": 10.55124}], "Eving": [{"Name": "Eving", "Country Code": "DE", "Population": 38687.0, "Lat": 51.55177, "Lon": 7.48087}], "Evington": [{"Name": "Evington", "Country Code": "GB", "Population": 11133.0, "Lat": 52.6, "Lon": -1.06667}], "Evionnaz": [{"Name": "Evionnaz", "Country Code": "CH", "Population": 1001.0, "Lat": 46.18096, "Lon": 7.02232}], "Evires": [{"Name": "\u00c9vires", "Country Code": "FR", "Population": 1304.0, "Lat": 46.03783, "Lon": 6.22453}], "Evje": [{"Name": "Evje", "Country Code": "NO", "Population": 0.0, "Lat": 58.58569, "Lon": 7.80363}], "Evjen": [{"Name": "Evjen", "Country Code": "NO", "Population": 2127.0, "Lat": 68.26667, "Lon": 13.73333}], "Evlalo": [{"Name": "\u00c9vlalo", "Country Code": "GR", "Population": 0.0, "Lat": 40.98333, "Lon": 24.8}], "Evodoula": [{"Name": "\u00c9vodoula", "Country Code": "CM", "Population": 1521.0, "Lat": 4.08333, "Lon": 11.2}], "Evolene": [{"Name": "Evol\u00e8ne", "Country Code": "CH", "Population": 1557.0, "Lat": 46.11422, "Lon": 7.49407}], "Evora": [{"Name": "\u00c9vora", "Country Code": "PT", "Population": 55620.0, "Lat": 38.56667, "Lon": -7.9}], "Evosmos": [{"Name": "\u00c9vosmos", "Country Code": "GR", "Population": 74686.0, "Lat": 40.67056, "Lon": 22.90833}], "Evran": [{"Name": "\u00c9vran", "Country Code": "FR", "Population": 1561.0, "Lat": 48.38211, "Lon": -1.98133}], "Evrecy": [{"Name": "\u00c9vrecy", "Country Code": "FR", "Population": 1365.0, "Lat": 49.09904, "Lon": -0.50421}], "Evregnies": [{"Name": "Evregnies", "Country Code": "BE", "Population": 1123.0, "Lat": 50.7126, "Lon": 3.28654}], "Evrehailles": [{"Name": "Evrehailles", "Country Code": "BE", "Population": 1940.0, "Lat": 50.32037, "Lon": 4.91261}], "Evren": [{"Name": "Evren", "Country Code": "TR", "Population": 4631.0, "Lat": 40.24527, "Lon": 39.17535}, {"Name": "Evren", "Country Code": "TR", "Population": 0.0, "Lat": 39.02402, "Lon": 33.80626}], "Evrenseki": [{"Name": "Evrenseki", "Country Code": "TR", "Population": 2615.0, "Lat": 36.83868, "Lon": 31.35559}], "Evrese": [{"Name": "Evre\u015fe", "Country Code": "TR", "Population": 0.0, "Lat": 40.66591, "Lon": 26.88362}], "Evreux": [{"Name": "\u00c9vreux", "Country Code": "FR", "Population": 57795.0, "Lat": 49.02414, "Lon": 1.15082}], "Evron": [{"Name": "\u00c9vron", "Country Code": "FR", "Population": 7808.0, "Lat": 48.15587, "Lon": -0.40242}], "Evropos": [{"Name": "Evrop\u00f3s", "Country Code": "GR", "Population": 1734.0, "Lat": 40.89703, "Lon": 22.55277}], "Evry": [{"Name": "\u00c9vry", "Country Code": "FR", "Population": 51900.0, "Lat": 48.6328, "Lon": 2.44049}], "Evxinoupolis": [{"Name": "Evxino\u00fapolis", "Country Code": "GR", "Population": 2281.0, "Lat": 39.18414, "Lon": 22.73831}], "Ewa Beach": [{"Name": "\u2018Ewa Beach", "Country Code": "US", "Population": 14955.0, "Lat": 21.31556, "Lon": -158.00722}], "Ewa Gentry": [{"Name": "\u2018Ewa Gentry", "Country Code": "US", "Population": 22690.0, "Lat": 21.33999, "Lon": -158.03039}], "Ewa Villages": [{"Name": "\u2018Ewa Villages", "Country Code": "US", "Population": 6108.0, "Lat": 21.34127, "Lon": -158.0397}], "Ewarton": [{"Name": "Ewarton", "Country Code": "JM", "Population": 12797.0, "Lat": 18.18333, "Lon": -77.08536}], "Ewell": [{"Name": "Ewell", "Country Code": "GB", "Population": 39994.0, "Lat": 51.34948, "Lon": -0.2494}], "Ewhurst": [{"Name": "Ewhurst", "Country Code": "GB", "Population": 1653.0, "Lat": 51.15448, "Lon": -0.44344}], "Ewing": [{"Name": "Ewing", "Country Code": "US", "Population": 36559.0, "Lat": 40.26983, "Lon": -74.79988}], "Ewo": [{"Name": "Ewo", "Country Code": "CG", "Population": 11750.0, "Lat": -0.8725, "Lon": 14.82056}], "Ewuaso": [{"Name": "Ewuaso", "Country Code": "KE", "Population": 2144.0, "Lat": -1.14856, "Lon": 36.49712}], "Ewyas Harold": [{"Name": "Ewyas Harold", "Country Code": "GB", "Population": 1007.0, "Lat": 51.95358, "Lon": -2.89325}], "Ex-Hacienda Santa Ines": [{"Name": "Ex-Hacienda Santa In\u00e9s", "Country Code": "MX", "Population": 5013.0, "Lat": 19.70667, "Lon": -99.0725}], "Ex-Hacienda de Guadalupe": [{"Name": "Ex-Hacienda de Guadalupe", "Country Code": "MX", "Population": 1146.0, "Lat": 19.78417, "Lon": -101.21472},