{"Santa Maria Camotlan": [{"Name": "Santa Mar\u00eda Camotl\u00e1n", "Country Code": "MX", "Population": 1581.0, "Lat": 17.89688, "Lon": -97.692}], "Santa Maria Canchesda": [{"Name": "Santa Mar\u00eda Canchesd\u00e1", "Country Code": "MX", "Population": 1758.0, "Lat": 19.85521, "Lon": -100.05592}], "Santa Maria Capua Vetere": [{"Name": "Santa Maria Capua Vetere", "Country Code": "IT", "Population": 31743.0, "Lat": 41.08156, "Lon": 14.25342}], "Santa Maria Chachoapam": [{"Name": "Santa Mar\u00eda Chacho\u00e1pam", "Country Code": "MX", "Population": 435.0, "Lat": 17.5257, "Lon": -97.28422}], "Santa Maria Chicometepec": [{"Name": "Santa Mar\u00eda Chicometepec", "Country Code": "MX", "Population": 1480.0, "Lat": 16.17453, "Lon": -97.96556}], "Santa Maria Chilapa de Diaz": [{"Name": "Santa Mar\u00eda Chilapa de D\u00edaz", "Country Code": "MX", "Population": 1687.0, "Lat": 17.51667, "Lon": -97.68333}], "Santa Maria Chimalapa": [{"Name": "Santa Mar\u00eda Chimalapa", "Country Code": "MX", "Population": 2540.0, "Lat": 16.90639, "Lon": -94.68333}], "Santa Maria Chimalhuacan": [{"Name": "Santa Mar\u00eda Chimalhuac\u00e1n", "Country Code": "MX", "Population": 612383.0, "Lat": 19.42155, "Lon": -98.95038}], "Santa Maria Chiquimula": [{"Name": "Santa Mar\u00eda Chiquimula", "Country Code": "GT", "Population": 6980.0, "Lat": 15.02992, "Lon": -91.3292}], "Santa Maria Citendeje": [{"Name": "Santa Mar\u00eda Citendej\u00e9", "Country Code": "MX", "Population": 6136.0, "Lat": 19.7819, "Lon": -99.92863}], "Santa Maria Coatepec": [{"Name": "Santa Maria Coatepec", "Country Code": "MX", "Population": 5524.0, "Lat": 19.10924, "Lon": -97.59253}], "Santa Maria Codifiume": [{"Name": "Santa Maria Codifiume", "Country Code": "IT", "Population": 1816.0, "Lat": 44.66424, "Lon": 11.65099}], "Santa Maria Coghinas": [{"Name": "Santa Maria Coghinas", "Country Code": "IT", "Population": 1244.0, "Lat": 40.90423, "Lon": 8.86383}], "Santa Maria Colotepec": [{"Name": "Santa Mar\u00eda Colotepec", "Country Code": "MX", "Population": 1369.0, "Lat": 15.89737, "Lon": -96.93951}], "Santa Maria Cortijo": [{"Name": "Santa Mar\u00eda Cortijo", "Country Code": "MX", "Population": 1075.0, "Lat": 16.45151, "Lon": -98.28549}], "Santa Maria Coyotepec": [{"Name": "Santa Mar\u00eda Coyotepec", "Country Code": "MX", "Population": 2283.0, "Lat": 16.96663, "Lon": -96.70513}], "Santa Maria Cuevas": [{"Name": "Santa Mar\u00eda Cuevas", "Country Code": "MX", "Population": 3398.0, "Lat": 19.86611, "Lon": -99.09875}], "Santa Maria Ecatepec": [{"Name": "Santa Mar\u00eda Ecatepec", "Country Code": "MX", "Population": 524.0, "Lat": 16.28498, "Lon": -95.87997}], "Santa Maria Endare": [{"Name": "Santa Mar\u00eda Endare", "Country Code": "MX", "Population": 1700.0, "Lat": 19.72556, "Lon": -99.81583}], "Santa Maria Guadalupe Tecola": [{"Name": "Santa Mar\u00eda Guadalupe Tecola", "Country Code": "MX", "Population": 1414.0, "Lat": 18.90639, "Lon": -98.19597}], "Santa Maria Guelace": [{"Name": "Santa Mar\u00eda Guelac\u00e9", "Country Code": "MX", "Population": 735.0, "Lat": 17.00119, "Lon": -96.60346}], "Santa Maria Guenagati": [{"Name": "Santa Mar\u00eda Guenagati", "Country Code": "MX", "Population": 1487.0, "Lat": 16.73862, "Lon": -95.3544}], "Santa Maria Hoe": [{"Name": "Santa Maria Ho\u00e8", "Country Code": "IT", "Population": 1938.0, "Lat": 45.74428, "Lon": 9.37445}], "Santa Maria Huamelula": [{"Name": "Santa Mar\u00eda Huamelula", "Country Code": "MX", "Population": 1374.0, "Lat": 15.99245, "Lon": -95.70382}], "Santa Maria Huatulco": [{"Name": "Santa Mar\u00eda Huatulco", "Country Code": "MX", "Population": 7409.0, "Lat": 15.83267, "Lon": -96.32063}], "Santa Maria Huazolotitlan": [{"Name": "Santa Mar\u00eda Huazolotitl\u00e1n", "Country Code": "MX", "Population": 4763.0, "Lat": 16.30359, "Lon": -97.91293}], "Santa Maria Huecatitla": [{"Name": "Santa Mar\u00eda Huecatitla", "Country Code": "MX", "Population": 3328.0, "Lat": 19.72511, "Lon": -99.16911}], "Santa Maria Huexoculco": [{"Name": "Santa Mar\u00eda Huexoculco", "Country Code": "MX", "Population": 12456.0, "Lat": 19.25804, "Lon": -98.8205}], "Santa Maria Huiramangaro (San Juan Tumbio)": [{"Name": "Santa Mar\u00eda Huiramangaro (San Juan Tumbio)", "Country Code": "MX", "Population": 2590.0, "Lat": 19.51306, "Lon": -101.76528}], "Santa Maria Ilucan": [{"Name": "Santa Mar\u00eda Ilucan", "Country Code": "MX", "Population": 3475.0, "Lat": 19.99222, "Lon": -99.33951}], "Santa Maria Imbaro": [{"Name": "Santa Maria Imbaro", "Country Code": "IT", "Population": 1287.0, "Lat": 42.21999, "Lon": 14.45027}], "Santa Maria Ixhuatan": [{"Name": "Santa Mar\u00eda Ixhuat\u00e1n", "Country Code": "GT", "Population": 3634.0, "Lat": 14.19, "Lon": -90.27472}], "Santa Maria Ixtiyucan": [{"Name": "Santa Mar\u00eda Ixtiyuc\u00e1n", "Country Code": "MX", "Population": 7298.0, "Lat": 19.18688, "Lon": -97.81094}], "Santa Maria Ixtulco": [{"Name": "Santa Mar\u00eda Ixtulco", "Country Code": "MX", "Population": 5293.0, "Lat": 19.32529, "Lon": -98.20843}], "Santa Maria Jacatepec": [{"Name": "Santa Mar\u00eda Jacatepec", "Country Code": "MX", "Population": 1286.0, "Lat": 17.86068, "Lon": -96.21174}], "Santa Maria Jajalpa": [{"Name": "Santa Mar\u00eda Jajalpa", "Country Code": "MX", "Population": 6755.0, "Lat": 19.11167, "Lon": -99.53583}], "Santa Maria Jalapa del Marques": [{"Name": "Santa Mar\u00eda Jalapa del Marqu\u00e9s", "Country Code": "MX", "Population": 8996.0, "Lat": 16.44027, "Lon": -95.44454}], "Santa Maria Jicaltepec": [{"Name": "Santa Mar\u00eda Jicaltepec", "Country Code": "MX", "Population": 1822.0, "Lat": 16.37917, "Lon": -98.04333}], "Santa Maria La Carita": [{"Name": "Santa Maria La Carit\u00e0", "Country Code": "IT", "Population": 11210.0, "Lat": 40.71611, "Lon": 14.50984}], "Santa Maria Lachixio": [{"Name": "Santa Mar\u00eda Lachix\u00edo", "Country Code": "MX", "Population": 1091.0, "Lat": 16.72694, "Lon": -97.01889}], "Santa Maria Macua": [{"Name": "Santa Maria Macua", "Country Code": "MX", "Population": 2197.0, "Lat": 20.13605, "Lon": -99.47544}], "Santa Maria Maddalena": [{"Name": "Santa Maria Maddalena", "Country Code": "IT", "Population": 8174.0, "Lat": 44.90231, "Lon": 11.60663}], "Santa Maria Magdalena": [{"Name": "Santa Mar\u00eda Magdalena", "Country Code": "MX", "Population": 2096.0, "Lat": 19.97398, "Lon": -99.37387}, {"Name": "Santa Mar\u00eda Magdalena", "Country Code": "MX", "Population": 9099.0, "Lat": 20.5969, "Lon": -100.44749}], "Santa Maria Magdalena Cahuacan": [{"Name": "Santa Mar\u00eda Magdalena Cahuac\u00e1n", "Country Code": "MX", "Population": 5279.0, "Lat": 19.63804, "Lon": -99.41349}], "Santa Maria Magdalena Ocotitlan": [{"Name": "Santa Mar\u00eda Magdalena Ocotitl\u00e1n", "Country Code": "MX", "Population": 6547.0, "Lat": 19.23713, "Lon": -99.62418}], "Santa Maria Maggiore": [{"Name": "Santa Maria Maggiore", "Country Code": "IT", "Population": 1264.0, "Lat": 46.13683, "Lon": 8.46108}], "Santa Maria Malacatepec": [{"Name": "Santa Mar\u00eda Malacatepec", "Country Code": "MX", "Population": 3885.0, "Lat": 18.94147, "Lon": -98.30218}], "Santa Maria Mazatla": [{"Name": "Santa Mar\u00eda Mazatla", "Country Code": "MX", "Population": 3243.0, "Lat": 19.51528, "Lon": -99.38694}], "Santa Maria Mixtequilla": [{"Name": "Santa Mar\u00eda Mixtequilla", "Country Code": "MX", "Population": 3638.0, "Lat": 16.37496, "Lon": -95.26034}], "Santa Maria Nativitas": [{"Name": "Santa Mar\u00eda Nativitas", "Country Code": "MX", "Population": 1943.0, "Lat": 19.57926, "Lon": -99.609}, {"Name": "Santa Mar\u00eda Nativitas", "Country Code": "MX", "Population": 2878.0, "Lat": 20.03901, "Lon": -98.29535}, {"Name": "Santa Mar\u00eda Nativitas", "Country Code": "MX", "Population": 1474.0, "Lat": 20.09184, "Lon": -99.79837}, {"Name": "Santa Mar\u00eda Nativitas", "Country Code": "MX", "Population": 6258.0, "Lat": 19.21139, "Lon": -99.62944}], "Santa Maria Navarrese": [{"Name": "Santa Maria Navarrese", "Country Code": "IT", "Population": 1569.0, "Lat": 39.99029, "Lon": 9.68398}], "Santa Maria Nduayaco": [{"Name": "Santa Mar\u00eda Nduayaco", "Country Code": "MX", "Population": 57.0, "Lat": 17.40996, "Lon": -97.49321}], "Santa Maria Nenetzintla": [{"Name": "Santa Mar\u00eda Nenetzintla", "Country Code": "MX", "Population": 4024.0, "Lat": 19.05413, "Lon": -97.96664}], "Santa Maria Nepopualco": [{"Name": "Santa Mar\u00eda Nepopualco", "Country Code": "MX", "Population": 3183.0, "Lat": 19.15085, "Lon": -98.49105}], "Santa Maria Nuova": [{"Name": "Santa Maria Nuova", "Country Code": "IT", "Population": 2181.0, "Lat": 44.2, "Lon": 12.19389}, {"Name": "Santa Maria Nuova", "Country Code": "IT", "Population": 3476.0, "Lat": 43.49164, "Lon": 13.3237}], "Santa Maria Palapa": [{"Name": "Santa Mar\u00eda Palapa", "Country Code": "MX", "Population": 1849.0, "Lat": 19.73589, "Lon": -98.84834}], "Santa Maria Papalo": [{"Name": "Santa Mar\u00eda P\u00e1palo", "Country Code": "MX", "Population": 1593.0, "Lat": 17.78452, "Lon": -96.79727}], "Santa Maria Pipioltepec (Pipioltepec)": [{"Name": "Santa Mar\u00eda Pipioltepec (Pipioltepec)", "Country Code": "MX", "Population": 1802.0, "Lat": 19.24056, "Lon": -100.0975}], "Santa Maria Puxmetacan": [{"Name": "Santa Mar\u00eda Puxmetac\u00e1n", "Country Code": "MX", "Population": 1380.0, "Lat": 17.26861, "Lon": -95.62333}], "Santa Maria Quelites": [{"Name": "Santa Mar\u00eda Quelites", "Country Code": "MX", "Population": 2133.0, "Lat": 19.85391, "Lon": -99.34773}], "Santa Maria Quiegolani": [{"Name": "Santa Mar\u00eda Quiegolani", "Country Code": "MX", "Population": 830.0, "Lat": 16.27705, "Lon": -96.05269}], "Santa Maria Rayon": [{"Name": "Santa Mar\u00eda Ray\u00f3n", "Country Code": "MX", "Population": 8590.0, "Lat": 19.14808, "Lon": -99.57974}], "Santa Maria Sola": [{"Name": "Santa Mar\u00eda Sola", "Country Code": "MX", "Population": 548.0, "Lat": 16.56615, "Lon": -97.01297}], "Santa Maria Tatetla": [{"Name": "Santa Mar\u00eda Tatetla", "Country Code": "MX", "Population": 1777.0, "Lat": 19.27278, "Lon": -96.71251}], "Santa Maria Tecuanulco": [{"Name": "Santa Mar\u00eda Tecuanulco", "Country Code": "MX", "Population": 2773.0, "Lat": 19.5066, "Lon": -98.76211}], "Santa Maria Temaxcalapa": [{"Name": "Santa Mar\u00eda Temaxcalapa", "Country Code": "MX", "Population": 968.0, "Lat": 17.38036, "Lon": -96.16137}], "Santa Maria Teopoxco": [{"Name": "Santa Mar\u00eda Teopoxco", "Country Code": "MX", "Population": 765.0, "Lat": 18.16655, "Lon": -96.95488}], "Santa Maria Tepantlali": [{"Name": "Santa Mar\u00eda Tepantlali", "Country Code": "MX", "Population": 1096.0, "Lat": 16.99663, "Lon": -96.00883}], "Santa Maria Texmelucan": [{"Name": "Santa Mar\u00eda Texmelucan", "Country Code": "MX", "Population": 3754.0, "Lat": 19.29417, "Lon": -98.53778}], "Santa Maria Tiltepec": [{"Name": "Santa Mar\u00eda Tiltepec", "Country Code": "MX", "Population": 2163.0, "Lat": 16.0627, "Lon": -97.17036}], "Santa Maria Tlalmimilolpan": [{"Name": "Santa Mar\u00eda Tlalmimilolpan", "Country Code": "MX", "Population": 2628.0, "Lat": 19.3913, "Lon": -99.47088}], "Santa Maria Tonameca": [{"Name": "Santa Mar\u00eda Tonameca", "Country Code": "MX", "Population": 1850.0, "Lat": 15.74805, "Lon": -96.54704}], "Santa Maria Totoltepec": [{"Name": "Santa Mar\u00eda Totoltepec", "Country Code": "MX", "Population": 18779.0, "Lat": 19.30653, "Lon": -99.59279}], "Santa Maria Transpontina": [{"Name": "Santa Mar\u00eda Transpontina", "Country Code": "MX", "Population": 1393.0, "Lat": 21.4149, "Lon": -102.2572}], "Santa Maria Urapicho": [{"Name": "Santa Mar\u00eda Urapicho", "Country Code": "MX", "Population": 1472.0, "Lat": 19.68139, "Lon": -102.11194}], "Santa Maria Velato": [{"Name": "Santa Mar\u00eda Velato", "Country Code": "MX", "Population": 1175.0, "Lat": 16.50421, "Lon": -96.64514}], "Santa Maria Visitacion": [{"Name": "Santa Mar\u00eda Visitaci\u00f3n", "Country Code": "GT", "Population": 1487.0, "Lat": 14.71717, "Lon": -91.30844}], "Santa Maria Xadani": [{"Name": "Santa Mar\u00eda Xadani", "Country Code": "MX", "Population": 7613.0, "Lat": 16.36198, "Lon": -95.01826}], "Santa Maria Xigui": [{"Name": "Santa Mar\u00eda Xigui", "Country Code": "MX", "Population": 1104.0, "Lat": 20.46111, "Lon": -99.345}], "Santa Maria Xonacatepec": [{"Name": "Santa Mar\u00eda Xonacatepec", "Country Code": "MX", "Population": 13673.0, "Lat": 19.08944, "Lon": -98.10361}], "Santa Maria Yavesia": [{"Name": "Santa Mar\u00eda Yaves\u00eda", "Country Code": "MX", "Population": 440.0, "Lat": 17.23531, "Lon": -96.43062}], "Santa Maria Yucuhiti": [{"Name": "Santa Mar\u00eda Yucuhiti", "Country Code": "MX", "Population": 252.0, "Lat": 17.01873, "Lon": -97.76951}], "Santa Maria Yucunicoco": [{"Name": "Santa Mar\u00eda Yucunicoco", "Country Code": "MX", "Population": 1511.0, "Lat": 17.23754, "Lon": -97.91698}], "Santa Maria Zacatepec": [{"Name": "Santa Mar\u00eda Zacatepec", "Country Code": "MX", "Population": 12466.0, "Lat": 19.12333, "Lon": -98.36528}], "Santa Maria Zapotitlan": [{"Name": "Santa Mar\u00eda Zapotitl\u00e1n", "Country Code": "MX", "Population": 1104.0, "Lat": 16.12781, "Lon": -95.85239}], "Santa Maria Zolotepec": [{"Name": "Santa Mar\u00eda Zolotepec", "Country Code": "MX", "Population": 10656.0, "Lat": 19.41728, "Lon": -99.49327}], "Santa Maria Zoquitlan": [{"Name": "Santa Mar\u00eda Zoquitl\u00e1n", "Country Code": "MX", "Population": 1686.0, "Lat": 16.55886, "Lon": -96.35325}], "Santa Maria a Monte": [{"Name": "Santa Maria a Monte", "Country Code": "IT", "Population": 6438.0, "Lat": 43.70793, "Lon": 10.69196}], "Santa Maria d'Olo": [{"Name": "Santa Maria d'Ol\u00f3", "Country Code": "ES", "Population": 1044.0, "Lat": 41.86667, "Lon": 2.03333}], "Santa Maria da Boa Vista": [{"Name": "Santa Maria da Boa Vista", "Country Code": "BR", "Population": 14695.0, "Lat": -8.80778, "Lon": -39.82556}], "Santa Maria da Vitoria": [{"Name": "Santa Maria da Vit\u00f3ria", "Country Code": "BR", "Population": 23488.0, "Lat": -13.38814, "Lon": -44.19868}], "Santa Maria de Caparo": [{"Name": "Santa Mar\u00eda de Caparo", "Country Code": "VE", "Population": 0.0, "Lat": 7.71412, "Lon": -71.46466}], "Santa Maria de Cayon": [{"Name": "Santa Mar\u00eda de Cay\u00f3n", "Country Code": "ES", "Population": 6710.0, "Lat": 43.30849, "Lon": -3.8368}], "Santa Maria de Corco": [{"Name": "Santa Maria de Corc\u00f3", "Country Code": "ES", "Population": 2141.0, "Lat": 42.03333, "Lon": 2.36667}], "Santa Maria de Enmedio": [{"Name": "Santa Mar\u00eda de Enmedio", "Country Code": "MX", "Population": 1003.0, "Lat": 21.41938, "Lon": -102.22231}], "Santa Maria de Guadalupe": [{"Name": "Santa Mar\u00eda de Guadalupe", "Country Code": "MX", "Population": 4213.0, "Lat": 19.82111, "Lon": -99.12778}], "Santa Maria de Guaymas": [{"Name": "Santa Mar\u00eda de Guaymas", "Country Code": "MX", "Population": 1469.0, "Lat": 28.14255, "Lon": -110.69301}], "Santa Maria de Huerta": [{"Name": "Santa Mar\u00eda de Huerta", "Country Code": "ES", "Population": 405.0, "Lat": 41.26667, "Lon": -2.16667}], "Santa Maria de Ipire": [{"Name": "Santa Mar\u00eda de Ipire", "Country Code": "VE", "Population": 0.0, "Lat": 8.81556, "Lon": -65.3225}], "Santa Maria de Jesus": [{"Name": "Santa Mar\u00eda de Jes\u00fas", "Country Code": "GT", "Population": 21795.0, "Lat": 14.49452, "Lon": -90.71036}], "Santa Maria de Jetiba": [{"Name": "Santa Maria de Jetib\u00e1", "Country Code": "BR", "Population": 13090.0, "Lat": -20.02745, "Lon": -40.74336}], "Santa Maria de Ordas": [{"Name": "Santa Mar\u00eda de Ord\u00e1s", "Country Code": "ES", "Population": 364.0, "Lat": 42.72653, "Lon": -5.82301}], "Santa Maria de Palautordera": [{"Name": "Santa Maria de Palautordera", "Country Code": "ES", "Population": 7739.0, "Lat": 41.69417, "Lon": 2.44566}], "Santa Maria de Sando": [{"Name": "Santa Mar\u00eda de Sando", "Country Code": "ES", "Population": 158.0, "Lat": 40.97909, "Lon": -6.12904}], "Santa Maria de Valverde": [{"Name": "Santa Mar\u00eda de Valverde", "Country Code": "ES", "Population": 93.0, "Lat": 41.93479, "Lon": -5.9356}], "Santa Maria de la Alameda": [{"Name": "Santa Mar\u00eda de la Alameda", "Country Code": "ES", "Population": 992.0, "Lat": 40.59492, "Lon": -4.25772}], "Santa Maria de la Isla": [{"Name": "Santa Mar\u00eda de la Isla", "Country Code": "ES", "Population": 624.0, "Lat": 42.35533, "Lon": -5.9287}], "Santa Maria de la Paz": [{"Name": "Santa Mar\u00eda de la Paz", "Country Code": "MX", "Population": 1684.0, "Lat": 21.51205, "Lon": -103.40804}, {"Name": "Santa Mar\u00eda de la Paz", "Country Code": "MX", "Population": 1026.0, "Lat": 22.38786, "Lon": -102.25697}], "Santa Maria de la Vega": [{"Name": "Santa Mar\u00eda de la Vega", "Country Code": "ES", "Population": 478.0, "Lat": 42.08497, "Lon": -5.80851}], "Santa Maria de las Hoyas": [{"Name": "Santa Mar\u00eda de las Hoyas", "Country Code": "ES", "Population": 191.0, "Lat": 41.77145, "Lon": -3.14172}], "Santa Maria de los Angeles": [{"Name": "Santa Mar\u00eda de los \u00c1ngeles", "Country Code": "MX", "Population": 1694.0, "Lat": 19.78629, "Lon": -100.19938}, {"Name": "Santa Mar\u00eda de los \u00c1ngeles", "Country Code": "MX", "Population": 957.0, "Lat": 22.17361, "Lon": -103.22456}, {"Name": "Santa Mar\u00eda de los \u00c1ngeles", "Country Code": "MX", "Population": 1332.0, "Lat": 22.28383, "Lon": -101.86508}], "Santa Maria de los Caballeros": [{"Name": "Santa Mar\u00eda de los Caballeros", "Country Code": "ES", "Population": 114.0, "Lat": 40.38925, "Lon": -5.45112}], "Santa Maria degli Angeli": [{"Name": "Santa Maria degli Angeli", "Country Code": "IT", "Population": 7719.0, "Lat": 43.05691, "Lon": 12.57497}], "Santa Maria dei Sabbioni": [{"Name": "Santa Maria dei Sabbioni", "Country Code": "IT", "Population": 350.0, "Lat": 45.24386, "Lon": 9.83927}], "Santa Maria del Berrocal": [{"Name": "Santa Mar\u00eda del Berrocal", "Country Code": "ES", "Population": 514.0, "Lat": 40.50845, "Lon": -5.40483}], "Santa Maria del Buaraje": [{"Name": "Santa Mar\u00eda del Bu\u00e1raje", "Country Code": "MX", "Population": 1044.0, "Lat": 27.30118, "Lon": -109.80256}], "Santa Maria del Cami": [{"Name": "Santa Maria del Cam\u00ed", "Country Code": "ES", "Population": 0.0, "Lat": 39.65111, "Lon": 2.77317}], "Santa Maria del Campo": [{"Name": "Santa Mar\u00eda del Campo", "Country Code": "ES", "Population": 677.0, "Lat": 42.13304, "Lon": -3.97283}], "Santa Maria del Campo Rus": [{"Name": "Santa Mar\u00eda del Campo Rus", "Country Code": "ES", "Population": 771.0, "Lat": 39.55942, "Lon": -2.42306}], "Santa Maria del Cedro": [{"Name": "Santa Maria del Cedro", "Country Code": "IT", "Population": 1512.0, "Lat": 39.7462, "Lon": 15.83638}], "Santa Maria del Invierno": [{"Name": "Santa Mar\u00eda del Invierno", "Country Code": "ES", "Population": 70.0, "Lat": 42.44288, "Lon": -3.43782}], "Santa Maria del Llano": [{"Name": "Santa Mar\u00eda del Llano", "Country Code": "MX", "Population": 4078.0, "Lat": 19.63444, "Lon": -99.725}], "Santa Maria del Molise": [{"Name": "Santa Maria del Molise", "Country Code": "IT", "Population": 245.0, "Lat": 41.55285, "Lon": 14.36762}], "Santa Maria del Monte": [{"Name": "Santa Mar\u00eda del Monte", "Country Code": "MX", "Population": 3922.0, "Lat": 19.28973, "Lon": -99.82355}, {"Name": "Santa Mar\u00eda del Monte", "Country Code": "MX", "Population": 2910.0, "Lat": 18.54117, "Lon": -97.1999}], "Santa Maria del Monte de Cea": [{"Name": "Santa Mar\u00eda del Monte de Cea", "Country Code": "ES", "Population": 321.0, "Lat": 42.49137, "Lon": -5.11689}], "Santa Maria del Oro": [{"Name": "Santa Mar\u00eda del Oro", "Country Code": "MX", "Population": 0.0, "Lat": 19.58679, "Lon": -102.9095}, {"Name": "Santa Mar\u00eda del Oro", "Country Code": "MX", "Population": 4482.0, "Lat": 21.3339, "Lon": -104.58696}, {"Name": "Santa Mar\u00eda del Oro", "Country Code": "MX", "Population": 5878.0, "Lat": 25.94944, "Lon": -105.36444}], "Santa Maria del Paramo": [{"Name": "Santa Mar\u00eda del P\u00e1ramo", "Country Code": "ES", "Population": 3120.0, "Lat": 42.35512, "Lon": -5.75151}], "Santa Maria del Real": [{"Name": "Santa Mar\u00eda del Real", "Country Code": "HN", "Population": 4587.0, "Lat": 14.76667, "Lon": -85.95}], "Santa Maria del Refugio": [{"Name": "Santa Mar\u00eda del Refugio", "Country Code": "MX", "Population": 3041.0, "Lat": 20.4403, "Lon": -100.80032}], "Santa Maria del Rio": [{"Name": "Santa Mar\u00eda del R\u00edo", "Country Code": "MX", "Population": 13099.0, "Lat": 21.79615, "Lon": -100.73815}], "Santa Maria del Rosario": [{"Name": "Santa Mar\u00eda del Rosario", "Country Code": "MX", "Population": 55.0, "Lat": 17.35276, "Lon": -97.5948}], "Santa Maria del Tule": [{"Name": "Santa Mar\u00eda del Tule", "Country Code": "MX", "Population": 7636.0, "Lat": 17.04712, "Lon": -96.63573}], "Santa Maria del Val": [{"Name": "Santa Mar\u00eda del Val", "Country Code": "ES", "Population": 96.0, "Lat": 40.50439, "Lon": -2.04115}], "Santa Maria del Valle": [{"Name": "Santa Mar\u00eda del Valle", "Country Code": "MX", "Population": 4142.0, "Lat": 20.87837, "Lon": -102.37983}], "Santa Maria della Versa": [{"Name": "Santa Maria della Versa", "Country Code": "IT", "Population": 1534.0, "Lat": 44.98757, "Lon": 9.29976}], "Santa Maria di Licodia": [{"Name": "Santa Maria di Licodia", "Country Code": "IT", "Population": 6810.0, "Lat": 37.61684, "Lon": 14.89337}], "Santa Maria di Non": [{"Name": "Santa Maria di Non", "Country Code": "IT", "Population": 2360.0, "Lat": 45.51322, "Lon": 11.85364}], "Santa Maria di Sala": [{"Name": "Santa Maria di Sala", "Country Code": "IT", "Population": 2408.0, "Lat": 45.50699, "Lon": 12.03565}], "Santa Maria do Para": [{"Name": "Santa Maria do Par\u00e1", "Country Code": "BR", "Population": 12915.0, "Lat": -1.35028, "Lon": -47.57556}], "Santa Maria do Suacui": [{"Name": "Santa Maria do Sua\u00e7u\u00ed", "Country Code": "BR", "Population": 9936.0, "Lat": -18.19028, "Lon": -42.41417}], "Santa Maria in Calanca": [{"Name": "Santa Maria in Calanca", "Country Code": "CH", "Population": 0.0, "Lat": 46.26285, "Lon": 9.14485}], "Santa Maria la Alta": [{"Name": "Santa Mar\u00eda la Alta", "Country Code": "MX", "Population": 6626.0, "Lat": 18.59982, "Lon": -97.65809}], "Santa Maria la Asuncion": [{"Name": "Santa Mar\u00eda la Asunci\u00f3n", "Country Code": "MX", "Population": 1701.0, "Lat": 18.10722, "Lon": -96.81917}, {"Name": "Santa Mar\u00eda la Asunci\u00f3n", "Country Code": "MX", "Population": 4200.0, "Lat": 19.2675, "Lon": -99.5525}], "Santa Maria la Calera": [{"Name": "Santa Mar\u00eda la Calera", "Country Code": "MX", "Population": 1507.0, "Lat": 20.03072, "Lon": -98.71929}], "Santa Maria la Fossa": [{"Name": "Santa Maria la Fossa", "Country Code": "IT", "Population": 2397.0, "Lat": 41.09171, "Lon": 14.12822}], "Santa Maria la Longa": [{"Name": "Santa Maria la Longa", "Country Code": "IT", "Population": 1229.0, "Lat": 45.93403, "Lon": 13.28911}], "Santa Maria la Real de Nieva": [{"Name": "Santa Mar\u00eda la Real de Nieva", "Country Code": "ES", "Population": 1310.0, "Lat": 41.06998, "Lon": -4.40709}], "Santa Maria la Stella": [{"Name": "Santa Maria la Stella", "Country Code": "IT", "Population": 4467.0, "Lat": 37.62349, "Lon": 15.12071}], "Santa Marina": [{"Name": "Santa Marina", "Country Code": "IT", "Population": 467.0, "Lat": 40.1052, "Lon": 15.54153}], "Santa Marina Salina": [{"Name": "Santa Marina Salina", "Country Code": "IT", "Population": 630.0, "Lat": 38.56117, "Lon": 14.87077}], "Santa Marina del Rey": [{"Name": "Santa Marina del Rey", "Country Code": "ES", "Population": 2281.0, "Lat": 42.51334, "Lon": -5.86065}], "Santa Marinella": [{"Name": "Santa Marinella", "Country Code": "IT", "Population": 14034.0, "Lat": 42.03425, "Lon": 11.85416}], "Santa Marta": [{"Name": "Santa Marta", "Country Code": "CO", "Population": 499192.0, "Lat": 11.24079, "Lon": -74.19904}, {"Name": "Santa Marta", "Country Code": "ES", "Population": 4177.0, "Lat": 38.61421, "Lon": -6.62799}, {"Name": "Santa Marta", "Country Code": "IT", "Population": 272.0, "Lat": 44.50401, "Lon": 8.89268}, {"Name": "Santa Marta", "Country Code": "PA", "Population": 1952.0, "Lat": 8.52289, "Lon": -82.70113}], "Santa Marta de Magasca": [{"Name": "Santa Marta de Magasca", "Country Code": "ES", "Population": 248.0, "Lat": 39.5115, "Lon": -6.09881}], "Santa Marta de Ortigueira": [{"Name": "Santa Marta de Ortigueira", "Country Code": "ES", "Population": 7663.0, "Lat": 43.68333, "Lon": -7.85}], "Santa Marta de Penaguiao": [{"Name": "Santa Marta de Penagui\u00e3o", "Country Code": "PT", "Population": 0.0, "Lat": 41.20991, "Lon": -7.78386}], "Santa Marta de Tormes": [{"Name": "Santa Marta de Tormes", "Country Code": "ES", "Population": 14630.0, "Lat": 40.95065, "Lon": -5.62723}], "Santa Marta del Cerro": [{"Name": "Santa Marta del Cerro", "Country Code": "ES", "Population": 53.0, "Lat": 41.21843, "Lon": -3.68582}], "Santa Martha": [{"Name": "Santa Martha", "Country Code": "MX", "Population": 1630.0, "Lat": 19.05977, "Lon": -99.38132}, {"Name": "Santa Martha", "Country Code": "MX", "Population": 2374.0, "Lat": 22.34278, "Lon": -98.70639}, {"Name": "Santa Martha", "Country Code": "MX", "Population": 2314.0, "Lat": 19.43145, "Lon": -98.91744}], "Santa Martha Chichihualtepec": [{"Name": "Santa Martha Chichihualtepec", "Country Code": "MX", "Population": 1426.0, "Lat": 16.64948, "Lon": -96.77451}], "Santa Martha Hidalgo": [{"Name": "Santa Martha Hidalgo", "Country Code": "MX", "Population": 1646.0, "Lat": 18.985, "Lon": -98.32444}], "Santa Matilde": [{"Name": "Santa Matilde", "Country Code": "MX", "Population": 1537.0, "Lat": 20.43268, "Lon": -100.02611}], "Santa Monica": [{"Name": "Santa Monica", "Country Code": "BR", "Population": 5100.0, "Lat": -27.59137, "Lon": -48.50756}, {"Name": "Santa M\u00f3nica", "Country Code": "MX", "Population": 1072.0, "Lat": 22.7548, "Lon": -102.4222}, {"Name": "Santa M\u00f3nica", "Country Code": "MX", "Population": 1238.0, "Lat": 20.30847, "Lon": -98.21791}, {"Name": "Santa M\u00f3nica", "Country Code": "MX", "Population": 2872.0, "Lat": 18.99306, "Lon": -99.42361}, {"Name": "Santa M\u00f3nica", "Country Code": "MX", "Population": 1533.0, "Lat": 19.98363, "Lon": -98.62143}, {"Name": "Santa Monica", "Country Code": "PH", "Population": 2581.0, "Lat": 10.73639, "Lon": 122.45333}, {"Name": "Santa Monica", "Country Code": "PH", "Population": 2284.0, "Lat": 10.02, "Lon": 126.03833}, {"Name": "Santa Monica", "Country Code": "PH", "Population": 5475.0, "Lat": 15.35771, "Lon": 120.72006}, {"Name": "Santa Monica", "Country Code": "US", "Population": 93220.0, "Lat": 34.01949, "Lon": -118.49138}], "Santa Monica-Cella": [{"Name": "Santa Monica-Cella", "Country Code": "IT", "Population": 2060.0, "Lat": 43.95765, "Lon": 12.68846}], "Santa Ninfa": [{"Name": "Santa Ninfa", "Country Code": "IT", "Population": 4856.0, "Lat": 37.77042, "Lon": 12.87744}], "Santa Nino": [{"Name": "Santa Nino", "Country Code": "PH", "Population": 2339.0, "Lat": 10.689, "Lon": 123.7884}], "Santa Olalla": [{"Name": "Santa Olalla", "Country Code": "ES", "Population": 3024.0, "Lat": 40.02348, "Lon": -4.43025}], "Santa Olalla de Bureba": [{"Name": "Santa Olalla de Bureba", "Country Code": "ES", "Population": 31.0, "Lat": 42.47721, "Lon": -3.44109}], "Santa Olalla del Cala": [{"Name": "Santa Olalla del Cala", "Country Code": "ES", "Population": 0.0, "Lat": 37.9, "Lon": -6.21667}], "Santa Oliva": [{"Name": "Santa Oliva", "Country Code": "ES", "Population": 2761.0, "Lat": 41.25357, "Lon": 1.55086}], "Santa Paolina": [{"Name": "Santa Paolina", "Country Code": "IT", "Population": 608.0, "Lat": 41.02202, "Lon": 14.8463}], "Santa Pau": [{"Name": "Santa Pau", "Country Code": "ES", "Population": 1541.0, "Lat": 42.1443, "Lon": 2.57123}], "Santa Paula": [{"Name": "Santa Paula", "Country Code": "US", "Population": 30546.0, "Lat": 34.35417, "Lon": -119.05927}], "Santa Paz": [{"Name": "Santa Paz", "Country Code": "PH", "Population": 2046.0, "Lat": 10.26667, "Lon": 124.78333}], "Santa Perpetua de Mogoda": [{"Name": "Santa Perp\u00e8tua de Mogoda", "Country Code": "ES", "Population": 25048.0, "Lat": 41.53333, "Lon": 2.18333}], "Santa Pola": [{"Name": "Santa Pola", "Country Code": "ES", "Population": 31760.0, "Lat": 38.19165, "Lon": -0.5658}], "Santa Ponsa": [{"Name": "Santa Ponsa", "Country Code": "ES", "Population": 10736.0, "Lat": 39.50868, "Lon": 2.4766}], "Santa Praxedes": [{"Name": "Santa Praxedes", "Country Code": "PH", "Population": 0.0, "Lat": 18.56667, "Lon": 121.0}], "Santa Quiteria": [{"Name": "Santa Quit\u00e9ria", "Country Code": "BR", "Population": 24391.0, "Lat": -4.33194, "Lon": -40.15667}], "Santa Quiteria do Maranhao": [{"Name": "Santa Quit\u00e9ria do Maranh\u00e3o", "Country Code": "BR", "Population": 17174.0, "Lat": -3.51556, "Lon": -42.54667}], "Santa Rita": [{"Name": "Santa Rita", "Country Code": "BO", "Population": 2444.0, "Lat": -17.97974, "Lon": -63.37084}, {"Name": "Santa Rita", "Country Code": "BR", "Population": 119893.0, "Lat": -7.11389, "Lon": -34.97806}, {"Name": "Santa Rita", "Country Code": "BR", "Population": 13224.0, "Lat": -3.86358, "Lon": -43.85999}, {"Name": "Santa Rita", "Country Code": "CO", "Population": 0.0, "Lat": 5.18333, "Lon": -76.48333}, {"Name": "Santa Rita", "Country Code": "HN", "Population": 12869.0, "Lat": 15.16667, "Lon": -87.28333}, {"Name": "Santa Rita", "Country Code": "HN", "Population": 1687.0, "Lat": 14.91667, "Lon": -88.21667}, {"Name": "Santa Rita", "Country Code": "MX", "Population": 1389.0, "Lat": 16.13167, "Lon": -91.975}, {"Name": "Santa Rita", "Country Code": "MX", "Population": 1076.0, "Lat": 23.94422, "Lon": -102.91629}, {"Name": "Santa Rita", "Country Code": "MX", "Population": 1320.0, "Lat": 22.91194, "Lon": -102.41833}, {"Name": "Santa Rita", "Country Code": "MX", "Population": 1056.0, "Lat": 19.16736, "Lon": -96.26}, {"Name": "Santa Rita", "Country Code": "MX", "Population": 2638.0, "Lat": 20.4415, "Lon": -102.39016}, {"Name": "Santa Rita", "Country Code": "MX", "Population": 1510.0, "Lat": 20.3641, "Lon": -97.81689}, {"Name": "Santa Rita", "Country Code": "MX", "Population": 1178.0, "Lat": 21.98168, "Lon": -99.84412}, {"Name": "Santa Rita", "Country Code": "PA", "Population": 0.0, "Lat": 8.49613, "Lon": -80.19038}, {"Name": "Santa Rita", "Country Code": "PA", "Population": 987.0, "Lat": 8.85968, "Lon": -79.88039}, {"Name": "Santa Rita", "Country Code": "PH", "Population": 4338.0, "Lat": 11.4502, "Lon": 124.9425}, {"Name": "Santa Rita", "Country Code": "PH", "Population": 4990.0, "Lat": 14.9993, "Lon": 120.6117}, {"Name": "Santa Rita", "Country Code": "PH", "Population": 3211.0, "Lat": 15.61923, "Lon": 120.86962}, {"Name": "Santa Rita", "Country Code": "PY", "Population": 11823.0, "Lat": -25.79632, "Lon": -55.08847}, {"Name": "Santa Rita", "Country Code": "VE", "Population": 31810.0, "Lat": 10.53642, "Lon": -71.51104}, {"Name": "Santa Rita", "Country Code": "VE", "Population": 0.0, "Lat": 10.2054, "Lon": -67.55948}], "Santa Rita Aplaya": [{"Name": "Santa Rita Aplaya", "Country Code": "PH", "Population": 9737.0, "Lat": 13.77173, "Lon": 121.03492}], "Santa Rita Arriba": [{"Name": "Santa Rita Arriba", "Country Code": "PA", "Population": 1960.0, "Lat": 9.33263, "Lon": -79.79159}], "Santa Rita Tlahuapan": [{"Name": "Santa Rita Tlahuapan", "Country Code": "MX", "Population": 8412.0, "Lat": 19.33211, "Lon": -98.57688}], "Santa Rita Village": [{"Name": "Santa Rita Village", "Country Code": "GU", "Population": 7500.0, "Lat": 13.38608, "Lon": 144.67226}], "Santa Rita de Siguas": [{"Name": "Santa Rita de Siguas", "Country Code": "PE", "Population": 4014.0, "Lat": -16.49555, "Lon": -72.08667}], "Santa Rita do Passa Quatro": [{"Name": "Santa Rita do Passa Quatro", "Country Code": "BR", "Population": 24578.0, "Lat": -21.71028, "Lon": -47.47806}], "Santa Rita do Sapucai": [{"Name": "Santa Rita do Sapuca\u00ed", "Country Code": "BR", "Population": 28765.0, "Lat": -22.25222, "Lon": -45.70333}], "Santa Rita, Copan": [{"Name": "Santa Rita, Copan", "Country Code": "HN", "Population": 2704.0, "Lat": 14.86748, "Lon": -89.1}], "Santa Rosa": [{"Name": "Santa Rosa", "Country Code": "AR", "Population": 8330.0, "Lat": -28.26572, "Lon": -58.12053}, {"Name": "Santa Rosa", "Country Code": "AR", "Population": 0.0, "Lat": -33.25407, "Lon": -68.15066}, {"Name": "Santa Rosa", "Country Code": "AR", "Population": 102860.0, "Lat": -36.61667, "Lon": -64.28333}, {"Name": "Santa Rosa", "Country Code": "BR", "Population": 58957.0, "Lat": -27.87083, "Lon": -54.48139}, {"Name": "Santa Rosa", "Country Code": "CO", "Population": 0.0, "Lat": 1.70267, "Lon": -76.57389}, {"Name": "Santa Rosa", "Country Code": "CO", "Population": 18375.0, "Lat": 10.44472, "Lon": -75.36972}, {"Name": "Santa Rosa", "Country Code": "EC", "Population": 41816.0, "Lat": -3.44882, "Lon": -79.95952}, {"Name": "Santa Rosa", "Country Code": "MX", "Population": 2491.0, "Lat": 16.31655, "Lon": -95.09944}, {"Name": "Santa Rosa", "Country Code": "MX", "Population": 1289.0, "Lat": 20.4144, "Lon": -103.23534}, {"Name": "Santa Rosa", "Country Code": "MX", "Population": 3597.0, "Lat": 18.87704, "Lon": -97.78122}, {"Name": "Santa Rosa", "Country Code": "MX", "Population": 1527.0, "Lat": 21.55181, "Lon": -101.0921}, {"Name": "Santa Rosa", "Country Code": "MX", "Population": 1739.0, "Lat": 19.47078, "Lon": -96.46514}, {"Name": "Santa Rosa", "Country Code": "MX", "Population": 9880.0, "Lat": 25.82463, "Lon": -100.22164}, {"Name": "Santa Rosa", "Country Code": "PA", "Population": 207.0, "Lat": 8.60306, "Lon": -82.68456}, {"Name": "Santa Rosa", "Country Code": "PE", "Population": 4702.0, "Lat": -12.68657, "Lon": -73.73531}, {"Name": "Santa Rosa", "Country Code": "PE", "Population": 0.0, "Lat": -6.88111, "Lon": -79.91972}, {"Name": "Santa Rosa", "Country Code": "PE", "Population": 10625.0, "Lat": -6.75772, "Lon": -79.82747}, {"Name": "Santa Rosa", "Country Code": "PE", "Population": 0.0, "Lat": -6.68333, "Lon": -76.61667}, {"Name": "Santa Rosa", "Country Code": "PE", "Population": 0.0, "Lat": -11.79917, "Lon": -77.17333}, {"Name": "Santa Rosa", "Country Code": "PE", "Population": 0.0, "Lat": -14.61111, "Lon": -70.78611}, {"Name": "Santa Rosa", "Country Code": "PE", "Population": 331.0, "Lat": -14.14002, "Lon": -72.65681}, {"Name": "Santa Rosa", "Country Code": "PE", "Population": 18057.0, "Lat": -10.91908, "Lon": -74.88496}, {"Name": "Santa Rosa", "Country Code": "PH", "Population": 11683.0, "Lat": 15.4238, "Lon": 120.9378}, {"Name": "Santa Rosa", "Country Code": "PH", "Population": 3843.0, "Lat": 13.5591, "Lon": 122.3776}, {"Name": "Santa Rosa", "Country Code": "PH", "Population": 3909.0, "Lat": 15.36756, "Lon": 120.61703}, {"Name": "Santa Rosa", "Country Code": "PH", "Population": 216650.0, "Lat": 14.31222, "Lon": 121.11139}, {"Name": "Santa Rosa", "Country Code": "PH", "Population": 2713.0, "Lat": 14.42612, "Lon": 120.87931}, {"Name": "Santa Rosa", "Country Code": "PY", "Population": 7257.0, "Lat": -26.8873, "Lon": -56.84905}, {"Name": "Santa Rosa", "Country Code": "US", "Population": 2675.0, "Lat": 34.93867, "Lon": -104.68249}, {"Name": "Santa Rosa", "Country Code": "US", "Population": 174972.0, "Lat": 38.44047, "Lon": -122.71443}, {"Name": "Santa Rosa", "Country Code": "US", "Population": 2876.0, "Lat": 26.25674, "Lon": -97.825}, {"Name": "Santa Rosa", "Country Code": "UY", "Population": 3727.0, "Lat": -34.49819, "Lon": -56.03795}, {"Name": "Santa Rosa", "Country Code": "VE", "Population": 0.0, "Lat": 8.44033, "Lon": -69.70105}], "Santa Rosa (El Huizache)": [{"Name": "Santa Rosa (El Huizache)", "Country Code": "MX", "Population": 1050.0, "Lat": 21.935, "Lon": -102.02194}], "Santa Rosa (Santa Barbara)": [{"Name": "Santa Rosa (Santa B\u00e1rbara)", "Country Code": "MX", "Population": 3622.0, "Lat": 19.38333, "Lon": -102.03611}], "Santa Rosa Abata": [{"Name": "Santa Rosa Abata", "Country Code": "MX", "Population": 1142.0, "Lat": 18.4619, "Lon": -95.16765}], "Santa Rosa Beach": [{"Name": "Santa Rosa Beach", "Country Code": "US", "Population": 32459.0, "Lat": 30.39603, "Lon": -86.22883}], "Santa Rosa Caxtlahuaca": [{"Name": "Santa Rosa Caxtlahuaca", "Country Code": "MX", "Population": 1028.0, "Lat": 17.30306, "Lon": -98.01694}], "Santa Rosa Jauregui": [{"Name": "Santa Rosa Jauregui", "Country Code": "MX", "Population": 18508.0, "Lat": 20.74122, "Lon": -100.44843}], "Santa Rosa Loma Larga": [{"Name": "Santa Rosa Loma Larga", "Country Code": "MX", "Population": 1737.0, "Lat": 18.23098, "Lon": -95.0871}], "Santa Rosa Numero Uno": [{"Name": "Santa Rosa N\u00famero Uno", "Country Code": "PA", "Population": 0.0, "Lat": 8.86834, "Lon": -80.09771}], "Santa Rosa Segundo": [{"Name": "Santa Rosa Segundo", "Country Code": "MX", "Population": 1068.0, "Lat": 19.97778, "Lon": -88.2625}], "Santa Rosa Sur": [{"Name": "Santa Rosa Sur", "Country Code": "PH", "Population": 2295.0, "Lat": 14.259, "Lon": 122.7233}], "Santa Rosa Treinta": [{"Name": "Santa Rosa Treinta", "Country Code": "MX", "Population": 16691.0, "Lat": 18.70025, "Lon": -99.18357}], "Santa Rosa Xajay": [{"Name": "Santa Rosa Xajay", "Country Code": "MX", "Population": 3578.0, "Lat": 20.43667, "Lon": -99.89923}], "Santa Rosa de Aguan": [{"Name": "Santa Rosa de Agu\u00e1n", "Country Code": "HN", "Population": 1304.0, "Lat": 15.95, "Lon": -85.71667}], "Santa Rosa de Cabal": [{"Name": "Santa Rosa de Cabal", "Country Code": "CO", "Population": 57928.0, "Lat": 4.86806, "Lon": -75.62139}], "Santa Rosa de Calamuchita": [{"Name": "Santa Rosa de Calamuchita", "Country Code": "AR", "Population": 9504.0, "Lat": -32.06439, "Lon": -64.53961}], "Santa Rosa de Copan": [{"Name": "Santa Rosa de Cop\u00e1n", "Country Code": "HN", "Population": 27753.0, "Lat": 14.76667, "Lon": -88.77917}], "Santa Rosa de Lima": [{"Name": "Santa Rosa de Lima", "Country Code": "GT", "Population": 5984.0, "Lat": 14.38806, "Lon": -90.29556}, {"Name": "Santa Rosa de Lima", "Country Code": "MX", "Population": 1533.0, "Lat": 19.78587, "Lon": -100.09606}, {"Name": "Santa Rosa de Lima", "Country Code": "MX", "Population": 2200.0, "Lat": 16.07111, "Lon": -97.62333}, {"Name": "Santa Rosa de Lima", "Country Code": "MX", "Population": 1085.0, "Lat": 21.07179, "Lon": -101.19723}, {"Name": "Santa Rosa de Lima", "Country Code": "MX", "Population": 1700.0, "Lat": 20.66565, "Lon": -99.97851}, {"Name": "Santa Rosa de Lima", "Country Code": "SV", "Population": 13249.0, "Lat": 13.62472, "Lon": -87.89361}], "Santa Rosa de Osos": [{"Name": "Santa Rosa de Osos", "Country Code": "CO", "Population": 37864.0, "Lat": 6.64738, "Lon": -75.46031}], "Santa Rosa de Rio Primero": [{"Name": "Santa Rosa de R\u00edo Primero", "Country Code": "AR", "Population": 6788.0, "Lat": -31.15231, "Lon": -63.40191}], "Santa Rosa de Rivas": [{"Name": "Santa Rosa de Rivas", "Country Code": "MX", "Population": 1362.0, "Lat": 20.78112, "Lon": -101.53632}], "Santa Rosa de Sacco": [{"Name": "Santa Rosa de Sacco", "Country Code": "PE", "Population": 11257.0, "Lat": -11.55067, "Lon": -75.94255}], "Santa Rosa de Tastil": [{"Name": "Santa Rosa de Tastil", "Country Code": "AR", "Population": 2000.0, "Lat": -24.45078, "Lon": -65.95183}], "Santa Rosa de Viterbo": [{"Name": "Santa Rosa de Viterbo", "Country Code": "BR", "Population": 21473.0, "Lat": -21.47278, "Lon": -47.36306}, {"Name": "Santa Rosa de Viterbo", "Country Code": "CO", "Population": 11329.0, "Lat": 5.87401, "Lon": -72.98217}], "Santa Rosa de Yacuma": [{"Name": "Santa Rosa de Yacuma", "Country Code": "BO", "Population": 4459.0, "Lat": -14.07719, "Lon": -66.79349}], "Santa Rosa del Conlara": [{"Name": "Santa Rosa del Conlara", "Country Code": "AR", "Population": 4489.0, "Lat": -32.3428, "Lon": -65.20506}], "Santa Rosa del Penon": [{"Name": "Santa Rosa del Pe\u00f1\u00f3n", "Country Code": "NI", "Population": 2913.0, "Lat": 12.80116, "Lon": -86.36994}], "Santa Rosa del Sara": [{"Name": "Santa Rosa del Sara", "Country Code": "BO", "Population": 5251.0, "Lat": -17.10805, "Lon": -63.59967}], "Santa Rosa del Sur": [{"Name": "Santa Rosa del Sur", "Country Code": "CO", "Population": 8904.0, "Lat": 7.96444, "Lon": -74.05444}], "Santa Rosa los Angeles": [{"Name": "Santa Rosa los Angeles", "Country Code": "MX", "Population": 2727.0, "Lat": 20.56585, "Lon": -100.92356}], "Santa Rosalia": [{"Name": "Santa Rosalia", "Country Code": "CO", "Population": 1363.0, "Lat": 5.13356, "Lon": -70.86233}, {"Name": "Santa Rosal\u00eda", "Country Code": "MX", "Population": 5528.0, "Lat": 18.08851, "Lon": -93.35806}, {"Name": "Santa Rosal\u00eda", "Country Code": "MX", "Population": 1193.0, "Lat": 20.81697, "Lon": -104.08553}, {"Name": "Santa Rosal\u00eda", "Country Code": "MX", "Population": 11765.0, "Lat": 27.34035, "Lon": -112.26706}], "Santa Rufina": [{"Name": "Santa Rufina", "Country Code": "IT", "Population": 2813.0, "Lat": 42.40897, "Lon": 12.91843}], "Santa Severina": [{"Name": "Santa Severina", "Country Code": "IT", "Population": 1903.0, "Lat": 39.1477, "Lon": 16.91112}], "Santa Sofia": [{"Name": "Santa Sof\u00eda", "Country Code": "CO", "Population": 1058.0, "Lat": 5.70908, "Lon": -73.60404}, {"Name": "Santa Sofia", "Country Code": "IT", "Population": 3037.0, "Lat": 43.94724, "Lon": 11.90867}], "Santa Sofia d'Epiro": [{"Name": "Santa Sofia d'Epiro", "Country Code": "IT", "Population": 1255.0, "Lat": 39.54597, "Lon": 16.32815}], "Santa Susana": [{"Name": "Santa Susana", "Country Code": "US", "Population": 1037.0, "Lat": 34.257, "Lon": -118.669}], "Santa Susanna": [{"Name": "Santa Susanna", "Country Code": "ES", "Population": 3019.0, "Lat": 41.63333, "Lon": 2.71667}], "Santa Sylvina": [{"Name": "Santa Sylvina", "Country Code": "AR", "Population": 9040.0, "Lat": -27.83261, "Lon": -61.13747}], "Santa Tecla": [{"Name": "Santa Tecla", "Country Code": "SV", "Population": 124694.0, "Lat": 13.67694, "Lon": -89.27972}], "Santa Tecla-Castelpagano": [{"Name": "Santa Tecla-Castelpagano", "Country Code": "IT", "Population": 1473.0, "Lat": 40.67353, "Lon": 14.91806}], "Santa Teresa": [{"Name": "Santa Teresa", "Country Code": "BR", "Population": 9156.0, "Lat": -19.93556, "Lon": -40.60028}, {"Name": "Santa Teresa", "Country Code": "IT", "Population": 4116.0, "Lat": 42.42753, "Lon": 14.15816}, {"Name": "Santa Teresa", "Country Code": "MX", "Population": 1558.0, "Lat": 22.4973, "Lon": -104.76547}, {"Name": "Santa Teresa", "Country Code": "MX", "Population": 1118.0, "Lat": 17.69562, "Lon": -95.67276}, {"Name": "Santa Teresa", "Country Code": "MX", "Population": 4178.0, "Lat": 20.88989, "Lon": -98.3833}, {"Name": "Santa Teresa", "Country Code": "MX", "Population": 1486.0, "Lat": 18.34179, "Lon": -100.82106}, {"Name": "Santa Teresa", "Country Code": "MX", "Population": 36845.0, "Lat": 19.845, "Lon": -99.23333}, {"Name": "Santa Teresa", "Country Code": "MX", "Population": 6998.0, "Lat": 20.95973, "Lon": -101.31644}, {"Name": "Santa Teresa", "Country Code": "MX", "Population": 1360.0, "Lat": 20.91587, "Lon": -103.89208}, {"Name": "Santa Teresa", "Country Code": "MX", "Population": 2676.0, "Lat": 18.22966, "Lon": -99.50697}, {"Name": "Santa Teresa", "Country Code": "MX", "Population": 1781.0, "Lat": 20.63828, "Lon": -100.8575}, {"Name": "Santa Teresa", "Country Code": "NI", "Population": 5789.0, "Lat": 11.74321, "Lon": -86.21413}, {"Name": "Santa Teresa", "Country Code": "NI", "Population": 0.0, "Lat": 11.80299, "Lon": -86.16312}, {"Name": "Santa Teresa", "Country Code": "PE", "Population": 0.0, "Lat": -13.13222, "Lon": -72.59056}, {"Name": "Santa Teresa", "Country Code": "PH", "Population": 4000.0, "Lat": 10.58546, "Lon": 122.5604}, {"Name": "Santa Teresa", "Country Code": "PH", "Population": 3177.0, "Lat": 12.25186, "Lon": 121.11251}, {"Name": "Santa Teresa", "Country Code": "US", "Population": 2741.0, "Lat": 36.15335, "Lon": -106.67948}, {"Name": "Santa Teresa", "Country Code": "US", "Population": 4258.0, "Lat": 31.85594, "Lon": -106.63916}, {"Name": "Santa Teresa", "Country Code": "UY", "Population": 2657.0, "Lat": -34.43333, "Lon": -57.71667}], "Santa Teresa First": [{"Name": "Santa Teresa First", "Country Code": "PH", "Population": 4881.0, "Lat": 14.9265, "Lon": 120.55791}], "Santa Teresa Gallura": [{"Name": "Santa Teresa Gallura", "Country Code": "IT", "Population": 3283.0, "Lat": 41.23859, "Lon": 9.18873}], "Santa Teresa del Tuy": [{"Name": "Santa Teresa del Tuy", "Country Code": "VE", "Population": 278890.0, "Lat": 10.23291, "Lon": -66.66474}], "Santa Teresa di Riva": [{"Name": "Santa Teresa di Riva", "Country Code": "IT", "Population": 7977.0, "Lat": 37.94635, "Lon": 15.36671}], "Santa Teresita": [{"Name": "Santa Teresita", "Country Code": "PH", "Population": 2281.0, "Lat": 13.4786, "Lon": 123.4191}, {"Name": "Santa Teresita", "Country Code": "PH", "Population": 2849.0, "Lat": 13.86639, "Lon": 120.98139}, {"Name": "Santa Teresita", "Country Code": "PH", "Population": 2576.0, "Lat": 18.2472, "Lon": 121.9127}], "Santa Teresita de Don Diego": [{"Name": "Santa Teresita de Don Diego", "Country Code": "MX", "Population": 1487.0, "Lat": 20.88, "Lon": -100.77861}], "Santa Terezinha": [{"Name": "Santa Terezinha", "Country Code": "BR", "Population": 7564.0, "Lat": -10.47059, "Lon": -50.51359}], "Santa Ursula": [{"Name": "Santa \u00darsula", "Country Code": "ES", "Population": 14013.0, "Lat": 28.42613, "Lon": -16.48876}, {"Name": "Santa \u00darsula", "Country Code": "MX", "Population": 1253.0, "Lat": 20.4203, "Lon": -98.10478}], "Santa Uxia de Ribeira": [{"Name": "Santa Ux\u00eda de Ribeira", "Country Code": "ES", "Population": 27067.0, "Lat": 42.55352, "Lon": -8.99094}], "Santa Valburga": [{"Name": "Santa Valburga", "Country Code": "IT", "Population": 826.0, "Lat": 46.55, "Lon": 11.0}], "Santa Venera": [{"Name": "Santa Venera", "Country Code": "MT", "Population": 7590.0, "Lat": 35.89083, "Lon": 14.47417}], "Santa Venerina": [{"Name": "Santa Venerina", "Country Code": "IT", "Population": 5000.0, "Lat": 37.69103, "Lon": 15.1388}], "Santa Venetia": [{"Name": "Santa Venetia", "Country Code": "US", "Population": 4292.0, "Lat": 37.99853, "Lon": -122.52525}], "Santa Victoria": [{"Name": "Santa Victoria", "Country Code": "AR", "Population": 0.0, "Lat": -22.25124, "Lon": -64.96549}], "Santa Vitoria": [{"Name": "Santa Vit\u00f3ria", "Country Code": "BR", "Population": 11656.0, "Lat": -18.83861, "Lon": -50.12139}], "Santa Vitoria do Palmar": [{"Name": "Santa Vit\u00f3ria do Palmar", "Country Code": "BR", "Population": 27775.0, "Lat": -33.51889, "Lon": -53.36806}], "Santa Vittoria": [{"Name": "Santa Vittoria", "Country Code": "IT", "Population": 2003.0, "Lat": 44.85483, "Lon": 10.63348}], "Santa Vittoria d'Alba": [{"Name": "Santa Vittoria d'Alba", "Country Code": "IT", "Population": 2512.0, "Lat": 44.69864, "Lon": 7.93733}], "Santa Ynez": [{"Name": "Santa Ynez", "Country Code": "US", "Population": 4418.0, "Lat": 34.61443, "Lon": -120.07987}], "Santa-Lucia-di-Moriani": [{"Name": "Santa-Lucia-di-Moriani", "Country Code": "FR", "Population": 1088.0, "Lat": 42.38212, "Lon": 9.52242}], "Santa-Maria-di-Lota": [{"Name": "Santa-Maria-di-Lota", "Country Code": "FR", "Population": 2014.0, "Lat": 42.74783, "Lon": 9.43202}], "Santacara": [{"Name": "Santacara", "Country Code": "ES", "Population": 1017.0, "Lat": 42.37549, "Lon": -1.54778}], "Santacruz": [{"Name": "Santacruz", "Country Code": "CO", "Population": 2469.0, "Lat": 1.5209, "Lon": -77.26206}], "Santadi": [{"Name": "Santadi", "Country Code": "IT", "Population": 2008.0, "Lat": 39.09356, "Lon": 8.71259}], "Santaella": [{"Name": "Santaella", "Country Code": "ES", "Population": 5933.0, "Lat": 37.56294, "Lon": -4.84362}], "Santafe": [{"Name": "Santaf\u00e9", "Country Code": "ES", "Population": 15430.0, "Lat": 37.18856, "Lon": -3.71887}], "Santaluz": [{"Name": "Santaluz", "Country Code": "BR", "Population": 24739.0, "Lat": -11.25583, "Lon": -39.37472}], "Santamaria-Orlea": [{"Name": "S\u00e2nt\u0103m\u0103ria-Orlea", "Country Code": "RO", "Population": 974.0, "Lat": 45.58874, "Lon": 22.97042}], "Santana": [{"Name": "Santana", "Country Code": "BR", "Population": 83927.0, "Lat": -0.03816, "Lon": -51.17476}, {"Name": "Santana", "Country Code": "BR", "Population": 12628.0, "Lat": -14.46667, "Lon": -41.8}, {"Name": "Santana", "Country Code": "CO", "Population": 2091.0, "Lat": 6.0575, "Lon": -73.48112}, {"Name": "Santana", "Country Code": "PT", "Population": 8804.0, "Lat": 32.8, "Lon": -16.88333}, {"Name": "S\u00e2ntana", "Country Code": "RO", "Population": 12706.0, "Lat": 46.35, "Lon": 21.5}], "Santana 2da. Seccion B (La Palma)": [{"Name": "Santana 2da. Secci\u00f3n B (La Palma)", "Country Code": "MX", "Population": 1715.0, "Lat": 18.17505, "Lon": -93.4318}], "Santana de Mures": [{"Name": "S\u00e2ntana de Mure\u015f", "Country Code": "RO", "Population": 0.0, "Lat": 46.56667, "Lon": 24.55}], "Santana de Parnaiba": [{"Name": "Santana de Parna\u00edba", "Country Code": "BR", "Population": 98989.0, "Lat": -23.44417, "Lon": -46.91778}], "Santana do Acarau": [{"Name": "Santana do Acara\u00fa", "Country Code": "BR", "Population": 14707.0, "Lat": -3.46056, "Lon": -40.21222}], "Santana do Ipanema": [{"Name": "Santana do Ipanema", "Country Code": "BR", "Population": 26146.0, "Lat": -9.37833, "Lon": -37.24528}], "Santana do Livramento": [{"Name": "Santana do Livramento", "Country Code": "BR", "Population": 89694.0, "Lat": -30.89083, "Lon": -55.53278}], "Santana do Matos": [{"Name": "Santana do Matos", "Country Code": "BR", "Population": 8050.0, "Lat": -5.9575, "Lon": -36.65556}], "Santana do Mundau": [{"Name": "Santana do Munda\u00fa", "Country Code": "BR", "Population": 6439.0, "Lat": -9.16806, "Lon": -36.22222}], "Santana do Paraiso": [{"Name": "Santana do Para\u00edso", "Country Code": "BR", "Population": 25515.0, "Lat": -19.36361, "Lon": -42.56861}], "Santana do Serido": [{"Name": "Santana do Serid\u00f3", "Country Code": "BR", "Population": 0.0, "Lat": -6.77153, "Lon": -36.73466}], "Santander": [{"Name": "Santander", "Country Code": "ES", "Population": 172044.0, "Lat": 43.46472, "Lon": -3.80444}], "Santander Jimenez": [{"Name": "Santander Jim\u00e9nez", "Country Code": "MX", "Population": 5504.0, "Lat": 24.21682, "Lon": -98.48433}], "Santander Poblacion": [{"Name": "Santander Poblacion", "Country Code": "PH", "Population": 2541.0, "Lat": 9.42527, "Lon": 123.33879}], "Santander de Quilichao": [{"Name": "Santander de Quilichao", "Country Code": "CO", "Population": 99354.0, "Lat": 3.00945, "Lon": -76.48494}], "Santandra": [{"Name": "Santandr\u00e0", "Country Code": "IT", "Population": 1102.0, "Lat": 45.74778, "Lon": 12.20111}], "Santandrei": [{"Name": "S\u00e2ntandrei", "Country Code": "RO", "Population": 3902.0, "Lat": 47.06615, "Lon": 21.85352}], "Santangpu": [{"Name": "Santangpu", "Country Code": "CN", "Population": 58000.0, "Lat": 27.40556, "Lon": 111.98694}], "Santanyi": [{"Name": "Santany\u00ed", "Country Code": "ES", "Population": 12664.0, "Lat": 39.35461, "Lon": 3.12907}], "Santaquin": [{"Name": "Santaquin", "Country Code": "US", "Population": 10572.0, "Lat": 39.97551, "Lon": -111.78521}], "Santarcangelo": [{"Name": "Santarcangelo", "Country Code": "IT", "Population": 10934.0, "Lat": 44.06326, "Lon": 12.44657}], "Santarem": [{"Name": "Santar\u00e9m", "Country Code": "BR", "Population": 189047.0, "Lat": -2.44306, "Lon": -54.70833}, {"Name": "Santar\u00e9m", "Country Code": "PT", "Population": 29385.0, "Lat": 39.23333, "Lon": -8.68333}], "Santas Martas": [{"Name": "Santas Martas", "Country Code": "ES", "Population": 958.0, "Lat": 42.4322, "Lon": -5.37066}], "Santau": [{"Name": "Sant\u0103u", "Country Code": "RO", "Population": 2580.0, "Lat": 47.51667, "Lon": 22.51667}], "Sante Marie": [{"Name": "Sante Marie", "Country Code": "IT", "Population": 558.0, "Lat": 42.10369, "Lon": 13.20163}], "Santec": [{"Name": "Santec", "Country Code": "FR", "Population": 2272.0, "Lat": 48.70362, "Lon": -4.02748}], "Santed": [{"Name": "Santed", "Country Code": "ES", "Population": 75.0, "Lat": 41.03172, "Lon": -1.51028}], "Santee": [{"Name": "Santee", "Country Code": "US", "Population": 57787.0, "Lat": 32.83838, "Lon": -116.97392}], "Santena": [{"Name": "Santena", "Country Code": "IT", "Population": 10437.0, "Lat": 44.94624, "Lon": 7.77303}], "Santeny": [{"Name": "Santeny", "Country Code": "FR", "Population": 3266.0, "Lat": 48.7273, "Lon": 2.57346}], "Santeramo in Colle": [{"Name": "Santeramo in Colle", "Country Code": "IT", "Population": 24922.0, "Lat": 40.79236, "Lon": 16.75873}], "Santerno": [{"Name": "Santerno", "Country Code": "IT", "Population": 1012.0, "Lat": 44.43697, "Lon": 12.05533}], "Santervas de Campos": [{"Name": "Santerv\u00e1s de Campos", "Country Code": "ES", "Population": 144.0, "Lat": 42.2182, "Lon": -5.10027}], "Santervas de la Vega": [{"Name": "Santerv\u00e1s de la Vega", "Country Code": "ES", "Population": 507.0, "Lat": 42.50677, "Lon": -4.80002}], "Santes": [{"Name": "Santes", "Country Code": "FR", "Population": 5069.0, "Lat": 50.59316, "Lon": 2.96289}], "Santhia": [{"Name": "Santhi\u00e0", "Country Code": "IT", "Population": 8079.0, "Lat": 45.36795, "Lon": 8.17012}], "Santi Cosma e Damiano": [{"Name": "Santi Cosma e Damiano", "Country Code": "IT", "Population": 753.0, "Lat": 41.30091, "Lon": 13.81565}], "Santi Suk": [{"Name": "Santi Suk", "Country Code": "TH", "Population": 0.0, "Lat": 18.9137, "Lon": 100.94169}], "Santiago": [{"Name": "Santiago", "Country Code": "BR", "Population": 46611.0, "Lat": -29.19167, "Lon": -54.86722}, {"Name": "Santiago", "Country Code": "CL", "Population": 4837295.0, "Lat": -33.45694, "Lon": -70.64827}, {"Name": "Santiago", "Country Code": "CO", "Population": 6836.0, "Lat": 1.14844, "Lon": -77.0045}, {"Name": "Santiago", "Country Code": "CO", "Population": 1032.0, "Lat": 7.86432, "Lon": -72.7162}, {"Name": "Santiago", "Country Code": "CR", "Population": 2107.0, "Lat": 10.02275, "Lon": -84.4442}, {"Name": "Santiago", "Country Code": "CR", "Population": 8292.0, "Lat": 9.84636, "Lon": -84.31428}, {"Name": "Santiago", "Country Code": "MX", "Population": 1107.0, "Lat": 19.91714, "Lon": -97.154}, {"Name": "Santiago", "Country Code": "MX", "Population": 1020.0, "Lat": 22.11948, "Lon": -102.33769}, {"Name": "Santiago", "Country Code": "MX", "Population": 36840.0, "Lat": 25.42533, "Lon": -100.15205}, {"Name": "Santiago", "Country Code": "MX", "Population": 1447.0, "Lat": 22.45477, "Lon": -101.45898}, {"Name": "Santiago", "Country Code": "MX", "Population": 1460.0, "Lat": 19.81194, "Lon": -97.32361}, {"Name": "Santiago", "Country Code": "MX", "Population": 1858.0, "Lat": 18.44884, "Lon": -95.83037}, {"Name": "Santiago", "Country Code": "PE", "Population": 10449.0, "Lat": -14.18469, "Lon": -75.71124}, {"Name": "Santiago", "Country Code": "PE", "Population": 64075.0, "Lat": -13.52728, "Lon": -71.9843}, {"Name": "Santiago", "Country Code": "PH", "Population": 4939.0, "Lat": 14.0211, "Lon": 121.2792}, {"Name": "Santiago", "Country Code": "PH", "Population": 2338.0, "Lat": 10.5897, "Lon": 124.3066}, {"Name": "Santiago", "Country Code": "PH", "Population": 5971.0, "Lat": 14.90371, "Lon": 120.51134}, {"Name": "Santiago", "Country Code": "PH", "Population": 2631.0, "Lat": 7.28889, "Lon": 126.57333}, {"Name": "Santiago", "Country Code": "PH", "Population": 0.0, "Lat": 17.2939, "Lon": 120.4449}, {"Name": "Santiago", "Country Code": "PH", "Population": 2022.0, "Lat": 11.05806, "Lon": 122.91167}, {"Name": "Santiago", "Country Code": "PH", "Population": 108414.0, "Lat": 16.68808, "Lon": 121.5487}, {"Name": "Santiago", "Country Code": "PY", "Population": 2144.0, "Lat": -27.1431, "Lon": -56.76803}], "Santiago Acatlan": [{"Name": "Santiago Acatl\u00e1n", "Country Code": "MX", "Population": 7601.0, "Lat": 18.99334, "Lon": -97.93375}], "Santiago Acayutlan": [{"Name": "Santiago Acayutl\u00e1n", "Country Code": "MX", "Population": 1649.0, "Lat": 20.19719, "Lon": -99.29534}], "Santiago Acozac": [{"Name": "Santiago Acozac", "Country Code": "MX", "Population": 2775.0, "Lat": 18.95694, "Lon": -97.81167}], "Santiago Acutzilapan": [{"Name": "Santiago Acutzilapan", "Country Code": "MX", "Population": 5866.0, "Lat": 19.7864, "Lon": -99.76569}], "Santiago Alseseca": [{"Name": "Santiago Alseseca", "Country Code": "MX", "Population": 7744.0, "Lat": 18.84511, "Lon": -97.70716}], "Santiago Amoltepec": [{"Name": "Santiago Amoltepec", "Country Code": "MX", "Population": 1263.0, "Lat": 16.64263, "Lon": -97.49674}], "Santiago Analco": [{"Name": "Santiago Analco", "Country Code": "MX", "Population": 3446.0, "Lat": 19.33116, "Lon": -99.45208}], "Santiago Apostol": [{"Name": "Santiago Apostol", "Country Code": "MX", "Population": 3616.0, "Lat": 16.80381, "Lon": -96.72046}], "Santiago Astata": [{"Name": "Santiago Astata", "Country Code": "MX", "Population": 2207.0, "Lat": 15.98775, "Lon": -95.67571}], "Santiago Atitlan": [{"Name": "Santiago Atitl\u00e1n", "Country Code": "GT", "Population": 33309.0, "Lat": 14.63823, "Lon": -91.22901}], "Santiago Atzitzihuacan": [{"Name": "Santiago Atzitzihuac\u00e1n", "Country Code": "MX", "Population": 1006.0, "Lat": 18.82472, "Lon": -98.58167}], "Santiago Ayuquililla": [{"Name": "Santiago Ayuquililla", "Country Code": "MX", "Population": 1449.0, "Lat": 17.9331, "Lon": -97.95769}], "Santiago Azajo": [{"Name": "Santiago Azajo", "Country Code": "MX", "Population": 1634.0, "Lat": 19.70666, "Lon": -101.68659}], "Santiago Bayacora": [{"Name": "Santiago Bayacora", "Country Code": "MX", "Population": 1218.0, "Lat": 23.89373, "Lon": -104.61276}], "Santiago Cacaloxtepec": [{"Name": "Santiago Cacaloxtepec", "Country Code": "MX", "Population": 991.0, "Lat": 17.72158, "Lon": -97.74044}], "Santiago Camotlan": [{"Name": "Santiago Camotl\u00e1n", "Country Code": "MX", "Population": 0.0, "Lat": 17.44541, "Lon": -96.18509}], "Santiago Capitiro": [{"Name": "Santiago Capitiro", "Country Code": "MX", "Population": 2618.0, "Lat": 20.30427, "Lon": -101.01767}], "Santiago Casandeje": [{"Name": "Santiago Casandeje", "Country Code": "MX", "Population": 4977.0, "Lat": 19.76972, "Lon": -99.96917}], "Santiago Centro": [{"Name": "Santiago Centro", "Country Code": "MX", "Population": 1101.0, "Lat": 21.20528, "Lon": -98.86361}], "Santiago Chazumba": [{"Name": "Santiago Chazumba", "Country Code": "MX", "Population": 1918.0, "Lat": 18.19012, "Lon": -97.67983}], "Santiago Chilixtlahuaca": [{"Name": "Santiago Chilixtlahuaca", "Country Code": "MX", "Population": 1040.0, "Lat": 17.90611, "Lon": -97.89528}], "Santiago Chimalpa (Chimalpa)": [{"Name": "Santiago Chimalpa (Chimalpa)", "Country Code": "MX", "Population": 3727.0, "Lat": 19.56917, "Lon": -98.89167}], "Santiago Chimaltenango": [{"Name": "Santiago Chimaltenango", "Country Code": "GT", "Population": 3020.0, "Lat": 15.47658, "Lon": -91.69656}], "Santiago Choapam": [{"Name": "Santiago Cho\u00e1pam", "Country Code": "MX", "Population": 1099.0, "Lat": 17.36084, "Lon": -95.92219}], "Santiago Coachochitlan": [{"Name": "Santiago Coachochitlan", "Country Code": "MX", "Population": 3746.0, "Lat": 19.86289, "Lon": -100.03455}], "Santiago Coltzingo": [{"Name": "Santiago Coltzingo", "Country Code": "MX", "Population": 3155.0, "Lat": 19.38318, "Lon": -98.53483}], "Santiago Comaltepec": [{"Name": "Santiago Comaltepec", "Country Code": "MX", "Population": 710.0, "Lat": 17.56547, "Lon": -96.54873}], "Santiago Cuaula": [{"Name": "Santiago Cuaula", "Country Code": "MX", "Population": 2614.0, "Lat": 19.60136, "Lon": -98.64941}], "Santiago Cuautenco": [{"Name": "Santiago Cuautenco", "Country Code": "MX", "Population": 1520.0, "Lat": 19.14803, "Lon": -98.74685}], "Santiago Cuautlalpan": [{"Name": "Santiago Cuautlalpan", "Country Code": "MX", "Population": 12336.0, "Lat": 19.43232, "Lon": -98.90136}, {"Name": "Santiago Cuautlalpan", "Country Code": "MX", "Population": 9786.0, "Lat": 19.68417, "Lon": -99.2887}], "Santiago Cuixtla": [{"Name": "Santiago Cuixtla", "Country Code": "MX", "Population": 1254.0, "Lat": 16.06196, "Lon": -97.18586}], "Santiago Etla": [{"Name": "Santiago Etla", "Country Code": "MX", "Population": 4374.0, "Lat": 17.1525, "Lon": -96.78972}], "Santiago Huajolotitlan": [{"Name": "Santiago Huajolotitl\u00e1n", "Country Code": "MX", "Population": 2018.0, "Lat": 17.82783, "Lon": -97.73266}], "Santiago Huauclilla": [{"Name": "Santiago Huauclilla", "Country Code": "MX", "Population": 233.0, "Lat": 17.45179, "Lon": -97.07277}], "Santiago Huaxolotipac": [{"Name": "Santiago Huaxolotipac", "Country Code": "MX", "Population": 1110.0, "Lat": 16.97383, "Lon": -97.0861}], "Santiago Huitlapaltepec": [{"Name": "Santiago Huitlapaltepec", "Country Code": "MX", "Population": 1766.0, "Lat": 19.28676, "Lon": -100.20649}], "Santiago Ixcuintepec": [{"Name": "Santiago Ixcuintepec", "Country Code": "MX", "Population": 1361.0, "Lat": 16.9354, "Lon": -95.62282}], "Santiago Ixcuintla": [{"Name": "Santiago Ixcuintla", "Country Code": "MX", "Population": 18241.0, "Lat": 21.81295, "Lon": -105.20844}], "Santiago Ixtaltepec": [{"Name": "Santiago Ixtaltepec", "Country Code": "MX", "Population": 1164.0, "Lat": 16.68833, "Lon": -94.90583}], "Santiago Ixtayutla": [{"Name": "Santiago Ixtayutla", "Country Code": "MX", "Population": 1901.0, "Lat": 16.56649, "Lon": -97.65285}], "Santiago Jaltepec": [{"Name": "Santiago Jaltepec", "Country Code": "MX", "Population": 1827.0, "Lat": 20.10972, "Lon": -98.71111}], "Santiago Jicayan": [{"Name": "Santiago Jicay\u00e1n", "Country Code": "MX", "Population": 1093.0, "Lat": 16.47884, "Lon": -98.01018}], "Santiago Jocotepec": [{"Name": "Santiago Jocotepec", "Country Code": "MX", "Population": 1767.0, "Lat": 16.12837, "Lon": -97.4376}], "Santiago Juxtlahuaca": [{"Name": "Santiago Juxtlahuaca", "Country Code": "MX", "Population": 9565.0, "Lat": 17.33462, "Lon": -98.01147}], "Santiago Lachiguiri": [{"Name": "Santiago Lachiguiri", "Country Code": "MX", "Population": 1652.0, "Lat": 16.68706, "Lon": -95.53067}], "Santiago Lalopa": [{"Name": "Santiago Lalopa", "Country Code": "MX", "Population": 496.0, "Lat": 17.41786, "Lon": -96.24893}], "Santiago Laollaga": [{"Name": "Santiago Laollaga", "Country Code": "MX", "Population": 2550.0, "Lat": 16.58418, "Lon": -95.20707}], "Santiago Laxopa": [{"Name": "Santiago Laxopa", "Country Code": "MX", "Population": 669.0, "Lat": 17.21842, "Lon": -96.31099}], "Santiago Llano Grande": [{"Name": "Santiago Llano Grande", "Country Code": "MX", "Population": 1880.0, "Lat": 16.48833, "Lon": -98.28972}], "Santiago Malacatepec": [{"Name": "Santiago Malacatepec", "Country Code": "MX", "Population": 1173.0, "Lat": 17.01639, "Lon": -95.6075}], "Santiago Mamalhuazuca": [{"Name": "Santiago Mamalhuazuca", "Country Code": "MX", "Population": 2018.0, "Lat": 18.99659, "Lon": -98.79602}], "Santiago Maravatio": [{"Name": "Santiago Maravat\u00edo", "Country Code": "MX", "Population": 3820.0, "Lat": 20.17297, "Lon": -100.99468}], "Santiago Matatlan": [{"Name": "Santiago Matatl\u00e1n", "Country Code": "MX", "Population": 3441.0, "Lat": 16.8647, "Lon": -96.38261}], "Santiago Mexquititlan Barrio 4to.": [{"Name": "Santiago Mexquititl\u00e1n Barrio 4to.", "Country Code": "MX", "Population": 1186.0, "Lat": 20.06306, "Lon": -100.06833}], "Santiago Michac": [{"Name": "Santiago Michac", "Country Code": "MX", "Population": 3533.0, "Lat": 19.21985, "Lon": -98.33932}], "Santiago Millas": [{"Name": "Santiago Millas", "Country Code": "ES", "Population": 340.0, "Lat": 42.38379, "Lon": -6.10538}], "Santiago Miltepec": [{"Name": "Santiago Miltepec", "Country Code": "MX", "Population": 335.0, "Lat": 17.98461, "Lon": -97.69006}], "Santiago Momoxpan": [{"Name": "Santiago Momoxpan", "Country Code": "MX", "Population": 17622.0, "Lat": 19.07361, "Lon": -98.26694}], "Santiago Nejapilla": [{"Name": "Santiago Nejapilla", "Country Code": "MX", "Population": 192.0, "Lat": 17.41983, "Lon": -97.37411}], "Santiago Nonualco": [{"Name": "Santiago Nonualco", "Country Code": "SV", "Population": 9490.0, "Lat": 13.51667, "Lon": -88.95}], "Santiago Nundiche": [{"Name": "Santiago Nund\u00edche", "Country Code": "MX", "Population": 108.0, "Lat": 17.33136, "Lon": -97.67392}], "Santiago Nuyoo": [{"Name": "Santiago Nuyo\u00f3", "Country Code": "MX", "Population": 403.0, "Lat": 17.01449, "Lon": -97.76659}], "Santiago Oxtempan": [{"Name": "Santiago Oxtempan", "Country Code": "MX", "Population": 1772.0, "Lat": 19.78034, "Lon": -100.12191}], "Santiago Oxthoc": [{"Name": "Santiago Oxthoc", "Country Code": "MX", "Population": 1124.0, "Lat": 20.11599, "Lon": -99.54422}], "Santiago Oxtotitlan": [{"Name": "Santiago Oxtotitl\u00e1n", "Country Code": "MX", "Population": 3853.0, "Lat": 18.96146, "Lon": -99.66827}], "Santiago Papasquiaro": [{"Name": "Santiago Papasquiaro", "Country Code": "MX", "Population": 26121.0, "Lat": 25.04389, "Lon": -105.41917}], "Santiago Perez": [{"Name": "Santiago P\u00e9rez", "Country Code": "CO", "Population": 3115.0, "Lat": 3.39806, "Lon": -75.605}], "Santiago Pojcol": [{"Name": "Santiago Pojcol", "Country Code": "MX", "Population": 1001.0, "Lat": 16.99148, "Lon": -91.98071}], "Santiago Puriatzicuaro": [{"Name": "Santiago Puriatz\u00edcuaro", "Country Code": "MX", "Population": 3660.0, "Lat": 19.88306, "Lon": -100.58861}], "Santiago Quiavicuzas": [{"Name": "Santiago Quiavicuzas", "Country Code": "MX", "Population": 1459.0, "Lat": 16.86297, "Lon": -95.71616}], "Santiago Sacatepequez": [{"Name": "Santiago Sacatep\u00e9quez", "Country Code": "GT", "Population": 29238.0, "Lat": 14.6351, "Lon": -90.67654}], "Santiago Suchilquitongo": [{"Name": "Santiago Suchilquitongo", "Country Code": "MX", "Population": 7276.0, "Lat": 17.25316, "Lon": -96.87825}], "Santiago Tangamandapio": [{"Name": "Santiago Tangamandapio", "Country Code": "MX", "Population": 10463.0, "Lat": 19.95568, "Lon": -102.43546}], "Santiago Tejocotillos": [{"Name": "Santiago Tejocotillos", "Country Code": "MX", "Population": 2372.0, "Lat": 19.43308, "Lon": -99.45155}], "Santiago Temple": [{"Name": "Santiago Temple", "Country Code": "AR", "Population": 2358.0, "Lat": -31.38597, "Lon": -63.4196}], "Santiago Tenango": [{"Name": "Santiago Tenango", "Country Code": "MX", "Population": 448.0, "Lat": 17.32489, "Lon": -97.00467}, {"Name": "Santiago Tenango", "Country Code": "MX", "Population": 4870.0, "Lat": 19.00335, "Lon": -97.6443}], "Santiago Tepatlaxco": [{"Name": "Santiago Tepatlaxco", "Country Code": "MX", "Population": 3864.0, "Lat": 19.47485, "Lon": -99.3441}], "Santiago Tepeticpac": [{"Name": "Santiago Tepeticpac", "Country Code": "MX", "Population": 1512.0, "Lat": 19.33476, "Lon": -98.22692}], "Santiago Tepetitlan": [{"Name": "Santiago Tepetitl\u00e1n", "Country Code": "MX", "Population": 1609.0, "Lat": 19.63807, "Lon": -98.81841}], "Santiago Tepextla": [{"Name": "Santiago Tepextla", "Country Code": "MX", "Population": 1422.0, "Lat": 16.34065, "Lon": -98.44684}], "Santiago Tepeyahualco": [{"Name": "Santiago Tepeyahualco", "Country Code": "MX", "Population": 2580.0, "Lat": 19.84864, "Lon": -98.6697}], "Santiago Tepopula": [{"Name": "Santiago Tepopula", "Country Code": "MX", "Population": 2418.0, "Lat": 19.14399, "Lon": -98.85692}], "Santiago Tetepec": [{"Name": "Santiago Tetepec", "Country Code": "MX", "Population": 1231.0, "Lat": 16.32172, "Lon": -97.74794}], "Santiago Texcalcingo": [{"Name": "Santiago Texcalcingo", "Country Code": "MX", "Population": 0.0, "Lat": 18.20835, "Lon": -96.96887}], "Santiago Textitlan": [{"Name": "Santiago Textitl\u00e1n", "Country Code": "MX", "Population": 850.0, "Lat": 16.69264, "Lon": -97.25884}], "Santiago Teyahualco": [{"Name": "Santiago Teyahualco", "Country Code": "MX", "Population": 53684.0, "Lat": 19.65985, "Lon": -99.12493}], "Santiago Tezontlale": [{"Name": "Santiago Tezontlale", "Country Code": "MX", "Population": 4226.0, "Lat": 20.16217, "Lon": -99.09865}], "Santiago Tianguistenco de Galeana": [{"Name": "Santiago Tianguistenco de Galeana", "Country Code": "MX", "Population": 13106.0, "Lat": 19.18024, "Lon": -99.46644}], "Santiago Tilantongo": [{"Name": "Santiago Tilantongo", "Country Code": "MX", "Population": 474.0, "Lat": 17.28464, "Lon": -97.33879}], "Santiago Tilapa": [{"Name": "Santiago T\u00edlapa", "Country Code": "MX", "Population": 10087.0, "Lat": 19.18953, "Lon": -99.42089}, {"Name": "Santiago Tilapa", "Country Code": "MX", "Population": 1073.0, "Lat": 17.25889, "Lon": -98.26107}], "Santiago Tillo": [{"Name": "Santiago Tillo", "Country Code": "MX", "Population": 388.0, "Lat": 17.46085, "Lon": -97.32019}], "Santiago Tlacochcalco": [{"Name": "Santiago Tlacochcalco", "Country Code": "MX", "Population": 1082.0, "Lat": 19.26861, "Lon": -98.22306}], "Santiago Tlacotepec": [{"Name": "Santiago Tlacotepec", "Country Code": "MX", "Population": 15853.0, "Lat": 19.22708, "Lon": -99.67083}], "Santiago Tlaltepoxco": [{"Name": "Santiago Tlaltepoxco", "Country Code": "MX", "Population": 2359.0, "Lat": 19.88365, "Lon": -99.26046}], "Santiago Tlapacoya": [{"Name": "Santiago Tlapacoya", "Country Code": "MX", "Population": 3362.0, "Lat": 20.10925, "Lon": -98.83037}], "Santiago Tlapanaloya": [{"Name": "Santiago Tlapanaloya", "Country Code": "MX", "Population": 1785.0, "Lat": 19.87056, "Lon": -99.35083}], "Santiago Tlautla": [{"Name": "Santiago Tlautla", "Country Code": "MX", "Population": 2336.0, "Lat": 19.96222, "Lon": -99.36909}], "Santiago Tolman": [{"Name": "Santiago Tolman", "Country Code": "MX", "Population": 4402.0, "Lat": 19.72781, "Lon": -98.79011}], "Santiago Tulantepec": [{"Name": "Santiago Tulantepec", "Country Code": "MX", "Population": 16078.0, "Lat": 20.03618, "Lon": -98.35563}], "Santiago Tuxtla": [{"Name": "Santiago Tuxtla", "Country Code": "MX", "Population": 15459.0, "Lat": 18.46576, "Lon": -95.3006}], "Santiago Undameo": [{"Name": "Santiago Undameo", "Country Code": "MX", "Population": 1455.0, "Lat": 19.59515, "Lon": -101.2848}], "Santiago Vazquez": [{"Name": "Santiago V\u00e1zquez", "Country Code": "UY", "Population": 1468.0, "Lat": -34.79028, "Lon": -56.35}], "Santiago Xanica": [{"Name": "Santiago Xanica", "Country Code": "MX", "Population": 851.0, "Lat": 16.01009, "Lon": -96.22462}], "Santiago Yaitepec": [{"Name": "Santiago Yaitepec", "Country Code": "MX", "Population": 4120.0, "Lat": 16.22628, "Lon": -97.26953}], "Santiago Yancuictlalpan": [{"Name": "Santiago Yancuictlalpan", "Country Code": "MX", "Population": 1041.0, "Lat": 20.06092, "Lon": -97.47223}], "Santiago Yancuitlalpan": [{"Name": "Santiago Yancuitlalpan", "Country Code": "MX", "Population": 10013.0, "Lat": 19.38404, "Lon": -99.30471}], "Santiago Yeche": [{"Name": "Santiago Yech\u00e9", "Country Code": "MX", "Population": 2111.0, "Lat": 19.70853, "Lon": -99.7119}], "Santiago Yogana": [{"Name": "Santiago Yogana", "Country Code": "MX", "Population": 1284.0, "Lat": 16.4613, "Lon": -96.78786}], "Santiago Yolomecatl": [{"Name": "Santiago Yolom\u00e9catl", "Country Code": "MX", "Population": 1879.0, "Lat": 17.47237, "Lon": -97.56981}], "Santiago Yosondua": [{"Name": "Santiago Yosond\u00faa", "Country Code": "MX", "Population": 1254.0, "Lat": 16.87601, "Lon": -97.57607}], "Santiago Zacualuca": [{"Name": "Santiago Zacualuca", "Country Code": "MX", "Population": 2546.0, "Lat": 19.70038, "Lon": -98.92908}], "Santiago Zoochila": [{"Name": "Santiago Zoochila", "Country Code": "MX", "Population": 374.0, "Lat": 17.22059, "Lon": -96.24212}], "Santiago de Alcantara": [{"Name": "Santiago de Alc\u00e1ntara", "Country Code": "ES", "Population": 0.0, "Lat": 39.60661, "Lon": -7.24402}], "Santiago de Anaya": [{"Name": "Santiago de Anaya", "Country Code": "MX", "Population": 2214.0, "Lat": 20.3841, "Lon": -98.96512}], "Santiago de Baney": [{"Name": "Santiago de Baney", "Country Code": "GQ", "Population": 2365.0, "Lat": 3.6992, "Lon": 8.9084}], "Santiago de Calatrava": [{"Name": "Santiago de Calatrava", "Country Code": "ES", "Population": 876.0, "Lat": 37.75382, "Lon": -4.17093}], "Santiago de Cao": [{"Name": "Santiago de Cao", "Country Code": "PE", "Population": 21982.0, "Lat": -7.95889, "Lon": -79.23917}], "Santiago de Chuco": [{"Name": "Santiago de Chuco", "Country Code": "PE", "Population": 6759.0, "Lat": -8.14099, "Lon": -78.17329}], "Santiago de Compostela": [{"Name": "Santiago de Compostela", "Country Code": "ES", "Population": 97849.0, "Lat": 42.88052, "Lon": -8.54569}], "Santiago de Cuba": [{"Name": "Santiago de Cuba", "Country Code": "CU", "Population": 555865.0, "Lat": 20.02083, "Lon": -75.82667}], "Santiago de Cuenda": [{"Name": "Santiago de Cuenda", "Country Code": "MX", "Population": 6524.0, "Lat": 20.59956, "Lon": -100.99405}], "Santiago de Maria": [{"Name": "Santiago de Mar\u00eda", "Country Code": "SV", "Population": 15032.0, "Lat": 13.48333, "Lon": -88.46667}], "Santiago de Pochotitan": [{"Name": "Santiago de Pochotit\u00e1n", "Country Code": "MX", "Population": 1668.0, "Lat": 21.58159, "Lon": -104.69858}], "Santiago de Puringla": [{"Name": "Santiago de Puringla", "Country Code": "HN", "Population": 2433.0, "Lat": 14.35783, "Lon": -87.9041}], "Santiago de Queretaro": [{"Name": "Santiago de Quer\u00e9taro", "Country Code": "MX", "Population": 1594212.0, "Lat": 20.58806, "Lon": -100.38806}], "Santiago de Surco": [{"Name": "Santiago de Surco", "Country Code": "PE", "Population": 251648.0, "Lat": -12.13588, "Lon": -77.00742}], "Santiago de Tolu": [{"Name": "Santiago de Tol\u00fa", "Country Code": "CO", "Population": 27390.0, "Lat": 9.52392, "Lon": -75.58139}], "Santiago de Veraguas": [{"Name": "Santiago de Veraguas", "Country Code": "PA", "Population": 45355.0, "Lat": 8.1, "Lon": -80.98333}], "Santiago de la Pena": [{"Name": "Santiago de la Pe\u00f1a", "Country Code": "MX", "Population": 8657.0, "Lat": 20.94512, "Lon": -97.40493}], "Santiago de la Puebla": [{"Name": "Santiago de la Puebla", "Country Code": "ES", "Population": 472.0, "Lat": 40.80132, "Lon": -5.28073}], "Santiago de la Ribera": [{"Name": "Santiago de la Ribera", "Country Code": "ES", "Population": 8058.0, "Lat": 37.79681, "Lon": -0.80544}], "Santiago de las Vegas": [{"Name": "Santiago de las Vegas", "Country Code": "CU", "Population": 35241.0, "Lat": 22.97, "Lon": -82.38694}], "Santiago de los Caballeros": [{"Name": "Santiago de los Caballeros", "Country Code": "DO", "Population": 1200000.0, "Lat": 19.4517, "Lon": -70.69703}], "Santiago del Campo": [{"Name": "Santiago del Campo", "Country Code": "ES", "Population": 322.0, "Lat": 39.6284, "Lon": -6.36362}], "Santiago del Collado": [{"Name": "Santiago del Collado", "Country Code": "ES", "Population": 257.0, "Lat": 40.43326, "Lon": -5.35631}], "Santiago del Estero": [{"Name": "Santiago del Estero", "Country Code": "AR", "Population": 252192.0, "Lat": -27.79511, "Lon": -64.26149}], "Santiago del Monte": [{"Name": "Santiago del Monte", "Country Code": "MX", "Population": 1733.0, "Lat": 19.40141, "Lon": -99.94186}], "Santiago del Teide": [{"Name": "Santiago del Teide", "Country Code": "ES", "Population": 12050.0, "Lat": 28.294, "Lon": -16.81618}], "Santiago do Cacem": [{"Name": "Santiago do Cac\u00e9m", "Country Code": "PT", "Population": 7797.0, "Lat": 38.01693, "Lon": -8.69475}], "Santiago el Pinar": [{"Name": "Santiago el Pinar", "Country Code": "MX", "Population": 1072.0, "Lat": 16.94068, "Lon": -92.71455}], "Santiaguillo": [{"Name": "Santiaguillo", "Country Code": "MX", "Population": 1378.0, "Lat": 23.14718, "Lon": -102.6524}], "Santiaguito": [{"Name": "Santiaguito", "Country Code": "MX", "Population": 1321.0, "Lat": 20.77992, "Lon": -103.72394}], "Santiaguito (Santiaguito de Velazquez)": [{"Name": "Santiaguito (Santiaguito de Vel\u00e1zquez)", "Country Code": "MX", "Population": 1111.0, "Lat": 20.72533, "Lon": -102.23716}], "Santiaguito Tlalcilalcalli": [{"Name": "Santiaguito Tlalcilalcalli", "Country Code": "MX", "Population": 8761.0, "Lat": 19.34032, "Lon": -99.72717}], "Santibanez de Bejar": [{"Name": "Santib\u00e1\u00f1ez de B\u00e9jar", "Country Code": "ES", "Population": 606.0, "Lat": 40.48785, "Lon": -5.6111}], "Santibanez de Ecla": [{"Name": "Santib\u00e1\u00f1ez de Ecla", "Country Code": "ES", "Population": 82.0, "Lat": 42.70784, "Lon": -4.37263}], "Santibanez de Tera": [{"Name": "Santib\u00e1\u00f1ez de Tera", "Country Code": "ES", "Population": 592.0, "Lat": 41.98563, "Lon": -5.92257}], "Santibanez de Valcorba": [{"Name": "Santib\u00e1\u00f1ez de Valcorba", "Country Code": "ES", "Population": 190.0, "Lat": 41.56983, "Lon": -4.44938}], "Santibanez de Vidriales": [{"Name": "Santib\u00e1\u00f1ez de Vidriales", "Country Code": "ES", "Population": 1251.0, "Lat": 42.07362, "Lon": -6.01549}], "Santibanez de la Pena": [{"Name": "Santib\u00e1\u00f1ez de la Pe\u00f1a", "Country Code": "ES", "Population": 1365.0, "Lat": 42.80929, "Lon": -4.73026}], "Santibanez de la Sierra": [{"Name": "Santib\u00e1\u00f1ez de la Sierra", "Country Code": "ES", "Population": 242.0, "Lat": 40.49464, "Lon": -5.91576}], "Santibanez del Val": [{"Name": "Santib\u00e1\u00f1ez del Val", "Country Code": "ES", "Population": 72.0, "Lat": 41.97354, "Lon": -3.48142}], "Santibanez el Alto": [{"Name": "Santib\u00e1\u00f1ez el Alto", "Country Code": "ES", "Population": 487.0, "Lat": 40.18525, "Lon": -6.54782}], "Santibanez el Bajo": [{"Name": "Santib\u00e1\u00f1ez el Bajo", "Country Code": "ES", "Population": 900.0, "Lat": 40.17637, "Lon": -6.22441}], "Santillan": [{"Name": "Santill\u00e1n", "Country Code": "MX", "Population": 1281.0, "Lat": 20.60073, "Lon": -99.93951}], "Santillana": [{"Name": "Santillana", "Country Code": "ES", "Population": 4042.0, "Lat": 43.38903, "Lon": -4.10844}], "Santimbru": [{"Name": "S\u00e2ntimbru", "Country Code": "RO", "Population": 2679.0, "Lat": 46.13333, "Lon": 23.65}, {"Name": "S\u00e2ntimbru", "Country Code": "RO", "Population": 2086.0, "Lat": 46.28126, "Lon": 25.85439}], "Santino": [{"Name": "Santino", "Country Code": "IT", "Population": 310.0, "Lat": 45.95606, "Lon": 8.51914}], "Santion": [{"Name": "S\u00e2ntion", "Country Code": "RO", "Population": 1453.0, "Lat": 47.09634, "Lon": 21.8366}], "Santiponce": [{"Name": "Santiponce", "Country Code": "ES", "Population": 7561.0, "Lat": 37.43553, "Lon": -6.04106}], "Santisimo Rosario": [{"Name": "Santisimo Rosario", "Country Code": "PH", "Population": 4190.0, "Lat": 13.99661, "Lon": 121.30918}], "Santiso": [{"Name": "Santiso", "Country Code": "ES", "Population": 0.0, "Lat": 42.87388, "Lon": -8.05497}], "Santisteban del Puerto": [{"Name": "Santisteban del Puerto", "Country Code": "ES", "Population": 4756.0, "Lat": 38.24829, "Lon": -3.20762}], "Santiurde de Reinosa": [{"Name": "Santiurde de Reinosa", "Country Code": "ES", "Population": 362.0, "Lat": 43.06144, "Lon": -4.08351}], "Santiurde de Toranzo": [{"Name": "Santiurde de Toranzo", "Country Code": "ES", "Population": 1349.0, "Lat": 43.23819, "Lon": -3.93947}], "Santiuste": [{"Name": "Santiuste", "Country Code": "ES", "Population": 23.0, "Lat": 41.08462, "Lon": -2.80953}], "Santiuste de San Juan Bautista": [{"Name": "Santiuste de San Juan Bautista", "Country Code": "ES", "Population": 740.0, "Lat": 41.15593, "Lon": -4.57202}], "Santiz": [{"Name": "Santiz", "Country Code": "ES", "Population": 291.0, "Lat": 41.20579, "Lon": -5.89654}], "Santo Amaro": [{"Name": "Santo Amaro", "Country Code": "BR", "Population": 46748.0, "Lat": -12.54667, "Lon": -38.71194}], "Santo Amaro da Imperatriz": [{"Name": "Santo Amaro da Imperatriz", "Country Code": "BR", "Population": 18418.0, "Lat": -27.68806, "Lon": -48.77861}], "Santo Amaro das Brotas": [{"Name": "Santo Amaro das Brotas", "Country Code": "BR", "Population": 9302.0, "Lat": -10.78889, "Lon": -37.05444}], "Santo Anastacio": [{"Name": "Santo Anast\u00e1cio", "Country Code": "BR", "Population": 17233.0, "Lat": -21.83833, "Lon": -51.61028}], "Santo Andre": [{"Name": "Santo Andr\u00e9", "Country Code": "BR", "Population": 662373.0, "Lat": -23.66389, "Lon": -46.53833}, {"Name": "Santo Andr\u00e9", "Country Code": "PT", "Population": 10601.0, "Lat": 38.06078, "Lon": -8.7822}, {"Name": "Santo Andr\u00e9", "Country Code": "PT", "Population": 11213.0, "Lat": 39.05532, "Lon": -8.24414}], "Santo Angelo": [{"Name": "Santo \u00c2ngelo", "Country Code": "BR", "Population": 64606.0, "Lat": -28.29917, "Lon": -54.26306}], "Santo Antao do Tojal": [{"Name": "Santo Ant\u00e3o do Tojal", "Country Code": "PT", "Population": 4156.0, "Lat": 38.85151, "Lon": -9.13975}], "Santo Antonio": [{"Name": "Santo Ant\u00f4nio", "Country Code": "BR", "Population": 12529.0, "Lat": -6.31056, "Lon": -35.47889}, {"Name": "Santo Ant\u00f3nio", "Country Code": "ST", "Population": 1156.0, "Lat": 1.63943, "Lon": 7.41951}], "Santo Antonio da Charneca": [{"Name": "Santo Ant\u00f3nio da Charneca", "Country Code": "PT", "Population": 11143.0, "Lat": 38.62561, "Lon": -9.03043}], "Santo Antonio da Platina": [{"Name": "Santo Ant\u00f4nio da Platina", "Country Code": "BR", "Population": 35260.0, "Lat": -23.295, "Lon": -50.07722}], "Santo Antonio de Jesus": [{"Name": "Santo Ant\u00f4nio de Jesus", "Country Code": "BR", "Population": 73957.0, "Lat": -12.96889, "Lon": -39.26139}], "Santo Antonio de Padua": [{"Name": "Santo Ant\u00f4nio de P\u00e1dua", "Country Code": "BR", "Population": 33076.0, "Lat": -21.53944, "Lon": -42.18028}], "Santo Antonio de Posse": [{"Name": "Santo Ant\u00f4nio de Posse", "Country Code": "BR", "Population": 18148.0, "Lat": -22.60611, "Lon": -46.91944}], "Santo Antonio do Amparo": [{"Name": "Santo Ant\u00f4nio do Amparo", "Country Code": "BR", "Population": 16730.0, "Lat": -20.94639, "Lon": -44.91889}], "Santo Antonio do Ica": [{"Name": "Santo Ant\u00f4nio do I\u00e7\u00e1", "Country Code": "BR", "Population": 9302.0, "Lat": -3.10222, "Lon": -67.93972}], "Santo Antonio do Leverger": [{"Name": "Santo Ant\u00f4nio do Leverger", "Country Code": "BR", "Population": 6387.0, "Lat": -15.86556, "Lon": -56.07667}], "Santo Antonio do Monte": [{"Name": "Santo Ant\u00f4nio do Monte", "Country Code": "BR", "Population": 22592.0, "Lat": -20.08722, "Lon": -45.29361}], "Santo Antonio do Sudoeste": [{"Name": "Santo Ant\u00f4nio do Sudoeste", "Country Code": "BR", "Population": 11723.0, "Lat": -26.07361, "Lon": -53.72528}], "Santo Antonio do Taua": [{"Name": "Santo Ant\u00f4nio do Tau\u00e1", "Country Code": "BR", "Population": 8921.0, "Lat": -1.15194, "Lon": -48.12944}], "Santo Antonio dos Olivais": [{"Name": "Santo Ant\u00f3nio dos Olivais", "Country Code": "PT", "Population": 38936.0, "Lat": 40.21805, "Lon": -8.40523}], "Santo Augusto": [{"Name": "Santo Augusto", "Country Code": "BR", "Population": 10305.0, "Lat": -27.85083, "Lon": -53.77722}], "Santo Cristo": [{"Name": "Santo Cristo", "Country Code": "PH", "Population": 4326.0, "Lat": 15.33836, "Lon": 120.59333}, {"Name": "Santo Cristo", "Country Code": "PH", "Population": 8664.0, "Lat": 15.29683, "Lon": 120.89025}], "Santo Domingo": [{"Name": "Santo Domingo", "Country Code": "CO", "Population": 12394.0, "Lat": 6.47282, "Lon": -75.16547}, {"Name": "Santo Domingo", "Country Code": "CR", "Population": 5745.0, "Lat": 10.06389, "Lon": -84.15499}, {"Name": "Santo Domingo", "Country Code": "CU", "Population": 45476.0, "Lat": 22.58677, "Lon": -80.24261}, {"Name": "Santo Domingo", "Country Code": "DO", "Population": 2201941.0, "Lat": 18.47186, "Lon": -69.89232}, {"Name": "Santo Domingo", "Country Code": "MX", "Population": 1234.0, "Lat": 20.6, "Lon": -90.11667}, {"Name": "Santo Domingo", "Country Code": "MX", "Population": 3796.0, "Lat": 15.03067, "Lon": -92.10361}, {"Name": "Santo Domingo", "Country Code": "MX", "Population": 1584.0, "Lat": 17.02819, "Lon": -91.41682}, {"Name": "Santo Domingo", "Country Code": "MX", "Population": 1047.0, "Lat": 22.28325, "Lon": -100.16965}, {"Name": "Santo Domingo", "Country Code": "MX", "Population": 730.0, "Lat": 23.3267, "Lon": -101.7361}, {"Name": "Santo Domingo", "Country Code": "NI", "Population": 5827.0, "Lat": 12.26438, "Lon": -85.08235}, {"Name": "Santo Domingo", "Country Code": "PA", "Population": 1772.0, "Lat": 7.74856, "Lon": -80.2414}, {"Name": "Santo Domingo", "Country Code": "PA", "Population": 1216.0, "Lat": 8.5104, "Lon": -82.71365}, {"Name": "Santo Domingo", "Country Code": "PE", "Population": 0.0, "Lat": -5.02611, "Lon": -79.87417}, {"Name": "Santo Domingo", "Country Code": "PH", "Population": 3481.0, "Lat": 14.1338, "Lon": 122.8883}, {"Name": "Santo Domingo", "Country Code": "PH", "Population": 2247.0, "Lat": 15.07289, "Lon": 120.75703}, {"Name": "Santo Domingo", "Country Code": "PH", "Population": 2640.0, "Lat": 17.15999, "Lon": 121.75183}, {"Name": "Santo Domingo", "Country Code": "PH", "Population": 2665.0, "Lat": 13.7, "Lon": 123.16667}, {"Name": "Santo Domingo", "Country Code": "PH", "Population": 2846.0, "Lat": 14.96532, "Lon": 120.55672}, {"Name": "Santo Domingo", "Country Code": "PH", "Population": 0.0, "Lat": 17.63528, "Lon": 120.41083}, {"Name": "Santo Domingo", "Country Code": "PH", "Population": 5045.0, "Lat": 14.9912, "Lon": 120.74341}, {"Name": "Santo Domingo", "Country Code": "PH", "Population": 0.0, "Lat": 13.23528, "Lon": 123.77722}, {"Name": "Santo Domingo", "Country Code": "PH", "Population": 5031.0, "Lat": 13.42, "Lon": 123.4486}, {"Name": "Santo Domingo", "Country Code": "PH", "Population": 0.0, "Lat": 15.5873, "Lon": 120.877}, {"Name": "Santo Domingo", "Country Code": "PR", "Population": 3633.0, "Lat": 18.0633, "Lon": -66.7524}, {"Name": "Santo Domingo", "Country Code": "VE", "Population": 0.0, "Lat": 8.86052, "Lon": -70.6948}], "Santo Domingo Armenta": [{"Name": "Santo Domingo Armenta", "Country Code": "MX", "Population": 2577.0, "Lat": 16.33194, "Lon": -98.37778}], "Santo Domingo Atoyatempan": [{"Name": "Santo Domingo Atoyatempan", "Country Code": "MX", "Population": 1400.0, "Lat": 18.90444, "Lon": -98.37306}], "Santo Domingo Aztacameca": [{"Name": "Santo Domingo Aztacameca", "Country Code": "MX", "Population": 3012.0, "Lat": 19.78223, "Lon": -98.76811}], "Santo Domingo Chihuitan": [{"Name": "Santo Domingo Chihuit\u00e1n", "Country Code": "MX", "Population": 1304.0, "Lat": 16.59135, "Lon": -95.16331}], "Santo Domingo Este": [{"Name": "Santo Domingo Este", "Country Code": "DO", "Population": 700000.0, "Lat": 18.48847, "Lon": -69.85707}], "Santo Domingo Huehuetlan": [{"Name": "Santo Domingo Huehuetl\u00e1n", "Country Code": "MX", "Population": 2477.0, "Lat": 18.7394, "Lon": -98.16438}], "Santo Domingo Jalieza": [{"Name": "Santo Domingo Jalieza", "Country Code": "MX", "Population": 1244.0, "Lat": 16.86848, "Lon": -96.62919}], "Santo Domingo Keste": [{"Name": "Santo Domingo Kest\u00e9", "Country Code": "MX", "Population": 3763.0, "Lat": 19.49972, "Lon": -90.51139}], "Santo Domingo Ocotitlan": [{"Name": "Santo Domingo Ocotitl\u00e1n", "Country Code": "MX", "Population": 1541.0, "Lat": 19.01445, "Lon": -99.06101}], "Santo Domingo Oeste": [{"Name": "Santo Domingo Oeste", "Country Code": "DO", "Population": 701269.0, "Lat": 18.5, "Lon": -70.0}], "Santo Domingo Ozolotepec": [{"Name": "Santo Domingo Ozolotepec", "Country Code": "MX", "Population": 834.0, "Lat": 16.15017, "Lon": -96.31046}], "Santo Domingo Petapa": [{"Name": "Santo Domingo Petapa", "Country Code": "MX", "Population": 5429.0, "Lat": 16.81869, "Lon": -95.14072}], "Santo Domingo Pueblo": [{"Name": "Santo Domingo Pueblo", "Country Code": "US", "Population": 2456.0, "Lat": 35.51476, "Lon": -106.36586}], "Santo Domingo Roayaga": [{"Name": "Santo Domingo Roayaga", "Country Code": "MX", "Population": 583.0, "Lat": 17.33782, "Lon": -96.11506}], "Santo Domingo Shomege (Shomege)": [{"Name": "Santo Domingo Shomege (Shomege)", "Country Code": "MX", "Population": 1178.0, "Lat": 19.84524, "Lon": -99.90166}], "Santo Domingo Suchitepequez": [{"Name": "Santo Domingo Suchitep\u00e9quez", "Country Code": "GT", "Population": 6270.0, "Lat": 14.47901, "Lon": -91.48327}], "Santo Domingo Tehuantepec": [{"Name": "Santo Domingo Tehuantepec", "Country Code": "MX", "Population": 42082.0, "Lat": 16.32463, "Lon": -95.24104}], "Santo Domingo Tepuxtepec": [{"Name": "Santo Domingo Tepuxtepec", "Country Code": "MX", "Population": 1813.0, "Lat": 16.95584, "Lon": -96.05823}], "Santo Domingo Tlatayapam": [{"Name": "Santo Domingo Tlatayapam", "Country Code": "MX", "Population": 147.0, "Lat": 17.40778, "Lon": -97.34581}], "Santo Domingo Tomaltepec": [{"Name": "Santo Domingo Tomaltepec", "Country Code": "MX", "Population": 2483.0, "Lat": 17.06117, "Lon": -96.6228}], "Santo Domingo Tonala": [{"Name": "Santo Domingo Tonal\u00e1", "Country Code": "MX", "Population": 2704.0, "Lat": 17.67352, "Lon": -97.96556}], "Santo Domingo Xenacoj": [{"Name": "Santo Domingo Xenacoj", "Country Code": "GT", "Population": 8791.0, "Lat": 14.68057, "Lon": -90.70012}], "Santo Domingo Yanhuitlan": [{"Name": "Santo Domingo Yanhuitl\u00e1n", "Country Code": "MX", "Population": 1002.0, "Lat": 17.52861, "Lon": -97.3426}], "Santo Domingo Yodohino": [{"Name": "Santo Domingo Yodohino", "Country Code": "MX", "Population": 363.0, "Lat": 17.61694, "Lon": -97.68289}], "Santo Domingo Zanatepec": [{"Name": "Santo Domingo Zanatepec", "Country Code": "MX", "Population": 7249.0, "Lat": 16.48307, "Lon": -94.34754}], "Santo Domingo de Guzman": [{"Name": "Santo Domingo de Guzm\u00e1n", "Country Code": "MX", "Population": 8008.0, "Lat": 19.59306, "Lon": -99.77972}], "Santo Domingo de Morelos": [{"Name": "Santo Domingo de Morelos", "Country Code": "MX", "Population": 1620.0, "Lat": 15.83397, "Lon": -96.66695}], "Santo Domingo de Piron": [{"Name": "Santo Domingo de Pir\u00f3n", "Country Code": "ES", "Population": 65.0, "Lat": 41.04104, "Lon": -3.98933}], "Santo Domingo de Silos": [{"Name": "Santo Domingo de Silos", "Country Code": "ES", "Population": 286.0, "Lat": 41.964, "Lon": -3.4174}], "Santo Domingo de la Calzada": [{"Name": "Santo Domingo de la Calzada", "Country Code": "ES", "Population": 6223.0, "Lat": 42.44015, "Lon": -2.95365}], "Santo Domingo de las Palmas": [{"Name": "Santo Domingo de las Palmas", "Country Code": "MX", "Population": 1248.0, "Lat": 16.13667, "Lon": -91.32194}], "Santo Domingo de las Posadas": [{"Name": "Santo Domingo de las Posadas", "Country Code": "ES", "Population": 93.0, "Lat": 40.812, "Lon": -4.63383}], "Santo Domingo de los Colorados": [{"Name": "Santo Domingo de los Colorados", "Country Code": "EC", "Population": 458580.0, "Lat": -0.25305, "Lon": -79.17536}], "Santo Estevao": [{"Name": "Santo Est\u00eav\u00e3o", "Country Code": "BR", "Population": 27279.0, "Lat": -12.43028, "Lon": -39.25139}], "Santo Isidoro": [{"Name": "Santo Isidoro", "Country Code": "PT", "Population": 3814.0, "Lat": 38.99593, "Lon": -9.3994}], "Santo Izidoro": [{"Name": "Santo Izidoro", "Country Code": "PT", "Population": 1495.0, "Lat": 41.21083, "Lon": -8.14224}], "Santo Nino": [{"Name": "Santo Ni\u00f1o", "Country Code": "PH", "Population": 3054.0, "Lat": 13.8489, "Lon": 121.1328}, {"Name": "Santo Ni\u00f1o", "Country Code": "PH", "Population": 2247.0, "Lat": 13.7018, "Lon": 121.0949}, {"Name": "Santo Ni\u00f1o", "Country Code": "PH", "Population": 2012.0, "Lat": 11.06306, "Lon": 124.56167}, {"Name": "Santo Ni\u00f1o", "Country Code": "PH", "Population": 2966.0, "Lat": 15.33433, "Lon": 120.62619}, {"Name": "Santo Ni\u00f1o", "Country Code": "PH", "Population": 9611.0, "Lat": 7.62361, "Lon": 125.62528}, {"Name": "Santo Ni\u00f1o", "Country Code": "PH", "Population": 2040.0, "Lat": 13.1043, "Lon": 123.9682}, {"Name": "Santo Ni\u00f1o", "Country Code": "PH", "Population": 2864.0, "Lat": 11.9263, "Lon": 124.4492}, {"Name": "Santo Ni\u00f1o", "Country Code": "PH", "Population": 3787.0, "Lat": 7.32778, "Lon": 125.70528}, {"Name": "Santo Ni\u00f1o", "Country Code": "PH", "Population": 4915.0, "Lat": 17.8861, "Lon": 121.5691}, {"Name": "Santo Ni\u00f1o", "Country Code": "PH", "Population": 2390.0, "Lat": 15.23664, "Lon": 120.71204}, {"Name": "Santo Ni\u00f1o", "Country Code": "PH", "Population": 9662.0, "Lat": 6.435, "Lon": 124.6975}], "Santo Nino Aguanaval": [{"Name": "Santo Ni\u00f1o Aguanaval", "Country Code": "MX", "Population": 2164.0, "Lat": 25.43118, "Lon": -103.27909}], "Santo Nombre": [{"Name": "Santo Nombre", "Country Code": "MX", "Population": 3111.0, "Lat": 18.67389, "Lon": -97.67611}], "Santo Pipo": [{"Name": "Santo Pip\u00f3", "Country Code": "AR", "Population": 5447.0, "Lat": -27.14147, "Lon": -55.40945}], "Santo Rosario": [{"Name": "Santo Rosario", "Country Code": "PH", "Population": 6234.0, "Lat": 15.6447, "Lon": 120.8612}, {"Name": "Santo Rosario", "Country Code": "PH", "Population": 6005.0, "Lat": 15.43425, "Lon": 120.88981}], "Santo Stefano": [{"Name": "Santo Stefano", "Country Code": "IT", "Population": 1795.0, "Lat": 39.34734, "Lon": 16.19898}, {"Name": "Santo Stefano", "Country Code": "IT", "Population": 0.0, "Lat": 46.20865, "Lon": 13.12626}], "Santo Stefano Belbo": [{"Name": "Santo Stefano Belbo", "Country Code": "IT", "Population": 2899.0, "Lat": 44.71023, "Lon": 8.23269}], "Santo Stefano Lodigiano": [{"Name": "Santo Stefano Lodigiano", "Country Code": "IT", "Population": 1480.0, "Lat": 45.11857, "Lon": 9.73527}], "Santo Stefano Quisquina": [{"Name": "Santo Stefano Quisquina", "Country Code": "IT", "Population": 4072.0, "Lat": 37.62606, "Lon": 13.48976}], "Santo Stefano Roero": [{"Name": "Santo Stefano Roero", "Country Code": "IT", "Population": 81.0, "Lat": 44.78844, "Lon": 7.94093}], "Santo Stefano Ticino": [{"Name": "Santo Stefano Ticino", "Country Code": "IT", "Population": 4667.0, "Lat": 45.48635, "Lon": 8.91582}], "Santo Stefano al Mare": [{"Name": "Santo Stefano al Mare", "Country Code": "IT", "Population": 1842.0, "Lat": 43.83855, "Lon": 7.89728}], "Santo Stefano d'Aveto": [{"Name": "Santo Stefano d'Aveto", "Country Code": "IT", "Population": 508.0, "Lat": 44.54677, "Lon": 9.45325}], "Santo Stefano del Sole": [{"Name": "Santo Stefano del Sole", "Country Code": "IT", "Population": 547.0, "Lat": 40.89414, "Lon": 14.86674}], "Santo Stefano di Cadore": [{"Name": "Santo Stefano di Cadore", "Country Code": "IT", "Population": 1218.0, "Lat": 46.55827, "Lon": 12.54956}], "Santo Stefano di Camastra": [{"Name": "Santo Stefano di Camastra", "Country Code": "IT", "Population": 4392.0, "Lat": 38.01295, "Lon": 14.35142}], "Santo Stefano di Magra": [{"Name": "Santo Stefano di Magra", "Country Code": "IT", "Population": 8153.0, "Lat": 44.14891, "Lon": 9.92185}], "Santo Stefano di Rogliano": [{"Name": "Santo Stefano di Rogliano", "Country Code": "IT", "Population": 1041.0, "Lat": 39.19223, "Lon": 16.32079}], "Santo Stefano di Sessanio": [{"Name": "Santo Stefano di Sessanio", "Country Code": "IT", "Population": 118.0, "Lat": 42.34339, "Lon": 13.64477}], "Santo Stefano in Aspromonte": [{"Name": "Santo Stefano in Aspromonte", "Country Code": "IT", "Population": 766.0, "Lat": 38.16909, "Lon": 15.78983}], "Santo Stefano-Bonaldo": [{"Name": "Santo Stefano-Bonaldo", "Country Code": "IT", "Population": 3185.0, "Lat": 45.36718, "Lon": 11.33199}], "Santo Stefano-Carraie": [{"Name": "Santo Stefano-Carraie", "Country Code": "IT", "Population": 2091.0, "Lat": 44.31525, "Lon": 12.18573}], "Santo Tirso": [{"Name": "Santo Tirso", "Country Code": "PT", "Population": 14021.0, "Lat": 41.34257, "Lon": -8.47746}], "Santo Tomas": [{"Name": "Santo Tom\u00e1s", "Country Code": "CO", "Population": 28693.0, "Lat": 10.75773, "Lon": -74.75451}, {"Name": "Santo Tom\u00e1s", "Country Code": "MX", "Population": 1490.0, "Lat": 18.04194, "Lon": -96.51389}, {"Name": "Santo Tom\u00e1s", "Country Code": "MX", "Population": 1386.0, "Lat": 19.84524, "Lon": -102.08571}, {"Name": "Santo Tomas", "Country Code": "MX", "Population": 2155.0, "Lat": 19.90364, "Lon": -98.56882}, {"Name": "Santo Tom\u00e1s", "Country Code": "NI", "Population": 14809.0, "Lat": 12.06938, "Lon": -85.09059}, {"Name": "Santo Tom\u00e1s", "Country Code": "PA", "Population": 653.0, "Lat": 8.39702, "Lon": -82.64769}, {"Name": "Santo Tomas", "Country Code": "PE", "Population": 4134.0, "Lat": -14.44556, "Lon": -72.08417}, {"Name": "Santo Tomas", "Country Code": "PH", "Population": 0.0, "Lat": 7.53361, "Lon": 125.62333}, {"Name": "Santo Tomas", "Country Code": "PH", "Population": 3055.0, "Lat": 8.18583, "Lon": 125.80389}, {"Name": "Santo Tomas", "Country Code": "PH", "Population": 57438.0, "Lat": 14.1079, "Lon": 121.14136}, {"Name": "Santo Tomas", "Country Code": "PH", "Population": 2446.0, "Lat": 14.18333, "Lon": 121.5}, {"Name": "Santo Tomas", "Country Code": "PH", "Population": 2772.0, "Lat": 17.39972, "Lon": 121.76455}, {"Name": "Santo Tomas", "Country Code": "PH", "Population": 0.0, "Lat": 15.0333, "Lon": 120.8}, {"Name": "Santo Tomas", "Country Code": "PH", "Population": 0.0, "Lat": 16.2798, "Lon": 120.3792}, {"Name": "Santo Tomas", "Country Code": "PH", "Population": 5138.0, "Lat": 15.74977, "Lon": 120.96241}, {"Name": "Santo Tom\u00e1s", "Country Code": "SV", "Population": 14581.0, "Lat": 13.64083, "Lon": -89.13333}], "Santo Tomas Chiconautla": [{"Name": "Santo Tom\u00e1s Chiconautla", "Country Code": "MX", "Population": 7844.0, "Lat": 19.63894, "Lon": -99.00755}], "Santo Tomas Huatzindeo": [{"Name": "Santo Tom\u00e1s Huatzindeo", "Country Code": "MX", "Population": 2044.0, "Lat": 20.22205, "Lon": -100.92068}], "Santo Tomas Jalieza": [{"Name": "Santo Tom\u00e1s Jalieza", "Country Code": "MX", "Population": 1118.0, "Lat": 16.84469, "Lon": -96.67063}], "Santo Tomas La Union": [{"Name": "Santo Tom\u00e1s La Uni\u00f3n", "Country Code": "GT", "Population": 7081.0, "Lat": 14.63219, "Lon": -91.41075}], "Santo Tomas Tamazulapam": [{"Name": "Santo Tom\u00e1s Tamazulapam", "Country Code": "MX", "Population": 1559.0, "Lat": 16.27064, "Lon": -96.58193}], "Santo Tomas de los Platanos": [{"Name": "Santo Tom\u00e1s de los Pl\u00e1tanos", "Country Code": "MX", "Population": 766.0, "Lat": 19.1831, "Lon": -100.25999}], "Santo Tomas del Norte": [{"Name": "Santo Tom\u00e1s del Norte", "Country Code": "NI", "Population": 608.0, "Lat": 13.1861, "Lon": -86.92267}], "Santo Tomas la Concordia": [{"Name": "Santo Tom\u00e1s la Concordia", "Country Code": "MX", "Population": 2798.0, "Lat": 19.22917, "Lon": -98.31944}], "Santo Tome": [{"Name": "Santo Tom\u00e9", "Country Code": "AR", "Population": 59072.0, "Lat": -31.66274, "Lon": -60.7653}, {"Name": "Santo Tom\u00e9", "Country Code": "AR", "Population": 22634.0, "Lat": -28.55104, "Lon": -56.04125}, {"Name": "Santo Tom\u00e9", "Country Code": "ES", "Population": 2273.0, "Lat": 38.02861, "Lon": -3.10092}], "Santo Tome de Zabarcos": [{"Name": "Santo Tom\u00e9 de Zabarcos", "Country Code": "ES", "Population": 112.0, "Lat": 40.78726, "Lon": -4.91048}], "Santok": [{"Name": "Santok", "Country Code": "PL", "Population": 780.0, "Lat": 52.73785, "Lon": 15.41021}], "Santokhgarh": [{"Name": "Santokhgarh", "Country Code": "IN", "Population": 8877.0, "Lat": 31.35205, "Lon": 76.31775}], "Santol": [{"Name": "Santol", "Country Code": "PH", "Population": 298976.0, "Lat": 15.16222, "Lon": 120.5675}, {"Name": "Santol", "Country Code": "PH", "Population": 6435.0, "Lat": 10.1725, "Lon": 122.9947},