{"Gageldonk": [{"Name": "Gageldonk", "Country Code": "NL", "Population": 4865.0, "Lat": 51.60167, "Lon": 4.73889}], "Gageni": [{"Name": "G\u0103geni", "Country Code": "RO", "Population": 2114.0, "Lat": 45.02164, "Lon": 25.94585}], "Gages Lake": [{"Name": "Gages Lake", "Country Code": "US", "Population": 10198.0, "Lat": 42.35169, "Lon": -87.98258}], "Gagesti": [{"Name": "G\u0103ge\u015fti", "Country Code": "RO", "Population": 2252.0, "Lat": 46.33333, "Lon": 27.96667}, {"Name": "G\u0103ge\u0219ti", "Country Code": "RO", "Population": 1492.0, "Lat": 45.85598, "Lon": 27.0554}], "Gaggenau": [{"Name": "Gaggenau", "Country Code": "DE", "Population": 29496.0, "Lat": 48.8, "Lon": 8.33333}], "Gaggi": [{"Name": "Gaggi", "Country Code": "IT", "Population": 3093.0, "Lat": 37.85995, "Lon": 15.22126}], "Gaggiano": [{"Name": "Gaggiano", "Country Code": "IT", "Population": 6851.0, "Lat": 45.40484, "Lon": 9.03488}], "Gaggino": [{"Name": "Gaggino", "Country Code": "IT", "Population": 2533.0, "Lat": 45.80787, "Lon": 8.96427}], "Gaggio": [{"Name": "Gaggio", "Country Code": "IT", "Population": 1280.0, "Lat": 44.63458, "Lon": 11.01334}], "Gaggio Montano": [{"Name": "Gaggio Montano", "Country Code": "IT", "Population": 1407.0, "Lat": 44.19583, "Lon": 10.93518}], "Gagino": [{"Name": "Gagino", "Country Code": "RU", "Population": 3933.0, "Lat": 55.23103, "Lon": 45.02448}], "Gaglianico": [{"Name": "Gaglianico", "Country Code": "IT", "Population": 3549.0, "Lat": 45.53718, "Lon": 8.07839}], "Gagliano Aterno": [{"Name": "Gagliano Aterno", "Country Code": "IT", "Population": 255.0, "Lat": 42.12598, "Lon": 13.70023}], "Gagliano Castelferrato": [{"Name": "Gagliano Castelferrato", "Country Code": "IT", "Population": 3427.0, "Lat": 37.70967, "Lon": 14.53524}], "Gagliano del Capo": [{"Name": "Gagliano del Capo", "Country Code": "IT", "Population": 5042.0, "Lat": 39.84323, "Lon": 18.36962}], "Gagliato": [{"Name": "Gagliato", "Country Code": "IT", "Population": 437.0, "Lat": 38.67578, "Lon": 16.46061}], "Gagliole": [{"Name": "Gagliole", "Country Code": "IT", "Population": 130.0, "Lat": 43.23812, "Lon": 13.06782}], "Gagnac-sur-Garonne": [{"Name": "Gagnac-sur-Garonne", "Country Code": "FR", "Population": 1832.0, "Lat": 43.6999, "Lon": 1.37535}], "Gagnef": [{"Name": "Gagnef", "Country Code": "SE", "Population": 1199.0, "Lat": 60.59856, "Lon": 15.07745}], "Gagnoa": [{"Name": "Gagnoa", "Country Code": "CI", "Population": 277044.0, "Lat": 6.13193, "Lon": -5.9506}], "Gagny": [{"Name": "Gagny", "Country Code": "CI", "Population": 15910.0, "Lat": 5.0491, "Lon": -6.74477}, {"Name": "Gagny", "Country Code": "FR", "Population": 38134.0, "Lat": 48.88333, "Lon": 2.53333}], "Gagore": [{"Name": "Gagor\u00e9", "Country Code": "CI", "Population": 3133.0, "Lat": 6.04931, "Lon": -5.62934}], "Gagra": [{"Name": "Gagra", "Country Code": "GE", "Population": 8266.0, "Lat": 43.27858, "Lon": 40.27124}], "Gagret": [{"Name": "Gagret", "Country Code": "IN", "Population": 3025.0, "Lat": 31.65846, "Lon": 76.06144}], "Gahabli": [{"Name": "Gahabli", "Country Code": "CI", "Population": 2092.0, "Lat": 5.93919, "Lon": -7.4751}], "Gahai": [{"Name": "Gahai", "Country Code": "CN", "Population": 5257.0, "Lat": 34.25914, "Lon": 102.3681}], "Gahanna": [{"Name": "Gahanna", "Country Code": "US", "Population": 34590.0, "Lat": 40.01923, "Lon": -82.87934}], "Gahkuch": [{"Name": "Gahkuch", "Country Code": "PK", "Population": 10000.0, "Lat": 36.17683, "Lon": 73.76383}], "Gaiano": [{"Name": "Gaiano", "Country Code": "IT", "Population": 1074.0, "Lat": 44.72391, "Lon": 10.17267}], "Gaiarine": [{"Name": "Gaiarine", "Country Code": "IT", "Population": 1892.0, "Lat": 45.88083, "Lon": 12.48142}], "Gaiba": [{"Name": "Gaiba", "Country Code": "IT", "Population": 779.0, "Lat": 44.94573, "Lon": 11.48087}], "Gaibandha": [{"Name": "Gaibandha", "Country Code": "BD", "Population": 0.0, "Lat": 25.3293, "Lon": 89.5438}], "Gaibanella-Sant'Edigio": [{"Name": "Gaibanella-Sant'Edigio", "Country Code": "IT", "Population": 1038.0, "Lat": 44.76667, "Lon": 11.65}], "Gaiberg": [{"Name": "Gaiberg", "Country Code": "DE", "Population": 2437.0, "Lat": 49.36639, "Lon": 8.74972}], "Gaibiel": [{"Name": "Gaibiel", "Country Code": "ES", "Population": 205.0, "Lat": 39.93333, "Lon": -0.48333}], "Gaiceana": [{"Name": "G\u0103iceana", "Country Code": "RO", "Population": 3063.0, "Lat": 46.33333, "Lon": 27.21667}], "Gaienhofen": [{"Name": "Gaienhofen", "Country Code": "DE", "Population": 3157.0, "Lat": 47.68333, "Lon": 8.98333}], "Gaigeturi": [{"Name": "Gaigeturi", "Country Code": "KR", "Population": 23717.0, "Lat": 33.46444, "Lon": 126.31833}], "Gail": [{"Name": "Gail", "Country Code": "US", "Population": 231.0, "Lat": 32.77038, "Lon": -101.44541}], "Gaildorf": [{"Name": "Gaildorf", "Country Code": "DE", "Population": 12571.0, "Lat": 49.00027, "Lon": 9.76953}], "Gailes": [{"Name": "Gailes", "Country Code": "AU", "Population": 1846.0, "Lat": -27.61133, "Lon": 152.9132}], "Gailingen": [{"Name": "Gailingen", "Country Code": "DE", "Population": 3008.0, "Lat": 47.69711, "Lon": 8.75567}], "Gailitz": [{"Name": "Gailitz", "Country Code": "AT", "Population": 1072.0, "Lat": 46.56083, "Lon": 13.70444}], "Gaillac": [{"Name": "Gaillac", "Country Code": "FR", "Population": 12600.0, "Lat": 43.9016, "Lon": 1.89686}], "Gaillac-Toulza": [{"Name": "Gaillac-Toulza", "Country Code": "FR", "Population": 1123.0, "Lat": 43.25472, "Lon": 1.47118}], "Gaillan-en-Medoc": [{"Name": "Gaillan-en-M\u00e9doc", "Country Code": "FR", "Population": 2092.0, "Lat": 45.32506, "Lon": -0.95512}], "Gaillard": [{"Name": "Gaillard", "Country Code": "FR", "Population": 11660.0, "Lat": 46.1853, "Lon": 6.20693}], "Gaillefontaine": [{"Name": "Gaillefontaine", "Country Code": "FR", "Population": 1496.0, "Lat": 49.65371, "Lon": 1.61547}], "Gaillon": [{"Name": "Gaillon", "Country Code": "FR", "Population": 6818.0, "Lat": 49.16104, "Lon": 1.34016}], "Gaiman": [{"Name": "Gaiman", "Country Code": "AR", "Population": 5753.0, "Lat": -43.2909, "Lon": -65.4977}], "Gaimersheim": [{"Name": "Gaimersheim", "Country Code": "DE", "Population": 10840.0, "Lat": 48.80705, "Lon": 11.36801}], "Gainesboro": [{"Name": "Gainesboro", "Country Code": "US", "Population": 955.0, "Lat": 36.35561, "Lon": -85.65887}], "Gainesti": [{"Name": "G\u0103ine\u0219ti", "Country Code": "RO", "Population": 2000.0, "Lat": 47.41968, "Lon": 25.91809}], "Gainesville": [{"Name": "Gainesville", "Country Code": "US", "Population": 16292.0, "Lat": 33.62594, "Lon": -97.13335}, {"Name": "Gainesville", "Country Code": "US", "Population": 38712.0, "Lat": 34.29788, "Lon": -83.82407}, {"Name": "Gainesville", "Country Code": "US", "Population": 760.0, "Lat": 36.60312, "Lon": -92.42822}, {"Name": "Gainesville", "Country Code": "US", "Population": 11481.0, "Lat": 38.79567, "Lon": -77.61388}, {"Name": "Gainesville", "Country Code": "US", "Population": 141085.0, "Lat": 29.65163, "Lon": -82.32483}], "Gainfarn": [{"Name": "Gainfarn", "Country Code": "AT", "Population": 3926.0, "Lat": 47.9628, "Lon": 16.19368}], "Gainford": [{"Name": "Gainford", "Country Code": "GB", "Population": 1133.0, "Lat": 54.54718, "Lon": -1.73601}], "Gainneville": [{"Name": "Gainneville", "Country Code": "FR", "Population": 2418.0, "Lat": 49.51845, "Lon": 0.26164}], "Gainsborough": [{"Name": "Gainsborough", "Country Code": "GB", "Population": 20842.0, "Lat": 53.38333, "Lon": -0.76667}], "Gainza": [{"Name": "Gaintza", "Country Code": "ES", "Population": 0.0, "Lat": 43.05271, "Lon": -2.1329}, {"Name": "Gainza", "Country Code": "PH", "Population": 2173.0, "Lat": 13.6165, "Lon": 123.1419}], "Gaiola": [{"Name": "Gaiola", "Country Code": "IT", "Population": 490.0, "Lat": 44.33554, "Lon": 7.40896}], "Gaiole in Chianti": [{"Name": "Gaiole in Chianti", "Country Code": "IT", "Population": 1122.0, "Lat": 43.46697, "Lon": 11.43386}], "Gaios": [{"Name": "G\u00e1\u00efos", "Country Code": "GR", "Population": 487.0, "Lat": 39.19722, "Lon": 20.18556}], "Gairo Sant'Elena": [{"Name": "Gairo Sant'Elena", "Country Code": "IT", "Population": 1321.0, "Lat": 39.84972, "Lon": 9.50472}], "Gais": [{"Name": "Gais", "Country Code": "CH", "Population": 2778.0, "Lat": 47.3615, "Lon": 9.45356}, {"Name": "Gais", "Country Code": "IT", "Population": 1764.0, "Lat": 46.83658, "Lon": 11.94931}], "Gaiseni": [{"Name": "G\u0103iseni", "Country Code": "RO", "Population": 5455.0, "Lat": 44.515, "Lon": 25.64528}], "Gaissach": [{"Name": "Gai\u00dfach", "Country Code": "DE", "Population": 3028.0, "Lat": 47.75, "Lon": 11.58333}], "Gaissau": [{"Name": "Gai\u00dfau", "Country Code": "AT", "Population": 1827.0, "Lat": 47.46667, "Lon": 9.6}], "Gaitania": [{"Name": "Gaitania", "Country Code": "CO", "Population": 11000.0, "Lat": 3.15, "Lon": -75.81667}], "Gaitanion": [{"Name": "Ga\u00eft\u00e1nion", "Country Code": "GR", "Population": 1899.0, "Lat": 37.79134, "Lon": 20.87407}], "Gaithersburg": [{"Name": "Gaithersburg", "Country Code": "US", "Population": 67456.0, "Lat": 39.14344, "Lon": -77.20137}], "Gaizhou": [{"Name": "Gaizhou", "Country Code": "CN", "Population": 0.0, "Lat": 40.39417, "Lon": 122.36861}], "Gajanejos": [{"Name": "Gajanejos", "Country Code": "ES", "Population": 64.0, "Lat": 40.84147, "Lon": -2.89229}], "Gajates": [{"Name": "Gajates", "Country Code": "ES", "Population": 187.0, "Lat": 40.78254, "Lon": -5.36506}], "Gajendragarh": [{"Name": "Gajendragarh", "Country Code": "IN", "Population": 29749.0, "Lat": 15.73628, "Lon": 75.96976}], "Gajiram": [{"Name": "Gajiram", "Country Code": "NG", "Population": 0.0, "Lat": 12.49149, "Lon": 13.21191}], "Gajraula": [{"Name": "Gajraula", "Country Code": "IN", "Population": 50380.0, "Lat": 28.8457, "Lon": 78.2396}], "Gajrug": [{"Name": "Gajrug", "Country Code": "ID", "Population": 0.0, "Lat": -6.5271, "Lon": 106.3798}], "Gajuwaka": [{"Name": "Gajuwaka", "Country Code": "IN", "Population": 258944.0, "Lat": 17.7, "Lon": 83.21667}], "Gakem": [{"Name": "Gakem", "Country Code": "NG", "Population": 5865.0, "Lat": 6.76963, "Lon": 8.9912}], "Gakovo": [{"Name": "Gakovo", "Country Code": "RS", "Population": 2122.0, "Lat": 45.90078, "Lon": 19.06138}], "Gal'bshtadt": [{"Name": "Gal\u2019bshtadt", "Country Code": "RU", "Population": 1778.0, "Lat": 53.2264, "Lon": 78.9845}], "Galaat el Andeless": [{"Name": "Galaat el Andeless", "Country Code": "TN", "Population": 15313.0, "Lat": 37.0629, "Lon": 10.11829}], "Galafi": [{"Name": "G\u00e2l\u00e2fi", "Country Code": "DJ", "Population": 1849.0, "Lat": 11.71583, "Lon": 41.83611}], "Galan": [{"Name": "Gal\u00e1n", "Country Code": "CO", "Population": 1122.0, "Lat": 6.63781, "Lon": -73.28878}], "Galanesti": [{"Name": "G\u0103l\u0103ne\u015fti", "Country Code": "RO", "Population": 6211.0, "Lat": 47.91667, "Lon": 25.8}], "Galanta": [{"Name": "Galanta", "Country Code": "SK", "Population": 15013.0, "Lat": 48.19001, "Lon": 17.72747}], "Galaosiyo Shahri": [{"Name": "Galaosiyo Shahri", "Country Code": "UZ", "Population": 15620.0, "Lat": 39.85721, "Lon": 64.44641}], "Galapa": [{"Name": "Galapa", "Country Code": "CO", "Population": 19732.0, "Lat": 10.89686, "Lon": -74.886}], "Galapagar": [{"Name": "Galapagar", "Country Code": "ES", "Population": 31820.0, "Lat": 40.5783, "Lon": -4.00426}], "Galapagos": [{"Name": "Gal\u00e1pagos", "Country Code": "ES", "Population": 833.0, "Lat": 40.69347, "Lon": -3.33537}], "Galappo": [{"Name": "Galappo", "Country Code": "TZ", "Population": 18528.0, "Lat": -4.26667, "Lon": 35.85}], "Galar": [{"Name": "Galar", "Country Code": "ES", "Population": 1368.0, "Lat": 42.76147, "Lon": -1.69881}], "Galaroza": [{"Name": "Galaroza", "Country Code": "ES", "Population": 0.0, "Lat": 37.92864, "Lon": -6.7073}], "Galasesti": [{"Name": "G\u0103l\u0103\u0219e\u0219ti", "Country Code": "RO", "Population": 1028.0, "Lat": 44.95593, "Lon": 24.78602}], "Galashiels": [{"Name": "Galashiels", "Country Code": "GB", "Population": 12660.0, "Lat": 55.61458, "Lon": -2.80695}], "Galashki": [{"Name": "Galashki", "Country Code": "RU", "Population": 6928.0, "Lat": 43.1174, "Lon": 44.99055}], "Galatades": [{"Name": "Galat\u00e1des", "Country Code": "GR", "Population": 2459.0, "Lat": 40.7559, "Lon": 22.28062}], "Galatas": [{"Name": "Galat\u00e1s", "Country Code": "GR", "Population": 3166.0, "Lat": 35.49864, "Lon": 23.96341}, {"Name": "Galat\u00e1s", "Country Code": "GR", "Population": 1057.0, "Lat": 38.35742, "Lon": 21.56222}, {"Name": "Galat\u00e1s", "Country Code": "GR", "Population": 2195.0, "Lat": 37.49618, "Lon": 23.44886}], "Galateni": [{"Name": "G\u0103l\u0103\u0163eni", "Country Code": "RO", "Population": 3175.0, "Lat": 44.21667, "Lon": 25.35}], "Galateo": [{"Name": "Galateo", "Country Code": "PR", "Population": 2705.0, "Lat": 18.36245, "Lon": -66.25878}], "Galati": [{"Name": "Gala\u0163i", "Country Code": "RO", "Population": 294087.0, "Lat": 45.43687, "Lon": 28.05028}], "Galati Mamertino": [{"Name": "Galati Mamertino", "Country Code": "IT", "Population": 2058.0, "Lat": 38.03176, "Lon": 14.77145}], "Galatii Bistritei": [{"Name": "Gala\u0163ii Bistri\u0163ei", "Country Code": "RO", "Population": 2458.0, "Lat": 46.98333, "Lon": 24.4}], "Galatina": [{"Name": "Galatina", "Country Code": "IT", "Population": 19569.0, "Lat": 40.17416, "Lon": 18.17032}], "Galatini": [{"Name": "Galatin\u00ed", "Country Code": "GR", "Population": 2085.0, "Lat": 40.31966, "Lon": 21.55148}], "Galatista": [{"Name": "Gal\u00e1tista", "Country Code": "GR", "Population": 2537.0, "Lat": 40.4682, "Lon": 23.28015}], "Galatone": [{"Name": "Galatone", "Country Code": "IT", "Population": 14153.0, "Lat": 40.14673, "Lon": 18.06937}], "Galatro": [{"Name": "Galatro", "Country Code": "IT", "Population": 1769.0, "Lat": 38.46067, "Lon": 16.1084}], "Galatsi": [{"Name": "Gal\u00e1tsi", "Country Code": "GR", "Population": 59345.0, "Lat": 38.01667, "Lon": 23.75}], "Galautas": [{"Name": "G\u0103l\u0103u\u0163a\u015f", "Country Code": "RO", "Population": 2618.0, "Lat": 46.91238, "Lon": 25.40079}], "Galax": [{"Name": "Galax", "Country Code": "US", "Population": 6914.0, "Lat": 36.66124, "Lon": -80.92397}], "Galaxia": [{"Name": "Galaxia", "Country Code": "HK", "Population": 5964.0, "Lat": 22.34121, "Lon": 114.20218}], "Galaxia Bonito Jalisco": [{"Name": "Galaxia Bonito Jalisco", "Country Code": "MX", "Population": 9082.0, "Lat": 20.505, "Lon": -103.20472}], "Galaxia la Calera": [{"Name": "Galaxia la Calera", "Country Code": "MX", "Population": 2850.0, "Lat": 18.999, "Lon": -98.1525}], "Galaxia la Noria": [{"Name": "Galaxia la Noria", "Country Code": "MX", "Population": 5681.0, "Lat": 20.45722, "Lon": -103.41889}], "Galaxias Toluca": [{"Name": "Galaxias Toluca", "Country Code": "MX", "Population": 1669.0, "Lat": 19.39806, "Lon": -99.65}], "Galaxidhion": [{"Name": "Galax\u00eddhion", "Country Code": "GR", "Population": 3030.0, "Lat": 38.38067, "Lon": 22.38001}], "Galaz": [{"Name": "Galaz", "Country Code": "MA", "Population": 0.0, "Lat": 34.54424, "Lon": -4.80355}], "Galbarros": [{"Name": "Galbarros", "Country Code": "ES", "Population": 30.0, "Lat": 42.52729, "Lon": -3.43827}], "Galbarruli": [{"Name": "Galb\u00e1rruli", "Country Code": "ES", "Population": 69.0, "Lat": 42.62181, "Lon": -2.96087}], "Galbeni": [{"Name": "Galbeni", "Country Code": "RO", "Population": 1309.0, "Lat": 46.45661, "Lon": 26.94664}], "Galbenu": [{"Name": "Galbenu", "Country Code": "RO", "Population": 3572.0, "Lat": 45.21667, "Lon": 27.16667}], "Galbiate": [{"Name": "Galbiate", "Country Code": "IT", "Population": 4513.0, "Lat": 45.81635, "Lon": 9.37902}], "Galbinasi": [{"Name": "G\u0103lbina\u0219i", "Country Code": "RO", "Population": 3180.0, "Lat": 44.31724, "Lon": 26.41941}, {"Name": "G\u0103lbina\u015fi", "Country Code": "RO", "Population": 4013.0, "Lat": 45.08333, "Lon": 26.91667}], "Galda de Jos": [{"Name": "Galda de Jos", "Country Code": "RO", "Population": 4772.0, "Lat": 46.18333, "Lon": 23.61667}], "Galdakao": [{"Name": "Galdakao", "Country Code": "ES", "Population": 29226.0, "Lat": 43.23073, "Lon": -2.8429}], "Galdar": [{"Name": "G\u00e1ldar", "Country Code": "ES", "Population": 24405.0, "Lat": 28.14701, "Lon": -15.6502}], "Galdau": [{"Name": "G\u00e2ld\u0103u", "Country Code": "RO", "Population": 1665.0, "Lat": 44.30544, "Lon": 27.66972}], "Galeana": [{"Name": "Galeana", "Country Code": "MX", "Population": 0.0, "Lat": 30.11393, "Lon": -107.61636}, {"Name": "Galeana", "Country Code": "MX", "Population": 7024.0, "Lat": 24.82455, "Lon": -100.07601}, {"Name": "Galeana", "Country Code": "MX", "Population": 2962.0, "Lat": 20.03585, "Lon": -101.5715}, {"Name": "Galeana", "Country Code": "MX", "Population": 10726.0, "Lat": 18.6381, "Lon": -99.2124}], "Galeata": [{"Name": "Galeata", "Country Code": "IT", "Population": 2090.0, "Lat": 43.99607, "Lon": 11.91057}], "Galebo": [{"Name": "Gal\u00e9bo", "Country Code": "CI", "Population": 1195.0, "Lat": 7.03418, "Lon": -4.92321}], "Galebre": [{"Name": "Gal\u00e9br\u00e9", "Country Code": "CI", "Population": 21245.0, "Lat": 6.0059, "Lon": -6.29403}], "Galecio Narcia": [{"Name": "Galecio Narcia", "Country Code": "MX", "Population": 1553.0, "Lat": 16.5882, "Lon": -93.02052}], "Galegos": [{"Name": "Galegos", "Country Code": "PT", "Population": 5404.0, "Lat": 41.56268, "Lon": -8.57204}], "Galekro": [{"Name": "Gal\u00e9kro", "Country Code": "CI", "Population": 2689.0, "Lat": 5.68529, "Lon": -3.43001}], "Galena": [{"Name": "Galena", "Country Code": "US", "Population": 2930.0, "Lat": 37.0759, "Lon": -94.63967}, {"Name": "Galena", "Country Code": "US", "Population": 1818.0, "Lat": 38.35173, "Lon": -85.94164}, {"Name": "Galena", "Country Code": "US", "Population": 409.0, "Lat": 36.80534, "Lon": -93.46658}, {"Name": "Galena", "Country Code": "US", "Population": 3299.0, "Lat": 42.41667, "Lon": -90.42902}], "Galena Park": [{"Name": "Galena Park", "Country Code": "US", "Population": 11162.0, "Lat": 29.73356, "Lon": -95.23021}], "Galende": [{"Name": "Galende", "Country Code": "ES", "Population": 1336.0, "Lat": 42.1044, "Lon": -6.66252}], "Galera": [{"Name": "Galera", "Country Code": "ES", "Population": 1112.0, "Lat": 37.74262, "Lon": -2.55175}], "Galerade Panales": [{"Name": "Galerade Panales", "Country Code": "MX", "Population": 1362.0, "Lat": 20.29452, "Lon": -100.81452}], "Galeras": [{"Name": "Galeras", "Country Code": "MX", "Population": 2358.0, "Lat": 20.61759, "Lon": -100.15731}], "Gales Ferry": [{"Name": "Gales Ferry", "Country Code": "US", "Population": 1162.0, "Lat": 41.42982, "Lon": -72.08202}], "Galesburg": [{"Name": "Galesburg", "Country Code": "US", "Population": 31273.0, "Lat": 40.94782, "Lon": -90.37124}, {"Name": "Galesburg", "Country Code": "US", "Population": 2043.0, "Lat": 42.28865, "Lon": -85.41806}], "Galesong": [{"Name": "Galesong", "Country Code": "ID", "Population": 83050.0, "Lat": -5.3166, "Lon": 119.3661}], "Galesti": [{"Name": "G\u0103le\u015fti", "Country Code": "RO", "Population": 2894.0, "Lat": 46.51667, "Lon": 24.75}], "Galesville": [{"Name": "Galesville", "Country Code": "US", "Population": 1551.0, "Lat": 44.08163, "Lon": -91.34904}], "Galeton": [{"Name": "Galeton", "Country Code": "US", "Population": 1124.0, "Lat": 41.73312, "Lon": -77.64193}], "Galeville": [{"Name": "Galeville", "Country Code": "US", "Population": 4617.0, "Lat": 43.09007, "Lon": -76.17298}], "Galewice": [{"Name": "Galewice", "Country Code": "PL", "Population": 1200.0, "Lat": 51.34471, "Lon": 18.25756}], "Galgagnano": [{"Name": "Galgagnano", "Country Code": "IT", "Population": 1079.0, "Lat": 45.35797, "Lon": 9.44535}], "Galgaheviz": [{"Name": "Galgah\u00e9v\u00edz", "Country Code": "HU", "Population": 2641.0, "Lat": 47.61667, "Lon": 19.56667}], "Galgamacsa": [{"Name": "Galgam\u00e1csa", "Country Code": "HU", "Population": 2061.0, "Lat": 47.69562, "Lon": 19.38724}], "Galgate": [{"Name": "Galgate", "Country Code": "GB", "Population": 2458.0, "Lat": 53.99362, "Lon": -2.79201}], "Galgau": [{"Name": "G\u00e2lg\u0103u", "Country Code": "RO", "Population": 838.0, "Lat": 47.28183, "Lon": 23.70157}], "Galgau Almasului": [{"Name": "G\u00e2lg\u0103u Alma\u015fului", "Country Code": "RO", "Population": 2718.0, "Lat": 47.2, "Lon": 23.33333}], "Galgologo": [{"Name": "Galgologo", "Country Code": "CI", "Population": 1279.0, "Lat": 10.34198, "Lon": -5.67897}], "Galgon": [{"Name": "Galgon", "Country Code": "FR", "Population": 2665.0, "Lat": 44.99138, "Lon": -0.27234}], "Gali": [{"Name": "Gali", "Country Code": "GE", "Population": 11861.0, "Lat": 42.62655, "Lon": 41.73808}], "Galiakot": [{"Name": "Gali\u0101kot", "Country Code": "IN", "Population": 6906.0, "Lat": 23.51995, "Lon": 74.02028}], "Galicea": [{"Name": "Galicea", "Country Code": "RO", "Population": 4054.0, "Lat": 44.91667, "Lon": 24.28333}], "Galicea Mare": [{"Name": "Galicea Mare", "Country Code": "RO", "Population": 4812.0, "Lat": 44.1, "Lon": 23.3}], "Galich": [{"Name": "Galich", "Country Code": "RU", "Population": 18594.0, "Lat": 58.37884, "Lon": 42.34633}], "Galiciuica": [{"Name": "Galiciuica", "Country Code": "RO", "Population": 0.0, "Lat": 44.10324, "Lon": 23.39067}], "Galikesh": [{"Name": "G\u0101l\u012bkesh", "Country Code": "IR", "Population": 0.0, "Lat": 37.27259, "Lon": 55.43394}], "Galilea": [{"Name": "Galilea", "Country Code": "ES", "Population": 307.0, "Lat": 42.34703, "Lon": -2.23605}], "Galimuyod": [{"Name": "Galimuyod", "Country Code": "PH", "Population": 0.0, "Lat": 17.18444, "Lon": 120.47194}], "Galindo": [{"Name": "Galindo", "Country Code": "MX", "Population": 3079.0, "Lat": 20.39725, "Lon": -100.0984}], "Galindo y Perahuy": [{"Name": "Galindo y Perahuy", "Country Code": "ES", "Population": 537.0, "Lat": 40.94397, "Lon": -5.8741}], "Galinduste": [{"Name": "Galinduste", "Country Code": "ES", "Population": 531.0, "Lat": 40.66266, "Lon": -5.54003}], "Galion": [{"Name": "Galion", "Country Code": "US", "Population": 10127.0, "Lat": 40.73367, "Lon": -82.7899}], "Galis": [{"Name": "Galis", "Country Code": "ID", "Population": 0.0, "Lat": -7.15624, "Lon": 113.55373}], "Galisancho": [{"Name": "Galisancho", "Country Code": "ES", "Population": 459.0, "Lat": 40.74418, "Lon": -5.55471}], "Galisteo": [{"Name": "Galisteo", "Country Code": "ES", "Population": 2030.0, "Lat": 39.97642, "Lon": -6.26782}], "Galitsy": [{"Name": "Galitsy", "Country Code": "RU", "Population": 1060.0, "Lat": 56.17759, "Lon": 42.84588}], "Galiwinku": [{"Name": "Galiwinku", "Country Code": "AU", "Population": 2182.0, "Lat": -12.02811, "Lon": 135.56486}], "Galizana": [{"Name": "Gali\u017eana", "Country Code": "HR", "Population": 1620.0, "Lat": 44.93167, "Lon": 13.86861}], "Galkow Maly": [{"Name": "Ga\u0142k\u00f3w Ma\u0142y", "Country Code": "PL", "Population": 1455.0, "Lat": 51.72554, "Lon": 19.71359}], "Gallarate": [{"Name": "Gallarate", "Country Code": "IT", "Population": 50439.0, "Lat": 45.66019, "Lon": 8.79164}], "Gallardon": [{"Name": "Gallardon", "Country Code": "FR", "Population": 3625.0, "Lat": 48.52622, "Lon": 1.69307}], "Gallargues-le-Montueux": [{"Name": "Gallargues-le-Montueux", "Country Code": "FR", "Population": 2527.0, "Lat": 43.71667, "Lon": 4.16667}], "Gallatin": [{"Name": "Gallatin", "Country Code": "US", "Population": 34334.0, "Lat": 36.38838, "Lon": -86.44666}, {"Name": "Gallatin", "Country Code": "US", "Population": 1744.0, "Lat": 39.91445, "Lon": -93.96217}], "Galle": [{"Name": "Galle", "Country Code": "LK", "Population": 93118.0, "Lat": 6.0461, "Lon": 80.2103}], "Gallegos": [{"Name": "Gallegos", "Country Code": "ES", "Population": 100.0, "Lat": 41.07508, "Lon": -3.78591}], "Gallegos de Arganan": [{"Name": "Gallegos de Arga\u00f1\u00e1n", "Country Code": "ES", "Population": 359.0, "Lat": 40.63146, "Lon": -6.70246}], "Gallegos de Hornija": [{"Name": "Gallegos de Hornija", "Country Code": "ES", "Population": 153.0, "Lat": 41.6098, "Lon": -5.09768}], "Gallegos de Sobrinos": [{"Name": "Gallegos de Sobrinos", "Country Code": "ES", "Population": 91.0, "Lat": 40.71693, "Lon": -5.11224}], "Gallegos del Pan": [{"Name": "Gallegos del Pan", "Country Code": "ES", "Population": 161.0, "Lat": 41.59985, "Lon": -5.58117}], "Gallegos del Rio": [{"Name": "Gallegos del R\u00edo", "Country Code": "ES", "Population": 722.0, "Lat": 41.73497, "Lon": -6.17435}], "Galleh Manda": [{"Name": "Galleh Manda", "Country Code": "GM", "Population": 1872.0, "Lat": 13.43333, "Lon": -14.78333}], "Gallese": [{"Name": "Gallese", "Country Code": "IT", "Population": 1542.0, "Lat": 42.37376, "Lon": 12.39646}], "Galliano": [{"Name": "Galliano", "Country Code": "IT", "Population": 1041.0, "Lat": 44.01725, "Lon": 11.29353}, {"Name": "Galliano", "Country Code": "US", "Population": 7676.0, "Lat": 29.44216, "Lon": -90.29925}], "Galliate": [{"Name": "Galliate", "Country Code": "IT", "Population": 15699.0, "Lat": 45.47942, "Lon": 8.69815}], "Galliate Lombardo": [{"Name": "Galliate Lombardo", "Country Code": "IT", "Population": 946.0, "Lat": 45.78487, "Lon": 8.77043}], "Galliavola": [{"Name": "Galliavola", "Country Code": "IT", "Population": 207.0, "Lat": 45.09756, "Lon": 8.81885}], "Gallicano": [{"Name": "Gallicano", "Country Code": "IT", "Population": 2556.0, "Lat": 44.05833, "Lon": 10.44209}], "Gallicano nel Lazio": [{"Name": "Gallicano nel Lazio", "Country Code": "IT", "Population": 3776.0, "Lat": 41.86433, "Lon": 12.83543}], "Gallicchio": [{"Name": "Gallicchio", "Country Code": "IT", "Population": 829.0, "Lat": 40.29232, "Lon": 16.13561}], "Galliera Veneta": [{"Name": "Galliera Veneta", "Country Code": "IT", "Population": 6729.0, "Lat": 45.6675, "Lon": 11.82217}], "Gallifa": [{"Name": "Gallifa", "Country Code": "ES", "Population": 218.0, "Lat": 41.69243, "Lon": 2.11346}], "Gallinaro": [{"Name": "Gallinaro", "Country Code": "IT", "Population": 231.0, "Lat": 41.65502, "Lon": 13.79799}], "Gallinero de Cameros": [{"Name": "Gallinero de Cameros", "Country Code": "ES", "Population": 23.0, "Lat": 42.17229, "Lon": -2.61793}], "Gallio": [{"Name": "Gallio", "Country Code": "IT", "Population": 1460.0, "Lat": 45.88506, "Lon": 11.53417}], "Gallipienzo": [{"Name": "Gallipienzo", "Country Code": "ES", "Population": 155.0, "Lat": 42.5245, "Lon": -1.41115}], "Gallipoli": [{"Name": "Gallipoli", "Country Code": "IT", "Population": 19176.0, "Lat": 40.05594, "Lon": 17.99088}], "Gallipolis": [{"Name": "Gallipolis", "Country Code": "US", "Population": 3469.0, "Lat": 38.8098, "Lon": -82.20237}], "Gallitzin": [{"Name": "Gallitzin", "Country Code": "US", "Population": 1605.0, "Lat": 40.48229, "Lon": -78.55168}], "Gallizien": [{"Name": "Gallizien", "Country Code": "AT", "Population": 283.0, "Lat": 46.55, "Lon": 14.51667}], "Gallmannsegg": [{"Name": "Gallmannsegg", "Country Code": "AT", "Population": 200.0, "Lat": 47.18333, "Lon": 15.06667}], "Gallneukirchen": [{"Name": "Gallneukirchen", "Country Code": "AT", "Population": 6492.0, "Lat": 48.35363, "Lon": 14.41604}], "Gallo": [{"Name": "Gallo", "Country Code": "IT", "Population": 314.0, "Lat": 41.46499, "Lon": 14.22519}, {"Name": "Gallo", "Country Code": "IT", "Population": 2056.0, "Lat": 43.78636, "Lon": 12.71334}, {"Name": "Gallo", "Country Code": "IT", "Population": 1680.0, "Lat": 44.73144, "Lon": 11.55284}], "Gallo Matese": [{"Name": "Gallo Matese", "Country Code": "IT", "Population": 761.0, "Lat": 41.46452, "Lon": 14.22502}], "Gallo-Tre Re-Mezzana Corti": [{"Name": "Gallo-Tre Re-Mezzana Corti", "Country Code": "IT", "Population": 2563.0, "Lat": 45.12563, "Lon": 9.12227}], "Gallocanta": [{"Name": "Gallocanta", "Country Code": "ES", "Population": 148.0, "Lat": 40.99624, "Lon": -1.50774}], "Gallodoro": [{"Name": "Gallodoro", "Country Code": "IT", "Population": 378.0, "Lat": 37.90206, "Lon": 15.29359}], "Gallspach": [{"Name": "Gallspach", "Country Code": "AT", "Population": 1885.0, "Lat": 48.20992, "Lon": 13.80981}], "Galluccio": [{"Name": "Galluccio", "Country Code": "IT", "Population": 52.0, "Lat": 41.35232, "Lon": 13.95372}], "Galluis": [{"Name": "Galluis", "Country Code": "FR", "Population": 1099.0, "Lat": 48.79657, "Lon": 1.79414}], "Gallup": [{"Name": "Gallup", "Country Code": "US", "Population": 23240.0, "Lat": 35.52808, "Lon": -108.74258}], "Gallur": [{"Name": "Gallur", "Country Code": "ES", "Population": 2925.0, "Lat": 41.8683, "Lon": -1.31577}], "Gallus": [{"Name": "Gallus", "Country Code": "DE", "Population": 42012.0, "Lat": 50.10038, "Lon": 8.6295}], "Gallzein": [{"Name": "Gallzein", "Country Code": "AT", "Population": 668.0, "Lat": 47.36807, "Lon": 11.77159}], "Galmaarden": [{"Name": "Galmaarden", "Country Code": "BE", "Population": 7939.0, "Lat": 50.75389, "Lon": 3.97121}], "Galospetreu": [{"Name": "Galo\u0219petreu", "Country Code": "RO", "Population": 1025.0, "Lat": 47.48345, "Lon": 22.2173}], "Galovac": [{"Name": "Galovac", "Country Code": "HR", "Population": 1258.0, "Lat": 44.07139, "Lon": 15.39333}], "Galoya Toucouleur": [{"Name": "Galoya Toucouleur", "Country Code": "SN", "Population": 5288.0, "Lat": 16.07397, "Lon": -13.85894}], "Galsa": [{"Name": "Gal\u0219a", "Country Code": "RO", "Population": 1993.0, "Lat": 46.2881, "Lon": 21.65137}], "Galston": [{"Name": "Galston", "Country Code": "AU", "Population": 3128.0, "Lat": -33.65297, "Lon": 151.04713}, {"Name": "Galston", "Country Code": "GB", "Population": 4690.0, "Lat": 55.60093, "Lon": -4.38172}], "Galt": [{"Name": "Galt", "Country Code": "US", "Population": 25303.0, "Lat": 38.25464, "Lon": -121.29995}], "Galta": [{"Name": "Galta", "Country Code": "IT", "Population": 2295.0, "Lat": 45.39095, "Lon": 12.0234}], "Galtelli": [{"Name": "Galtell\u00ec", "Country Code": "IT", "Population": 2266.0, "Lat": 40.38451, "Lon": 9.61241}], "Galten": [{"Name": "Galten", "Country Code": "DK", "Population": 4895.0, "Lat": 56.15902, "Lon": 9.91691}], "Galtuer": [{"Name": "Galt\u00fcr", "Country Code": "AT", "Population": 765.0, "Lat": 46.96667, "Lon": 10.18333}], "Galugah": [{"Name": "Gal\u016bg\u0101h", "Country Code": "IR", "Population": 0.0, "Lat": 36.72734, "Lon": 53.80888}], "Galugnano": [{"Name": "Galugnano", "Country Code": "IT", "Population": 1060.0, "Lat": 40.25601, "Lon": 18.21473}], "Galunggalung": [{"Name": "Galunggalung", "Country Code": "ID", "Population": 0.0, "Lat": -3.489, "Lon": 118.896}], "Galutu": [{"Name": "Galutu", "Country Code": "CN", "Population": 0.0, "Lat": 38.60086, "Lon": 108.84742}], "Galva": [{"Name": "Galva", "Country Code": "US", "Population": 2517.0, "Lat": 41.16754, "Lon": -90.04261}], "Galvan": [{"Name": "Galv\u00e1n", "Country Code": "DO", "Population": 6027.0, "Lat": 18.50228, "Lon": -71.34271}], "Galve": [{"Name": "Galve", "Country Code": "ES", "Population": 137.0, "Lat": 40.65591, "Lon": -0.88217}], "Galve de Sorbe": [{"Name": "Galve de Sorbe", "Country Code": "ES", "Population": 133.0, "Lat": 41.21667, "Lon": -3.18333}], "Galveston": [{"Name": "Galveston", "Country Code": "US", "Population": 1271.0, "Lat": 40.57893, "Lon": -86.19027}, {"Name": "Galveston", "Country Code": "US", "Population": 50180.0, "Lat": 29.30135, "Lon": -94.7977}], "Galvez": [{"Name": "G\u00e1lvez", "Country Code": "AR", "Population": 18374.0, "Lat": -32.02927, "Lon": -61.22103}, {"Name": "G\u00e1lvez", "Country Code": "ES", "Population": 3363.0, "Lat": 39.70208, "Lon": -4.27239}], "Galway": [{"Name": "Galway", "Country Code": "IE", "Population": 83456.0, "Lat": 53.27245, "Lon": -9.05095}], "Galyugayevskaya": [{"Name": "Galyugayevskaya", "Country Code": "RU", "Population": 3313.0, "Lat": 43.69694, "Lon": 44.93444}], "Galzignano": [{"Name": "Galzignano", "Country Code": "IT", "Population": 2782.0, "Lat": 45.30798, "Lon": 11.73134}], "Gama": [{"Name": "Gama", "Country Code": "AO", "Population": 66202.0, "Lat": -8.5675, "Lon": 13.47639}, {"Name": "Gama", "Country Code": "CI", "Population": 3139.0, "Lat": 7.61933, "Lon": -7.70057}, {"Name": "Gama", "Country Code": "CI", "Population": 3107.0, "Lat": 9.05864, "Lon": -6.22306}, {"Name": "Gama", "Country Code": "CO", "Population": 584.0, "Lat": 4.76288, "Lon": -73.61091}], "Gamaches": [{"Name": "Gamaches", "Country Code": "FR", "Population": 3137.0, "Lat": 49.98615, "Lon": 1.55624}], "Gamagori": [{"Name": "Gamag\u014dri", "Country Code": "JP", "Population": 80063.0, "Lat": 34.83333, "Lon": 137.23333}], "Gamalero": [{"Name": "Gamalero", "Country Code": "IT", "Population": 432.0, "Lat": 44.8085, "Lon": 8.54116}], "Gamarra": [{"Name": "Gamarra", "Country Code": "CO", "Population": 12444.0, "Lat": 8.32279, "Lon": -73.74268}], "Gamawa": [{"Name": "Gamawa", "Country Code": "NG", "Population": 13549.0, "Lat": 12.13379, "Lon": 10.53785}], "Gamay": [{"Name": "Gamay", "Country Code": "PH", "Population": 9125.0, "Lat": 12.38542, "Lon": 125.29791}], "Gamba": [{"Name": "Gamba", "Country Code": "GA", "Population": 12565.0, "Lat": -2.65, "Lon": 10.0}, {"Name": "Gamba", "Country Code": "TZ", "Population": 3644.0, "Lat": -5.9, "Lon": 39.3}], "Gambais": [{"Name": "Gambais", "Country Code": "FR", "Population": 2166.0, "Lat": 48.77351, "Lon": 1.67196}], "Gambalidio": [{"Name": "Gambalidio", "Country Code": "PH", "Population": 2253.0, "Lat": 13.6205, "Lon": 122.8913}], "Gambang": [{"Name": "Gambang", "Country Code": "PH", "Population": 3370.0, "Lat": 16.75, "Lon": 120.7833}], "Gambara": [{"Name": "Gambara", "Country Code": "IT", "Population": 4099.0, "Lat": 45.25366, "Lon": 10.29434}, {"Name": "Gambara", "Country Code": "MX", "Population": 3017.0, "Lat": 18.9323, "Lon": -102.1124}], "Gambarana": [{"Name": "Gambarana", "Country Code": "IT", "Population": 195.0, "Lat": 45.02874, "Lon": 8.76282}], "Gambarsari": [{"Name": "Gambarsari", "Country Code": "ID", "Population": 0.0, "Lat": -7.53139, "Lon": 109.20139}], "Gambasca": [{"Name": "Gambasca", "Country Code": "IT", "Population": 147.0, "Lat": 44.6295, "Lon": 7.34686}], "Gambassi Terme": [{"Name": "Gambassi Terme", "Country Code": "IT", "Population": 2061.0, "Lat": 43.53576, "Lon": 10.95161}], "Gambat": [{"Name": "Gambat", "Country Code": "PK", "Population": 34005.0, "Lat": 27.3517, "Lon": 68.5215}], "Gambatesa": [{"Name": "Gambatesa", "Country Code": "IT", "Population": 1241.0, "Lat": 41.50861, "Lon": 14.9124}], "Gambela": [{"Name": "Gamb\u0113la", "Country Code": "ET", "Population": 97600.0, "Lat": 8.25, "Lon": 34.58333}], "Gambellara": [{"Name": "Gambellara", "Country Code": "IT", "Population": 2639.0, "Lat": 45.45979, "Lon": 11.34009}], "Gamberale": [{"Name": "Gamberale", "Country Code": "IT", "Population": 112.0, "Lat": 41.90529, "Lon": 14.20845}], "Gambettola": [{"Name": "Gambettola", "Country Code": "IT", "Population": 10034.0, "Lat": 44.11748, "Lon": 12.33705}], "Gambier": [{"Name": "Gambier", "Country Code": "US", "Population": 2437.0, "Lat": 40.37562, "Lon": -82.3971}], "Gambino": [{"Name": "Gambino", "Country Code": "MX", "Population": 1151.0, "Lat": 25.65168, "Lon": -108.3868}], "Gambiran Satu": [{"Name": "Gambiran Satu", "Country Code": "ID", "Population": 22525.0, "Lat": -8.3939, "Lon": 114.1464}], "Gambissar": [{"Name": "Gambissar", "Country Code": "GM", "Population": 13371.0, "Lat": 13.31667, "Lon": -13.95}], "Gambita": [{"Name": "G\u00e1mbita", "Country Code": "CO", "Population": 742.0, "Lat": 5.94597, "Lon": -73.34435}], "Gambo": [{"Name": "Gambo", "Country Code": "CA", "Population": 1978.0, "Lat": 48.7832, "Lon": -54.21482}, {"Name": "Gambo", "Country Code": "CF", "Population": 4971.0, "Lat": 4.64816, "Lon": 22.26331}], "Gambolo": [{"Name": "Gambol\u00f2", "Country Code": "IT", "Population": 7939.0, "Lat": 45.26209, "Lon": 8.8582}], "Gamboma": [{"Name": "Gamboma", "Country Code": "CG", "Population": 26718.0, "Lat": -1.87639, "Lon": 15.86444}], "Gamboru": [{"Name": "Gamboru", "Country Code": "NG", "Population": 84672.0, "Lat": 12.37299, "Lon": 14.2069}], "Gamboula": [{"Name": "Gamboula", "Country Code": "CF", "Population": 13048.0, "Lat": 4.11775, "Lon": 15.13926}], "Gambrills": [{"Name": "Gambrills", "Country Code": "US", "Population": 2800.0, "Lat": 39.081, "Lon": -76.658}], "Gambsheim": [{"Name": "Gambsheim", "Country Code": "FR", "Population": 4071.0, "Lat": 48.69209, "Lon": 7.88286}], "Gambugliano": [{"Name": "Gambugliano", "Country Code": "IT", "Population": 287.0, "Lat": 45.58799, "Lon": 11.43859}], "Gambut": [{"Name": "Gambut", "Country Code": "ID", "Population": 0.0, "Lat": -3.3961, "Lon": 114.6752}], "Gameleira": [{"Name": "Gameleira", "Country Code": "BR", "Population": 19423.0, "Lat": -8.58444, "Lon": -35.38667}], "Gameren": [{"Name": "Gameren", "Country Code": "NL", "Population": 2200.0, "Lat": 51.80083, "Lon": 5.20417}], "Gameti": [{"Name": "Gam\u00e8ti", "Country Code": "CA", "Population": 0.0, "Lat": 64.11203, "Lon": -117.35304}], "Gamewell": [{"Name": "Gamewell", "Country Code": "US", "Population": 3957.0, "Lat": 35.8693, "Lon": -81.59621}], "Gameza": [{"Name": "G\u00e1meza", "Country Code": "CO", "Population": 1690.0, "Lat": 5.80263, "Lon": -72.80586}], "Gamina": [{"Name": "Gamina", "Country Code": "CI", "Population": 4973.0, "Lat": 6.96772, "Lon": -6.65495}], "Gaming": [{"Name": "Gaming", "Country Code": "AT", "Population": 2082.0, "Lat": 47.929, "Lon": 15.08818}], "Gamla Stan": [{"Name": "Gamla Stan", "Country Code": "SE", "Population": 3000.0, "Lat": 59.32627, "Lon": 18.07251}], "Gamla Uppsala": [{"Name": "Gamla Uppsala", "Country Code": "SE", "Population": 16231.0, "Lat": 59.89817, "Lon": 17.63386}], "Gamleby": [{"Name": "Gamleby", "Country Code": "SE", "Population": 2758.0, "Lat": 57.89485, "Lon": 16.40508}], "Gamlingay": [{"Name": "Gamlingay", "Country Code": "GB", "Population": 3247.0, "Lat": 52.15561, "Lon": -0.19303}], "Gamlitz": [{"Name": "Gamlitz", "Country Code": "AT", "Population": 1572.0, "Lat": 46.72028, "Lon": 15.55333}], "Gammad": [{"Name": "Gammad", "Country Code": "PH", "Population": 2639.0, "Lat": 17.7104, "Lon": 121.7437}], "Gammelsdorf": [{"Name": "Gammelsdorf", "Country Code": "DE", "Population": 1471.0, "Lat": 48.55, "Lon": 11.95}], "Gammelshausen": [{"Name": "Gammelshausen", "Country Code": "DE", "Population": 1426.0, "Lat": 48.64023, "Lon": 9.65072}], "Gammelstad": [{"Name": "Gammelstad", "Country Code": "SE", "Population": 4892.0, "Lat": 65.63931, "Lon": 22.01145}], "Gammertingen": [{"Name": "Gammertingen", "Country Code": "DE", "Population": 6790.0, "Lat": 48.2524, "Lon": 9.22349}], "Gamonal": [{"Name": "Gamonal", "Country Code": "ES", "Population": 60000.0, "Lat": 42.35664, "Lon": -3.67321}], "Gamones": [{"Name": "Gamones", "Country Code": "ES", "Population": 105.0, "Lat": 41.4669, "Lon": -6.17621}], "Gamovo": [{"Name": "Gamovo", "Country Code": "RU", "Population": 4362.0, "Lat": 57.8652, "Lon": 56.1056}], "Gampaha": [{"Name": "Gampaha", "Country Code": "LK", "Population": 9350.0, "Lat": 7.0897, "Lon": 79.9925}], "Gampang": [{"Name": "Gampang", "Country Code": "ID", "Population": 0.0, "Lat": -6.956, "Lon": 112.2986}], "Gampel": [{"Name": "Gampel", "Country Code": "CH", "Population": 1386.0, "Lat": 46.31599, "Lon": 7.7421}], "Gampengrejo": [{"Name": "Gampengrejo", "Country Code": "ID", "Population": 49118.0, "Lat": -7.76667, "Lon": 112.01667}], "Gampern": [{"Name": "Gampern", "Country Code": "AT", "Population": 718.0, "Lat": 47.98877, "Lon": 13.5543}], "Gamping Lor": [{"Name": "Gamping Lor", "Country Code": "ID", "Population": 66110.0, "Lat": -7.79556, "Lon": 110.32639}], "Gampo": [{"Name": "Gampo", "Country Code": "KR", "Population": 0.0, "Lat": 35.80538, "Lon": 129.5011}], "Gampola": [{"Name": "Gampola", "Country Code": "LK", "Population": 24283.0, "Lat": 7.1643, "Lon": 80.5696}], "Gamprin": [{"Name": "Gamprin", "Country Code": "LI", "Population": 1268.0, "Lat": 47.22038, "Lon": 9.50935}], "Gams": [{"Name": "Gams", "Country Code": "CH", "Population": 2971.0, "Lat": 47.20429, "Lon": 9.44172}], "Gams bei Hieflau": [{"Name": "Gams bei Hieflau", "Country Code": "AT", "Population": 517.0, "Lat": 47.66667, "Lon": 14.78333}], "Gamu": [{"Name": "Gamu", "Country Code": "PH", "Population": 5545.0, "Lat": 17.04975, "Lon": 121.83604}], "Gamut": [{"Name": "Gamut", "Country Code": "PH", "Population": 2246.0, "Lat": 9.00444, "Lon": 126.16972}, {"Name": "Gamut", "Country Code": "PH", "Population": 3479.0, "Lat": 8.53153, "Lon": 126.24117}], "Gan": [{"Name": "Gan", "Country Code": "CI", "Population": 6677.0, "Lat": 7.06596, "Lon": -7.89385}, {"Name": "Gan", "Country Code": "FR", "Population": 5373.0, "Lat": 43.22852, "Lon": -0.38713}], "Gan Ner": [{"Name": "Gan Ner", "Country Code": "IL", "Population": 2670.0, "Lat": 32.53106, "Lon": 35.3377}], "Gan Yavne": [{"Name": "Gan Yavne", "Country Code": "IL", "Population": 23869.0, "Lat": 31.78737, "Lon": 34.70659}], "Gan-Houye": [{"Name": "Gan-Houy\u00e9", "Country Code": "CI", "Population": 1607.0, "Lat": 6.74898, "Lon": -8.33725}], "Ganado": [{"Name": "Ganado", "Country Code": "US", "Population": 2095.0, "Lat": 29.04054, "Lon": -96.51358}, {"Name": "Ganado", "Country Code": "US", "Population": 1210.0, "Lat": 35.7114, "Lon": -109.54205}], "Gananoque": [{"Name": "Gananoque", "Country Code": "CA", "Population": 5458.0, "Lat": 44.33342, "Lon": -76.16607}], "Ganaoni": [{"Name": "Ganaoni", "Country Code": "CI", "Population": 3658.0, "Lat": 9.28498, "Lon": -6.32285}], "Ganapi": [{"Name": "Ganapi", "Country Code": "PH", "Population": 2815.0, "Lat": 17.20174, "Lon": 121.86524}], "Ganassi": [{"Name": "Ganassi", "Country Code": "PH", "Population": 2412.0, "Lat": 7.82694, "Lon": 124.10344}], "Gancani": [{"Name": "Gan\u010dani", "Country Code": "SI", "Population": 1027.0, "Lat": 46.6325, "Lon": 16.25111}], "Gancedo": [{"Name": "Gancedo", "Country Code": "AR", "Population": 3737.0, "Lat": -27.49038, "Lon": -61.67571}], "Ganda": [{"Name": "Ganda", "Country Code": "AO", "Population": 65000.0, "Lat": -13.01592, "Lon": 14.63502}, {"Name": "Ganda", "Country Code": "IT", "Population": 183.0, "Lat": 46.55459, "Lon": 10.78042}], "Gandai": [{"Name": "Gandai", "Country Code": "IN", "Population": 12475.0, "Lat": 21.66667, "Lon": 81.10013}], "Gandajika": [{"Name": "Gandajika", "Country Code": "CD", "Population": 208051.0, "Lat": -6.74504, "Lon": 23.95328}], "Gandara": [{"Name": "Gandara", "Country Code": "PH", "Population": 3982.0, "Lat": 12.013, "Lon": 124.8118}], "Gandarbal": [{"Name": "G\u0101ndarbal", "Country Code": "IN", "Population": 16271.0, "Lat": 34.22619, "Lon": 74.77478}], "Gandava": [{"Name": "Gandava", "Country Code": "PK", "Population": 0.0, "Lat": 28.61321, "Lon": 67.48564}], "Gandellino": [{"Name": "Gandellino", "Country Code": "IT", "Population": 464.0, "Lat": 45.99109, "Lon": 9.94615}], "Gander": [{"Name": "Gander", "Country Code": "CA", "Population": 11688.0, "Lat": 48.95624, "Lon": -54.61647}], "Ganderkesee": [{"Name": "Ganderkesee", "Country Code": "DE", "Population": 31141.0, "Lat": 53.03333, "Lon": 8.53333}], "Gandesa": [{"Name": "Gandesa", "Country Code": "ES", "Population": 2957.0, "Lat": 41.05375, "Lon": 0.4385}], "Gandevi": [{"Name": "Gandevi", "Country Code": "IN", "Population": 16240.0, "Lat": 20.81214, "Lon": 72.99811}], "Gandhi Nagar": [{"Name": "G\u0101ndh\u012b Nagar", "Country Code": "IN", "Population": 9773.0, "Lat": 13.00639, "Lon": 80.25417}], "Gandhidham": [{"Name": "G\u0101ndh\u012bdh\u0101m", "Country Code": "IN", "Population": 166388.0, "Lat": 23.08333, "Lon": 70.13333}], "Gandhinagar": [{"Name": "Gandhinagar", "Country Code": "IN", "Population": 195985.0, "Lat": 23.21667, "Lon": 72.68333}], "Gandho": [{"Name": "Gandh\u00f3", "Country Code": "MX", "Population": 2159.0, "Lat": 20.54525, "Lon": -99.68737}], "Gandi": [{"Name": "Gandi", "Country Code": "NG", "Population": 13940.0, "Lat": 12.96358, "Lon": 5.74337}], "Gandia": [{"Name": "Gandia", "Country Code": "ES", "Population": 80020.0, "Lat": 38.96667, "Lon": -0.18333}], "Gandiaye": [{"Name": "Gandiaye", "Country Code": "SN", "Population": 13819.0, "Lat": 14.23333, "Lon": -16.26667}], "Gandie": [{"Name": "Gandi\u00e9", "Country Code": "CI", "Population": 1092.0, "Lat": 7.61591, "Lon": -7.44206}], "Ganding": [{"Name": "Ganding", "Country Code": "ID", "Population": 0.0, "Lat": -7.0387, "Lon": 113.6887}], "Gandino": [{"Name": "Gandino", "Country Code": "IT", "Population": 5541.0, "Lat": 45.81088, "Lon": 9.89767}], "Gandorhun": [{"Name": "Gandorhun", "Country Code": "SL", "Population": 12288.0, "Lat": 7.49431, "Lon": -11.83064}, {"Name": "Gandorhun", "Country Code": "SL", "Population": 12288.0, "Lat": 7.55502, "Lon": -11.6926}], "Gandosso": [{"Name": "Gandosso", "Country Code": "IT", "Population": 496.0, "Lat": 45.65888, "Lon": 9.88886}], "Gandra": [{"Name": "Gandra", "Country Code": "PT", "Population": 1323.0, "Lat": 41.52185, "Lon": -8.76185}, {"Name": "Gandra", "Country Code": "PT", "Population": 6034.0, "Lat": 41.20116, "Lon": -8.43376}], "Gandrange": [{"Name": "Gandrange", "Country Code": "FR", "Population": 2502.0, "Lat": 49.27133, "Lon": 6.12536}], "Gandrungmangu": [{"Name": "Gandrungmangu", "Country Code": "ID", "Population": 0.0, "Lat": -7.52036, "Lon": 108.85351}], "Gandrup": [{"Name": "Gandrup", "Country Code": "DK", "Population": 1573.0, "Lat": 57.05744, "Lon": 10.18137}], "Gandu": [{"Name": "Gandu", "Country Code": "BR", "Population": 21565.0, "Lat": -13.74389, "Lon": -39.48667}], "Gandusari": [{"Name": "Gandusari", "Country Code": "ID", "Population": 0.0, "Lat": -8.1296, "Lon": 111.7044}, {"Name": "Gandusari", "Country Code": "ID", "Population": 0.0, "Lat": -8.0457, "Lon": 112.303}], "Gandy": [{"Name": "Gandy", "Country Code": "US", "Population": 2031.0, "Lat": 27.8685, "Lon": -82.61612}], "Gandzak": [{"Name": "Gandzak", "Country Code": "AM", "Population": 3841.0, "Lat": 40.31472, "Lon": 45.11139}], "Ganeasa": [{"Name": "G\u0103neasa", "Country Code": "RO", "Population": 4074.0, "Lat": 44.41667, "Lon": 24.28333}, {"Name": "G\u0103neasa", "Country Code": "RO", "Population": 4240.0, "Lat": 44.48333, "Lon": 26.28333}], "Ganei Modi'in": [{"Name": "Ganei Modi'in", "Country Code": "PS", "Population": 2488.0, "Lat": 31.92892, "Lon": 35.01656}], "Ganei Tikva": [{"Name": "Ganei Tikva", "Country Code": "IL", "Population": 20398.0, "Lat": 32.05971, "Lon": 34.8732}], "Ganesti": [{"Name": "G\u0103ne\u0219ti", "Country Code": "RO", "Population": 1061.0, "Lat": 46.0897, "Lon": 27.99337}, {"Name": "G\u0103ne\u015fti", "Country Code": "RO", "Population": 3775.0, "Lat": 46.33333, "Lon": 24.35}], "Ganfeng": [{"Name": "Ganfeng", "Country Code": "CN", "Population": 5174.0, "Lat": 29.41662, "Lon": 107.00672}], "Gang": [{"Name": "Gang", "Country Code": "PH", "Population": 3317.0, "Lat": 7.24583, "Lon": 124.26639}], "Gang Mills": [{"Name": "Gang Mills", "Country Code": "US", "Population": 4185.0, "Lat": 42.14619, "Lon": -77.11164}], "Gangadharpur": [{"Name": "Gangadharpur", "Country Code": "IN", "Population": 7862.0, "Lat": 22.76, "Lon": 88.22}], "Gangaikondan": [{"Name": "Gangaikond\u0101n", "Country Code": "IN", "Population": 10779.0, "Lat": 8.85785, "Lon": 77.78019}], "Gangakher": [{"Name": "Gang\u0101kher", "Country Code": "IN", "Population": 46366.0, "Lat": 18.96962, "Lon": 76.74946}], "Ganganagar": [{"Name": "Gang\u0101nagar", "Country Code": "IN", "Population": 231838.0, "Lat": 29.92009, "Lon": 73.87496}], "Gangapur": [{"Name": "Gang\u0101pur", "Country Code": "IN", "Population": 120115.0, "Lat": 26.47249, "Lon": 76.71744}, {"Name": "Gang\u0101pur", "Country Code": "IN", "Population": 24118.0, "Lat": 19.69718, "Lon": 75.01045}, {"Name": "Gang\u0101pur", "Country Code": "IN", "Population": 17661.0, "Lat": 25.21954, "Lon": 74.26028}], "Gangarampur": [{"Name": "Gang\u0101r\u0101mpur", "Country Code": "IN", "Population": 65316.0, "Lat": 25.40138, "Lon": 88.52978}], "Gangavalli": [{"Name": "Gangavalli", "Country Code": "IN", "Population": 10905.0, "Lat": 11.49828, "Lon": 78.64966}], "Gangawati": [{"Name": "Gang\u0101wati", "Country Code": "IN", "Population": 106250.0, "Lat": 15.4313, "Lon": 76.52933}], "Gangba": [{"Name": "Gangba", "Country Code": "CN", "Population": 0.0, "Lat": 28.2166, "Lon": 88.4743}], "Gangbapleu": [{"Name": "Gangbapleu", "Country Code": "CI", "Population": 6803.0, "Lat": 7.74878, "Lon": -7.89301}], "Gangdong": [{"Name": "Gangdong", "Country Code": "CN", "Population": 1380.0, "Lat": 27.91694, "Lon": 110.83417}, {"Name": "Gangdong", "Country Code": "KR", "Population": 0.0, "Lat": 37.72899, "Lon": 128.95419}], "Gangelt": [{"Name": "Gangelt", "Country Code": "DE", "Population": 11484.0, "Lat": 50.99247, "Lon": 5.99802}], "Ganges": [{"Name": "Ganges", "Country Code": "CA", "Population": 6000.0, "Lat": 48.85342, "Lon": -123.50032}, {"Name": "Ganges", "Country Code": "FR", "Population": 3997.0, "Lat": 43.93419, "Lon": 3.70797}], "Ganghester": [{"Name": "G\u00e5nghester", "Country Code": "SE", "Population": 2533.0, "Lat": 57.7, "Lon": 13.01667}], "Ganghwa-gun": [{"Name": "Ganghwa-gun", "Country Code": "KR", "Population": 25535.0, "Lat": 37.74722, "Lon": 126.48556}], "Gangi": [{"Name": "Gangi", "Country Code": "IT", "Population": 6430.0, "Lat": 37.79565, "Lon": 14.20437}], "Gangiova": [{"Name": "G\u00e2ngiova", "Country Code": "RO", "Population": 2966.0, "Lat": 43.9, "Lon": 23.85}], "Gangjia": [{"Name": "Gangjia", "Country Code": "CN", "Population": 19072.0, "Lat": 30.22055, "Lon": 107.50403}], "Gangjin": [{"Name": "Gangjin", "Country Code": "KR", "Population": 0.0, "Lat": 35.53034, "Lon": 127.16357}], "Gangkofen": [{"Name": "Gangkofen", "Country Code": "DE", "Population": 6638.0, "Lat": 48.43701, "Lon": 12.56419}], "Gangkou": [{"Name": "Gangkou", "Country Code": "CN", "Population": 0.0, "Lat": 21.65588, "Lon": 108.37429}], "Gangloffsoemmern": [{"Name": "Gangloffs\u00f6mmern", "Country Code": "DE", "Population": 1217.0, "Lat": 51.1894, "Lon": 10.94332}], "Gangnan": [{"Name": "Gangnan", "Country Code": "CN", "Population": 0.0, "Lat": 23.07676, "Lon": 109.59653}], "Gangneung": [{"Name": "Gangneung", "Country Code": "KR", "Population": 180611.0, "Lat": 37.75266, "Lon": 128.87239}], "Gangoh": [{"Name": "Gangoh", "Country Code": "IN", "Population": 59519.0, "Lat": 29.78004, "Lon": 77.26346}], "Gangolli": [{"Name": "Gangolli", "Country Code": "IN", "Population": 15200.0, "Lat": 13.65024, "Lon": 74.67072}], "Gangoro": [{"Name": "Gangoro", "Country Code": "CI", "Population": 1362.0, "Lat": 7.19134, "Lon": -5.29665}], "Gangshang": [{"Name": "Gangshang", "Country Code": "CN", "Population": 51114.0, "Lat": 34.52147, "Lon": 118.11835}], "Gangtok": [{"Name": "Gangtok", "Country Code": "IN", "Population": 30700.0, "Lat": 27.32574, "Lon": 88.61216}], "Gangtou": [{"Name": "Gangtou", "Country Code": "CN", "Population": 39999.0, "Lat": 34.31743, "Lon": 118.20719}], "Gangu Chengguanzhen": [{"Name": "Gangu Chengguanzhen", "Country Code": "CN", "Population": 103589.0, "Lat": 34.73564, "Lon": 105.32632}], "Ganguvada": [{"Name": "Ganguv\u0101da", "Country Code": "IN", "Population": 2065.0, "Lat": 18.66667, "Lon": 84.11667}], "Ganhechen": [{"Name": "Ganhechen", "Country Code": "CN", "Population": 0.0, "Lat": 33.5582, "Lon": 114.02}], "Ganhiba": [{"Name": "Ganhiba", "Country Code": "CI", "Population": 1471.0, "Lat": 7.31065, "Lon": -8.19712}], "Ganj Dundwara": [{"Name": "Ganj Dundw\u0101ra", "Country Code": "IN", "Population": 46314.0, "Lat": 27.73308, "Lon": 78.94119}], "Ganj Muradabad": [{"Name": "Ganj Mur\u0101d\u0101b\u0101d", "Country Code": "IN", "Population": 9970.0, "Lat": 26.95733, "Lon": 80.184}], "Ganja": [{"Name": "Ganja", "Country Code": "AZ", "Population": 335600.0, "Lat": 40.68278, "Lon": 46.36056}], "Ganjam": [{"Name": "Ganj\u0101m", "Country Code": "IN", "Population": 11429.0, "Lat": 19.38705, "Lon": 85.05079}], "Ganjia": [{"Name": "Ganjia", "Country Code": "CN", "Population": 7334.0, "Lat": 35.40124, "Lon": 102.5164}], "Ganjiangtou": [{"Name": "Ganjiangtou", "Country Code": "CN", "Population": 6835.0, "Lat": 33.92723, "Lon": 104.52223}], "Gankoro": [{"Name": "Gankoro", "Country Code": "CI", "Population": 1768.0, "Lat": 8.20734, "Lon": -3.01946}], "Ganle": [{"Name": "Ganl\u00e9", "Country Code": "CI", "Population": 2010.0, "Lat": 7.66611, "Lon": -7.50977}], "Ganlose": [{"Name": "Ganl\u00f8se", "Country Code": "DK", "Population": 2843.0, "Lat": 55.79124, "Lon": 12.26421}], "Ganna": [{"Name": "Ganna", "Country Code": "IT", "Population": 661.0, "Lat": 45.90212, "Lon": 8.82606}], "Gannan": [{"Name": "Gannan", "Country Code": "CN", "Population": 59239.0, "Lat": 47.92038, "Lon": 123.50046}], "Gannaput": [{"Name": "Gannaput", "Country Code": "ZA", "Population": 1674.0, "Lat": -28.7526, "Lon": 21.84764}], "Gannat": [{"Name": "Gannat", "Country Code": "FR", "Population": 6096.0, "Lat": 46.09987, "Lon": 3.19842}], "Gannavaram": [{"Name": "Gannavaram", "Country Code": "IN", "Population": 19410.0, "Lat": 16.54092, "Lon": 80.80213}], "Ganne": [{"Name": "Gann\u00e9", "Country Code": "CI", "Population": 1692.0, "Lat": 7.62574, "Lon": -7.31775}], "Ganning": [{"Name": "Ganning", "Country Code": "CN", "Population": 30873.0, "Lat": 30.66911, "Lon": 108.2805}], "Ganoufla": [{"Name": "Ganoufla", "Country Code": "CI", "Population": 2587.0, "Lat": 6.75697, "Lon": -6.10427}], "Ganquan": [{"Name": "Ganquan", "Country Code": "CN", "Population": 9372.0, "Lat": 33.44178, "Lon": 105.15978}], "Ganse": [{"Name": "Gans\u00e9", "Country Code": "CI", "Population": 2514.0, "Lat": 8.62049, "Lon": -3.91399}], "Ganshoren": [{"Name": "Ganshoren", "Country Code": "BE", "Population": 24859.0, "Lat": 50.87065, "Lon": 4.31531}], "Ganshui": [{"Name": "Ganshui", "Country Code": "CN", "Population": 65994.0, "Lat": 28.74222, "Lon": 106.71111}], "Gansing": [{"Name": "Gansing", "Country Code": "PH", "Population": 5031.0, "Lat": 6.71851, "Lon": 124.65338}], "Gansingen": [{"Name": "Gansingen", "Country Code": "CH", "Population": 0.0, "Lat": 47.5429, "Lon": 8.13516}], "Ganta": [{"Name": "Ganta", "Country Code": "LR", "Population": 13802.0, "Lat": 7.30222, "Lon": -8.53083}, {"Name": "Ganta", "Country Code": "LR", "Population": 63523.0, "Lat": 7.235, "Lon": -8.98444}], "Gantang": [{"Name": "Gantang", "Country Code": "CN", "Population": 90000.0, "Lat": 27.4375, "Lon": 111.97306}, {"Name": "Gantang", "Country Code": "CN", "Population": 2770.0, "Lat": 26.79833, "Lon": 118.93611}, {"Name": "Gantang", "Country Code": "CN", "Population": 2770.0, "Lat": 26.92, "Lon": 119.63333}, {"Name": "Gantang", "Country Code": "CN", "Population": 0.0, "Lat": 30.29694, "Lon": 118.13056}, {"Name": "Gantang", "Country Code": "CN", "Population": 24000.0, "Lat": 26.71556, "Lon": 109.76889}], "Ganterschwil": [{"Name": "Ganterschwil", "Country Code": "CH", "Population": 1145.0, "Lat": 47.38103, "Lon": 9.09239}], "Gantiadi": [{"Name": "Gantiadi", "Country Code": "GE", "Population": 10000.0, "Lat": 43.38111, "Lon": 40.07944}], "Ganting": [{"Name": "Ganting", "Country Code": "CN", "Population": 0.0, "Lat": 34.10241, "Lon": 108.61406}], "Gantofta": [{"Name": "Gantofta", "Country Code": "SE", "Population": 1322.0, "Lat": 55.98729, "Lon": 12.80482}], "Gantsa": [{"Name": "Gantsa", "Country Code": "NG", "Population": 0.0, "Lat": 11.66312, "Lon": 9.72639}], "Gantt": [{"Name": "Gantt", "Country Code": "US", "Population": 14229.0, "Lat": 34.80012, "Lon": -82.42429}], "Ganwe": [{"Name": "Ganw\u00e9", "Country Code": "CI", "Population": 1556.0, "Lat": 8.18768, "Lon": -7.85064}], "Ganxi": [{"Name": "Ganxi", "Country Code": "CN", "Population": 11643.0, "Lat": 28.98108, "Lon": 108.96006}], "Ganyangan": [{"Name": "Ganyangan", "Country Code": "PH", "Population": 2169.0, "Lat": 7.67889, "Lon": 122.90944}], "Ganye": [{"Name": "Ganye", "Country Code": "NG", "Population": 15178.0, "Lat": 8.43497, "Lon": 12.05107}], "Ganyesa": [{"Name": "Ganyesa", "Country Code": "ZA", "Population": 0.0, "Lat": -26.59613, "Lon": 24.17612}], "Ganz": [{"Name": "Ganz", "Country Code": "AT", "Population": 134.0, "Lat": 47.6, "Lon": 15.68333}], "Ganzda": [{"Name": "Ganzda", "Country Code": "MX", "Population": 2433.0, "Lat": 19.99, "Lon": -99.8475}], "Ganzhou": [{"Name": "Ganzhou", "Country Code": "CN", "Population": 1977253.0, "Lat": 25.84664, "Lon": 114.9326}], "Ganzi": [{"Name": "Ganzi", "Country Code": "CN", "Population": 0.0, "Lat": 31.62744, "Lon": 99.99413}], "Gao": [{"Name": "Gao", "Country Code": "ML", "Population": 133110.0, "Lat": 16.27167, "Lon": -0.04472}], "Gao'an": [{"Name": "Gao\u2019an", "Country Code": "CN", "Population": 49218.0, "Lat": 30.29019, "Lon": 107.46197}], "Gaobeidian": [{"Name": "Gaobeidian", "Country Code": "CN", "Population": 0.0, "Lat": 39.32542, "Lon": 115.86885}], "Gaocheng": [{"Name": "Gaocheng", "Country Code": "CN", "Population": 0.0, "Lat": 29.98814, "Lon": 100.2694}, {"Name": "Gaocheng", "Country Code": "CN", "Population": 0.0, "Lat": 38.02467, "Lon": 114.83665}], "Gaocun": [{"Name": "Gaocun", "Country Code": "CN", "Population": 0.0, "Lat": 27.87731, "Lon": 109.78476}], "Gaofeng": [{"Name": "Gaofeng", "Country Code": "CN", "Population": 20747.0, "Lat": 30.21968, "Lon": 107.40788}, {"Name": "Gaofeng", "Country Code": "CN", "Population": 19550.0, "Lat": 30.71277, "Lon": 108.34187}], "Gaogou": [{"Name": "Gaogou", "Country Code": "CN", "Population": 56214.0, "Lat": 34.0175, "Lon": 119.18861}], "Gaogu": [{"Name": "Gaogu", "Country Code": "CN", "Population": 15522.0, "Lat": 29.39557, "Lon": 108.06579}], "Gaoguan": [{"Name": "Gaoguan", "Country Code": "CN", "Population": 7294.0, "Lat": 31.84905, "Lon": 108.89081}], "Gaohe": [{"Name": "Gaohe", "Country Code": "CN", "Population": 0.0, "Lat": 30.74173, "Lon": 116.84259}], "Gaojia": [{"Name": "Gaojia", "Country Code": "CN", "Population": 43944.0, "Lat": 30.02035, "Lon": 107.86}], "Gaojingzhuang": [{"Name": "Gaojingzhuang", "Country Code": "CN", "Population": 1167.0, "Lat": 39.41611, "Lon": 117.63}], "Gaolan Chengguanzhen": [{"Name": "Gaolan Chengguanzhen", "Country Code": "CN", "Population": 0.0, "Lat": 36.33467, "Lon": 103.94556}], "Gaole-Graba": [{"Name": "Gaol\u00e9-Graba", "Country Code": "CI", "Population": 1537.0, "Lat": 7.57976, "Lon": -7.35989}], "Gaoleshan": [{"Name": "Gaoleshan", "Country Code": "CN", "Population": 0.0, "Lat": 29.67825, "Lon": 109.14453}], "Gaoliang": [{"Name": "Gaoliang", "Country Code": "CN", "Population": 49357.0, "Lat": 30.82394, "Lon": 108.30224}], "Gaoliu": [{"Name": "Gaoliu", "Country Code": "CN", "Population": 67339.0, "Lat": 36.8, "Lon": 118.5}, {"Name": "Gaoliu", "Country Code": "CN", "Population": 48485.0, "Lat": 34.31667, "Lon": 118.51667}], "Gaolou": [{"Name": "Gaolou", "Country Code": "CN", "Population": 18170.0, "Lat": 34.76084, "Lon": 104.67668}, {"Name": "Gaolou", "Country Code": "CN", "Population": 6364.0, "Lat": 30.04767, "Lon": 105.97921}], "Gaomi": [{"Name": "Gaomi", "Country Code": "CN", "Population": 391986.0, "Lat": 36.38333, "Lon": 119.75278}], "Gaonan": [{"Name": "Gaonan", "Country Code": "CN", "Population": 5099.0, "Lat": 32.13286, "Lon": 108.51504}], "Gaongo": [{"Name": "Gaongo", "Country Code": "BF", "Population": 0.0, "Lat": 12.00414, "Lon": -1.16455}], "Gaoniang": [{"Name": "Gaoniang", "Country Code": "CN", "Population": 2500.0, "Lat": 26.8425, "Lon": 109.17889}], "Gaoping": [{"Name": "Gaoping", "Country Code": "CN", "Population": 13523.0, "Lat": 29.84102, "Lon": 105.66661}, {"Name": "Gaoping", "Country Code": "CN", "Population": 204368.0, "Lat": 30.77576, "Lon": 106.10294}], "Gaoqiao": [{"Name": "Gaoqiao", "Country Code": "CN", "Population": 6061.0, "Lat": 34.09525, "Lon": 105.94883}, {"Name": "Gaoqiao", "Country Code": "CN", "Population": 1670.0, "Lat": 26.63361, "Lon": 110.9}, {"Name": "Gaoqiao", "Country Code": "CN", "Population": 23608.0, "Lat": 31.36876, "Lon": 108.24215}], "Gaosheng": [{"Name": "Gaosheng", "Country Code": "CN", "Population": 13995.0, "Lat": 29.7178, "Lon": 105.57833}], "Gaotai Chengguanzhen": [{"Name": "Gaotai Chengguanzhen", "Country Code": "CN", "Population": 0.0, "Lat": 39.34456, "Lon": 99.80015}], "Gaotang": [{"Name": "Gaotang", "Country Code": "CN", "Population": 0.0, "Lat": 36.85966, "Lon": 116.22212}], "Gaotangling": [{"Name": "Gaotangling", "Country Code": "CN", "Population": 0.0, "Lat": 28.36667, "Lon": 112.81667}], "Gaotian": [{"Name": "Gaotian", "Country Code": "CN", "Population": 13608.0, "Lat": 28.49007, "Lon": 108.84067}], "Gaoua": [{"Name": "Gaoua", "Country Code": "BF", "Population": 45284.0, "Lat": 10.33137, "Lon": -3.18202}], "Gaoual": [{"Name": "Gaoual", "Country Code": "GN", "Population": 7461.0, "Lat": 11.75, "Lon": -13.2}], "Gaougnagbolilie": [{"Name": "Gaougnagbolili\u00e9", "Country Code": "CI", "Population": 1022.0, "Lat": 5.884, "Lon": -5.84769}], "Gaoulou": [{"Name": "Gaoulou", "Country Code": "CI", "Population": 15794.0, "Lat": 5.03347, "Lon": -6.15137}], "Gaouroubre": [{"Name": "Gaouroubr\u00e9", "Country Code": "CI", "Population": 6713.0, "Lat": 5.28057, "Lon": -6.24612}], "Gaoussoukro": [{"Name": "Gaoussoukro", "Country Code": "CI", "Population": 5318.0, "Lat": 5.2484, "Lon": -2.97116}], "Gaowu": [{"Name": "Gaowu", "Country Code": "CN", "Population": 1246.0, "Lat": 25.5625, "Lon": 108.908}], "Gaoya": [{"Name": "Gaoya", "Country Code": "CI", "Population": 1174.0, "Lat": 7.09152, "Lon": -7.40563}], "Gaoyan": [{"Name": "Gaoyan", "Country Code": "CN", "Population": 11655.0, "Lat": 31.93566, "Lon": 108.6199}], "Gaoyang": [{"Name": "Gaoyang", "Country Code": "CN", "Population": 0.0, "Lat": 38.69084, "Lon": 115.77195}], "Gaoyao": [{"Name": "Gaoyao", "Country Code": "CN", "Population": 0.0, "Lat": 23.02432, "Lon": 112.44555}], "Gaoyi": [{"Name": "Gaoyi", "Country Code": "CN", "Population": 1110.0, "Lat": 26.95944, "Lon": 110.01556}, {"Name": "Gaoyi", "Country Code": "CN", "Population": 0.0, "Lat": 37.60361, "Lon": 114.60351}], "Gaoyou": [{"Name": "Gaoyou", "Country Code": "CN", "Population": 90911.0, "Lat": 32.78933, "Lon": 119.44182}], "Gaozeng": [{"Name": "Gaozeng", "Country Code": "CN", "Population": 1650.0, "Lat": 25.80167, "Lon": 108.9375}], "Gaozhou": [{"Name": "Gaozhou", "Country Code": "CN", "Population": 292164.0, "Lat": 21.91965, "Lon": 110.85678}], "Gaozhuang": [{"Name": "Gaozhuang", "Country Code": "CN", "Population": 3011.0, "Lat": 39.26917, "Lon": 117.97556}], "Gaozuo": [{"Name": "Gaozuo", "Country Code": "CN", "Population": 43419.0, "Lat": 33.90306, "Lon": 118.03972}], "Gap": [{"Name": "Gap", "Country Code": "FR", "Population": 42715.0, "Lat": 44.55858, "Lon": 6.07868}, {"Name": "Gap", "Country Code": "US", "Population": 1931.0, "Lat": 39.98732, "Lon": -76.02051}], "Gapan": [{"Name": "Gapan", "Country Code": "PH", "Population": 79064.0, "Lat": 15.3072, "Lon": 120.9464}], "Gaphatshwe": [{"Name": "Gaphatshwe", "Country Code": "BW", "Population": 1678.0, "Lat": -24.57389, "Lon": 25.83417}], "Gappal": [{"Name": "Gappal", "Country Code": "PH", "Population": 2495.0, "Lat": 16.83646, "Lon": 121.82184}], "Gaptsakh": [{"Name": "Gaptsakh", "Country Code": "RU", "Population": 3501.0, "Lat": 41.45174, "Lon": 47.93027}], "Gapura": [{"Name": "Gapura", "Country Code": "ID", "Population": 0.0, "Lat": -6.99667, "Lon": 113.95575}], "Gapyeong": [{"Name": "Gapyeong", "Country Code": "KR", "Population": 55415.0, "Lat": 37.83101, "Lon": 127.51059}], "Gara": [{"Name": "Gara", "Country Code": "HU", "Population": 2656.0, "Lat": 46.03194, "Lon": 19.04278}], "Gara Hitrino": [{"Name": "Gara Hitrino", "Country Code": "BG", "Population": 1302.0, "Lat": 43.43333, "Lon": 26.91667}], "Garaballa": [{"Name": "Garaballa", "Country Code": "ES", "Population": 119.0, "Lat": 39.81667, "Lon": -1.36667}], "Garachico": [{"Name": "Garachico", "Country Code": "ES", "Population": 6000.0, "Lat": 28.77807, "Lon": -17.76459}, {"Name": "Garachico", "Country Code": "ES", "Population": 6000.0, "Lat": 28.37365, "Lon": -16.76342}], "Garachine": [{"Name": "Garachin\u00e9", "Country Code": "PA", "Population": 1188.0, "Lat": 8.06684, "Lon": -78.36436}], "Garadassi": [{"Name": "Garadassi", "Country Code": "IT", "Population": 29.0, "Lat": 44.75429, "Lon": 9.15393}], "Garafia": [{"Name": "Garaf\u00eda", "Country Code": "ES", "Population": 1929.0, "Lat": 28.81667, "Lon": -17.93333}], "Garagau": [{"Name": "G\u0103r\u0103g\u0103u", "Country Code": "RO", "Population": 1004.0, "Lat": 44.23186, "Lon": 25.1892}], "Garagoa": [{"Name": "Garagoa", "Country Code": "CO", "Population": 11102.0, "Lat": 5.08236, "Lon": -73.36334}], "Garaguso": [{"Name": "Garaguso", "Country Code": "IT", "Population": 951.0, "Lat": 40.54866, "Lon": 16.22827}], "Garaioa": [{"Name": "Garaioa", "Country Code": "ES", "Population": 0.0, "Lat": 42.93333, "Lon": -1.23333}], "Garaku": [{"Name": "Garaku", "Country Code": "NG", "Population": 0.0, "Lat": 8.84717, "Lon": 8.13021}], "Garamur": [{"Name": "Garamur", "Country Code": "IN", "Population": 0.0, "Lat": 26.94891, "Lon": 94.17205}], "Garanas": [{"Name": "Garanas", "Country Code": "AT", "Population": 182.0, "Lat": 46.76667, "Lon": 15.11667}], "Garancieres": [{"Name": "Garanci\u00e8res", "Country Code": "FR", "Population": 2381.0, "Lat": 48.82271, "Lon": 1.75512}], "Garango": [{"Name": "Garango", "Country Code": "BF", "Population": 40404.0, "Lat": 11.8, "Lon": -0.55056}, {"Name": "Garango", "Country Code": "CI", "Population": 8905.0, "Lat": 6.96301, "Lon": -5.80875}], "Garanhuns": [{"Name": "Garanhuns", "Country Code": "BR", "Population": 110085.0, "Lat": -8.88202, "Lon": -36.50216}], "Gararu": [{"Name": "Gararu", "Country Code": "BR", "Population": 2977.0, "Lat": -9.9675, "Lon": -37.08333}], "Garat": [{"Name": "Garat", "Country Code": "FR", "Population": 1548.0, "Lat": 45.62642, "Lon": 0.26265}], "Garautha": [{"Name": "Garautha", "Country Code": "IN", "Population": 9489.0, "Lat": 25.5719, "Lon": 79.29764}], "Garawangi": [{"Name": "Garawangi", "Country Code": "ID", "Population": 0.0, "Lat": -6.9987, "Lon": 108.5389}], "Garawol": [{"Name": "Garawol", "Country Code": "GM", "Population": 10547.0, "Lat": 13.41667, "Lon": -13.95}], "Garba Tula": [{"Name": "Garba Tula", "Country Code": "KE", "Population": 17443.0, "Lat": 0.53392, "Lon": 38.51878}], "Garbagna": [{"Name": "Garbagna", "Country Code": "IT", "Population": 428.0, "Lat": 44.78045, "Lon": 8.99786}], "Garbagna Novarese": [{"Name": "Garbagna Novarese", "Country Code": "IT", "Population": 1287.0, "Lat": 45.38876, "Lon": 8.66124}], "Garbagnate": [{"Name": "Garbagnate", "Country Code": "IT", "Population": 1169.0, "Lat": 45.77027, "Lon": 9.29848}], "Garbagnate Milanese": [{"Name": "Garbagnate Milanese", "Country Code": "IT", "Population": 25974.0, "Lat": 45.57438, "Lon": 9.07537}], "Garbagnate Monastero": [{"Name": "Garbagnate Monastero", "Country Code": "IT", "Population": 2186.0, "Lat": 45.77338, "Lon": 9.30144}], "Garbahaarrey": [{"Name": "Garbahaarrey", "Country Code": "SO", "Population": 12652.0, "Lat": 3.32892, "Lon": 42.22091}], "Garbatka-Letnisko": [{"Name": "Garbatka-Letnisko", "Country Code": "PL", "Population": 3295.0, "Lat": 51.4832, "Lon": 21.61079}], "Garbau": [{"Name": "G\u00e2rb\u0103u", "Country Code": "RO", "Population": 763.0, "Lat": 46.83305, "Lon": 23.3524}], "Garbayuela": [{"Name": "Garbayuela", "Country Code": "ES", "Population": 542.0, "Lat": 39.04956, "Lon": -4.99856}], "Garbesti": [{"Name": "G\u00e2rbe\u0219ti", "Country Code": "RO", "Population": 2228.0, "Lat": 46.98333, "Lon": 27.3}], "Garbolovo": [{"Name": "Garbolovo", "Country Code": "RU", "Population": 3830.0, "Lat": 60.34127, "Lon": 30.49551}], "Garbou": [{"Name": "G\u00e2rbou", "Country Code": "RO", "Population": 2402.0, "Lat": 47.15, "Lon": 23.43333}], "Garbova": [{"Name": "G\u00e2rbova", "Country Code": "RO", "Population": 2022.0, "Lat": 45.86667, "Lon": 23.73333}], "Garbovi": [{"Name": "G\u00e2rbovi", "Country Code": "RO", "Population": 4408.0, "Lat": 44.78333, "Lon": 26.76667}], "Garbow": [{"Name": "Garb\u00f3w", "Country Code": "PL", "Population": 2060.0, "Lat": 51.35517, "Lon": 22.32937}], "Garbsen": [{"Name": "Garbsen", "Country Code": "DE", "Population": 63355.0, "Lat": 52.41371, "Lon": 9.5899}], "Garbsen-Mitte": [{"Name": "Garbsen-Mitte", "Country Code": "DE", "Population": 7500.0, "Lat": 52.42659, "Lon": 9.60383}], "Garbutt": [{"Name": "Garbutt", "Country Code": "AU", "Population": 2632.0, "Lat": -19.26602, "Lon": 146.78224}], "Garca": [{"Name": "Gar\u00e7a", "Country Code": "BR", "Population": 41302.0, "Lat": -22.21056, "Lon": -49.65611}], "Garceni": [{"Name": "G\u00e2rceni", "Country Code": "RO", "Population": 2561.0, "Lat": 46.76667, "Lon": 27.28333}], "Garches": [{"Name": "Garches", "Country Code": "FR", "Population": 18930.0, "Lat": 48.84226, "Lon": 2.18232}], "Garching": [{"Name": "Garching", "Country Code": "DE", "Population": 15303.0, "Lat": 48.24896, "Lon": 11.65101}], "Garching an der Alz": [{"Name": "Garching an der Alz", "Country Code": "DE", "Population": 8796.0, "Lat": 48.13451, "Lon": 12.58152}], "Garchitorena": [{"Name": "Garchitorena", "Country Code": "PH", "Population": 4909.0, "Lat": 13.8804, "Lon": 123.6946}], "Garchizy": [{"Name": "Garchizy", "Country Code": "FR", "Population": 3887.0, "Lat": 47.04786, "Lon": 3.09625}], "Garcia": [{"Name": "Garcia", "Country Code": "ES", "Population": 496.0, "Lat": 41.13333, "Lon": 0.65}, {"Name": "Garc\u00eda", "Country Code": "MX", "Population": 93641.0, "Lat": 25.81201, "Lon": -100.59874}], "Garcia Hernandez": [{"Name": "Garcia Hernandez", "Country Code": "PH", "Population": 2643.0, "Lat": 9.6144, "Lon": 124.2946}], "Garcibuey": [{"Name": "Garcibuey", "Country Code": "ES", "Population": 228.0, "Lat": 40.51552, "Lon": -5.99439}], "Garcihernandez": [{"Name": "Garcihern\u00e1ndez", "Country Code": "ES", "Population": 579.0, "Lat": 40.86096, "Lon": -5.43567}], "Garcillan": [{"Name": "Garcill\u00e1n", "Country Code": "ES", "Population": 382.0, "Lat": 40.97771, "Lon": -4.26577}], "Garcin": [{"Name": "Gar\u010din", "Country Code": "HR", "Population": 733.0, "Lat": 45.18278, "Lon": 18.18306}], "Garcina": [{"Name": "G\u00e2rcina", "Country Code": "RO", "Population": 2402.0, "Lat": 46.97691, "Lon": 26.34573}], "Garcirrey": [{"Name": "Garcirrey", "Country Code": "ES", "Population": 96.0, "Lat": 40.90049, "Lon": -6.1312}], "Garcov": [{"Name": "G\u00e2rcov", "Country Code": "RO", "Population": 2684.0, "Lat": 43.7591, "Lon": 24.61577}], "Garcz": [{"Name": "Garcz", "Country Code": "PL", "Population": 1908.0, "Lat": 54.3476, "Lon": 18.10169}], "Garda": [{"Name": "Garda", "Country Code": "IT", "Population": 3611.0, "Lat": 45.57889, "Lon": 10.71763}], "Garda de Sus": [{"Name": "G\u00e2rda de Sus", "Country Code": "RO", "Population": 1822.0, "Lat": 46.45, "Lon": 22.81667}], "Gardabaer": [{"Name": "Gar\u00f0ab\u00e6r", "Country Code": "IS", "Population": 11421.0, "Lat": 64.08865, "Lon": -21.92298}], "Gardabani": [{"Name": "Gardabani", "Country Code": "GE", "Population": 10972.0, "Lat": 41.4605, "Lon": 45.0928}], "Gardani": [{"Name": "G\u00e2rdani", "Country Code": "RO", "Population": 1671.0, "Lat": 47.55135, "Lon": 23.3088}], "Gardanne": [{"Name": "Gardanne", "Country Code": "FR", "Population": 21140.0, "Lat": 43.45491, "Lon": 5.46913}], "Gardawice": [{"Name": "Gardawice", "Country Code": "PL", "Population": 1859.0, "Lat": 50.11667, "Lon": 18.8}], "Garde": [{"Name": "Garde", "Country Code": "ES", "Population": 175.0, "Lat": 42.78937, "Lon": -0.92589}], "Gardeja": [{"Name": "Gardeja", "Country Code": "PL", "Population": 2500.0, "Lat": 53.61125, "Lon": 18.94687}], "Gardelegen": [{"Name": "Gardelegen", "Country Code": "DE", "Population": 11868.0, "Lat": 52.5252, "Lon": 11.39523}], "Garden Acres": [{"Name": "Garden Acres", "Country Code": "US", "Population": 10648.0, "Lat": 37.96381, "Lon": -121.22939}], "Garden City": [{"Name": "Garden City", "Country Code": "SD", "Population": 0.0, "Lat": 15.6108, "Lon": 32.5653}, {"Name": "Garden City", "Country Code": "US", "Population": 11550.0, "Lat": 43.62211, "Lon": -116.23817}, {"Name": "Garden City", "Country Code": "US", "Population": 26920.0, "Lat": 42.32559, "Lon": -83.33104}, {"Name": "Garden City", "Country Code": "US", "Population": 8999.0, "Lat": 32.11437, "Lon": -81.154}, {"Name": "Garden City", "Country Code": "US", "Population": 27005.0, "Lat": 37.97169, "Lon": -100.87266}, {"Name": "Garden City", "Country Code": "US", "Population": 334.0, "Lat": 31.86402, "Lon": -101.48123}, {"Name": "Garden City", "Country Code": "US", "Population": 22612.0, "Lat": 40.72677, "Lon": -73.6343}, {"Name": "Garden City", "Country Code": "US", "Population": 9209.0, "Lat": 33.59295, "Lon": -79.00865}, {"Name": "Garden City", "Country Code": "US", "Population": 1625.0, "Lat": 38.56112, "Lon": -94.19133}], "Garden City Park": [{"Name": "Garden City Park", "Country Code": "US", "Population": 7806.0, "Lat": 40.74093, "Lon": -73.66263}], "Garden City South": [{"Name": "Garden City South", "Country Code": "US", "Population": 4024.0, "Lat": 40.71232, "Lon": -73.66096}], "Garden Grove": [{"Name": "Garden Grove", "Country Code": "US", "Population": 175393.0, "Lat": 33.77391, "Lon": -117.94145}], "Garden Home-Whitford": [{"Name": "Garden Home-Whitford", "Country Code": "US", "Population": 6674.0, "Lat": 45.464, "Lon": -122.75891}], "Garden Island": [{"Name": "Garden Island", "Country Code": "AU", "Population": 1588.0, "Lat": -32.24264, "Lon": 115.69505}], "Garden Ridge": [{"Name": "Garden Ridge", "Country Code": "US", "Population": 3850.0, "Lat": 29.63467, "Lon": -98.30529}], "Garden Suburb": [{"Name": "Garden Suburb", "Country Code": "AU", "Population": 1878.0, "Lat": -32.94368, "Lon": 151.68085}], "Garden View": [{"Name": "Garden View", "Country Code": "US", "Population": 2503.0, "Lat": 41.25424, "Lon": -77.04608}], "Gardena": [{"Name": "Gardena", "Country Code": "US", "Population": 60447.0, "Lat": 33.88835, "Lon": -118.30896}], "Gardendale": [{"Name": "Gardendale", "Country Code": "US", "Population": 1574.0, "Lat": 32.0204, "Lon": -102.38015}, {"Name": "Gardendale", "Country Code": "US", "Population": 1247.0, "Lat": 28.51693, "Lon": -99.21614}, {"Name": "Gardendale", "Country Code": "US", "Population": 13711.0, "Lat": 33.6601, "Lon": -86.81277}], "Gardere": [{"Name": "Gardere", "Country Code": "US", "Population": 10580.0, "Lat": 30.34575, "Lon": -91.14011}], "Garderen": [{"Name": "Garderen", "Country Code": "NL", "Population": 1320.0, "Lat": 52.23083, "Lon": 5.71389}], "Gardez": [{"Name": "Gardez", "Country Code": "AF", "Population": 103601.0, "Lat": 33.59744, "Lon": 69.22592}], "Gardiner": [{"Name": "Gardiner", "Country Code": "US", "Population": 5597.0, "Lat": 44.23007, "Lon": -69.77532}], "Garding": [{"Name": "Garding", "Country Code": "DE", "Population": 3065.0, "Lat": 54.33056, "Lon": 8.78056}], "Gardinovci": [{"Name": "Gardinovci", "Country Code": "RS", "Population": 1515.0, "Lat": 45.20359, "Lon": 20.13558}], "Gardner": [{"Name": "Gardner", "Country Code": "US", "Population": 1434.0, "Lat": 41.18559, "Lon": -88.30978}, {"Name": "Gardner", "Country Code": "US", "Population": 20333.0, "Lat": 42.57509, "Lon": -71.99813}, {"Name": "Gardner", "Country Code": "US", "Population": 20868.0, "Lat": 38.81084, "Lon": -94.92719}], "Gardnertown": [{"Name": "Gardnertown", "Country Code": "US", "Population": 4373.0, "Lat": 41.53509, "Lon": -74.07014}], "Gardnerville": [{"Name": "Gardnerville", "Country Code": "US", "Population": 5656.0, "Lat": 38.9413, "Lon": -119.74962}], "Gardnerville Ranchos": [{"Name": "Gardnerville Ranchos", "Country Code": "US", "Population": 11312.0, "Lat": 38.88824, "Lon": -119.74129}], "Gardola": [{"Name": "Gardola", "Country Code": "IT", "Population": 623.0, "Lat": 45.7418, "Lon": 10.71871}], "Gardone Riviera": [{"Name": "Gardone Riviera", "Country Code": "IT", "Population": 2059.0, "Lat": 45.62396, "Lon": 10.56682}], "Gardone Val Trompia": [{"Name": "Gardone Val Trompia", "Country Code": "IT", "Population": 10113.0, "Lat": 45.69137, "Lon": 10.18635}], "Gardonne": [{"Name": "Gardonne", "Country Code": "FR", "Population": 1501.0, "Lat": 44.83629, "Lon": 0.33259}], "Gardony": [{"Name": "G\u00e1rdony", "Country Code": "HU", "Population": 8105.0, "Lat": 47.20942, "Lon": 18.63607}], "Gardouch": [{"Name": "Gardouch", "Country Code": "FR", "Population": 1111.0, "Lat": 43.39073, "Lon": 1.68406}], "Gardsten": [{"Name": "G\u00e5rdsten", "Country Code": "SE", "Population": 8025.0, "Lat": 57.8048, "Lon": 12.02883}], "Gardur": [{"Name": "Gar\u00f0ur", "Country Code": "IS", "Population": 1429.0, "Lat": 64.07055, "Lon": -22.6513}], "Gardutanjak": [{"Name": "Gardutanjak", "Country Code": "ID", "Population": 0.0, "Lat": -6.3133, "Lon": 106.1013}], "Garelochhead": [{"Name": "Garelochhead", "Country Code": "GB", "Population": 2110.0, "Lat": 56.08203, "Lon": -4.82909}], "Garennes-sur-Eure": [{"Name": "Garennes-sur-Eure", "Country Code": "FR", "Population": 1825.0, "Lat": 48.91116, "Lon": 1.43836}], "Gareoult": [{"Name": "Gar\u00e9oult", "Country Code": "FR", "Population": 5268.0, "Lat": 43.32833, "Lon": 6.04616}], "Garesnica": [{"Name": "Gare\u0161nica", "Country Code": "HR", "Population": 3294.0, "Lat": 45.57444, "Lon": 16.94139}], "Garessio": [{"Name": "Garessio", "Country Code": "IT", "Population": 2612.0, "Lat": 44.20705, "Lon": 8.01778}], "Garfield": [{"Name": "Garfield", "Country Code": "AU", "Population": 1738.0, "Lat": -38.08985, "Lon": 145.67502}, {"Name": "Garfield", "Country Code": "US", "Population": 1698.0, "Lat": 30.18744, "Lon": -97.55778}, {"Name": "Garfield", "Country Code": "US", "Population": 31802.0, "Lat": 40.88149, "Lon": -74.1132}], "Garfield Heights": [{"Name": "Garfield Heights", "Country Code": "US", "Population": 28097.0, "Lat": 41.417, "Lon": -81.60596}], "Garforth": [{"Name": "Garforth", "Country Code": "GB", "Population": 14838.0, "Lat": 53.79173, "Lon": -1.38067}], "Gargalianoi": [{"Name": "Gargali\u00e1noi", "Country Code": "GR", "Population": 6282.0, "Lat": 37.06518, "Lon": 21.63809}], "Gargallo": [{"Name": "Gargallo", "Country Code": "ES", "Population": 107.0, "Lat": 40.83583, "Lon": -0.58442}, {"Name": "Gargallo", "Country Code": "IT", "Population": 1869.0, "Lat": 45.72877, "Lon": 8.42533}], "Garganta de los Montes": [{"Name": "Garganta de los Montes", "Country Code": "ES", "Population": 365.0, "Lat": 40.91992, "Lon": -3.68375}], "Garganta del Villar": [{"Name": "Garganta del Villar", "Country Code": "ES", "Population": 55.0, "Lat": 40.44965, "Lon": -5.1042}], "Garganta la Olla": [{"Name": "Garganta la Olla", "Country Code": "ES", "Population": 1154.0, "Lat": 40.11049, "Lon": -5.77665}], "Gargantilla": [{"Name": "Gargantilla", "Country Code": "ES", "Population": 444.0, "Lat": 40.24835, "Lon": -5.92068}], "Gargantillo": [{"Name": "Gargantillo", "Country Code": "MX", "Population": 1087.0, "Lat": 20.01747, "Lon": -105.34619}], "Gargas": [{"Name": "Gargas", "Country Code": "FR", "Population": 3159.0, "Lat": 43.90196, "Lon": 5.35814}], "Gargazzone": [{"Name": "Gargazzone", "Country Code": "IT", "Population": 1441.0, "Lat": 46.58456, "Lon": 11.20156}], "Gargenville": [{"Name": "Gargenville", "Country Code": "FR", "Population": 6952.0, "Lat": 48.98802, "Lon": 1.81176}], "Garges-les-Gonesse": [{"Name": "Garges-l\u00e8s-Gonesse", "Country Code": "FR", "Population": 39847.0, "Lat": 48.96791, "Lon": 2.39781}], "Gargnano": [{"Name": "Gargnano", "Country Code": "IT", "Population": 2221.0, "Lat": 45.68586, "Lon": 10.65869}], "Gargrave": [{"Name": "Gargrave", "Country Code": "GB", "Population": 1755.0, "Lat": 53.98353, "Lon": -2.10459}], "Garguera": [{"Name": "Garg\u00fcera", "Country Code": "ES", "Population": 160.0, "Lat": 40.0613, "Lon": -5.92781}], "Gargzdai": [{"Name": "Garg\u017edai", "Country Code": "LT", "Population": 16433.0, "Lat": 55.70951, "Lon": 21.39441}], "Garh Maharaja": [{"Name": "Garh Maharaja", "Country Code": "PK", "Population": 29153.0, "Lat": 30.83383, "Lon": 71.90491}], "Garha Brahman": [{"Name": "Garha Brahman", "Country Code": "IN", "Population": 1013.0, "Lat": 23.86873, "Lon": 77.35731}], "Garhakota": [{"Name": "Garh\u0101kota", "Country Code": "IN", "Population": 28114.0, "Lat": 23.7791, "Lon": 79.14321}], "Garhdiwala": [{"Name": "Garhdiw\u0101la", "Country Code": "IN", "Population": 6693.0, "Lat": 31.74147, "Lon": 75.75567}], "Garhi Khairo": [{"Name": "Garhi Khairo", "Country Code": "PK", "Population": 13666.0, "Lat": 28.06029, "Lon": 67.98033}], "Garhi Pukhta": [{"Name": "Garhi P\u016bkhta", "Country Code": "IN", "Population": 13381.0, "Lat": 29.5498, "Lon": 77.30881}], "Garhiyasin": [{"Name": "Garhiyasin", "Country Code": "PK", "Population": 14810.0, "Lat": 27.90631, "Lon": 68.5121}], "Garhmuktesar": [{"Name": "Garhmuktesar", "Country Code": "IN", "Population": 37043.0, "Lat": 28.78732, "Lon": 78.10214}], "Garhshankar": [{"Name": "Garhshankar", "Country Code": "IN", "Population": 16470.0, "Lat": 31.21537, "Lon": 76.14149}], "Garhwa": [{"Name": "Garhwa", "Country Code": "IN", "Population": 40662.0, "Lat": 24.16002, "Lon": 83.80755}], "Gari": [{"Name": "Gari", "Country Code": "RU", "Population": 3134.0, "Lat": 59.43075, "Lon": 62.34967}], "Gariaband": [{"Name": "Gari\u0101band", "Country Code": "IN", "Population": 10416.0, "Lat": 20.63323, "Lon": 82.06221}], "Gariadhar": [{"Name": "Gariadhar", "Country Code": "IN", "Population": 35692.0, "Lat": 21.53889, "Lon": 71.57737}], "Garibaldi": [{"Name": "Garibaldi", "Country Code": "BR", "Population": 30364.0, "Lat": -29.25611, "Lon": -51.53361}], "Garidech": [{"Name": "Garidech", "Country Code": "FR", "Population": 1072.0, "Lat": 43.71076, "Lon": 1.56036}], "Garies": [{"Name": "Garies", "Country Code": "ZA", "Population": 0.0, "Lat": -30.56223, "Lon": 17.98905}], "Garino": [{"Name": "Garino", "Country Code": "IT", "Population": 3600.0, "Lat": 44.97325, "Lon": 7.61728}], "Garinoain": [{"Name": "Gar\u00ednoain", "Country Code": "ES", "Population": 462.0, "Lat": 42.60036, "Lon": -1.64434}], "Garissa": [{"Name": "Garissa", "Country Code": "KE", "Population": 163399.0, "Lat": -0.45275, "Lon": 39.64601}], "Garkalne": [{"Name": "Garkalne", "Country Code": "LV", "Population": 0.0, "Lat": 57.04486, "Lon": 24.41951}], "Garki": [{"Name": "Garki", "Country Code": "NG", "Population": 0.0, "Lat": 12.43456, "Lon": 9.19028}], "Garko": [{"Name": "Garko", "Country Code": "NG", "Population": 0.0, "Lat": 11.64974, "Lon": 8.80328}, {"Name": "Garko", "Country Code": "NG", "Population": 21141.0, "Lat": 10.17506, "Lon": 11.16458}], "Garla-Mare": [{"Name": "G\u00e2rla-Mare", "Country Code": "RO", "Population": 5258.0, "Lat": 44.20917, "Lon": 22.775}], "Garland": [{"Name": "Garland", "Country Code": "US", "Population": 1029.0, "Lat": 45.0384, "Lon": -69.16032}, {"Name": "Garland", "Country Code": "US", "Population": 2448.0, "Lat": 41.74104, "Lon": -112.16162}, {"Name": "Garland", "Country Code": "US", "Population": 236897.0, "Lat": 32.91262, "Lon": -96.63888}], "Garlasco": [{"Name": "Garlasco", "Country Code": "IT", "Population": 8607.0, "Lat": 45.1954, "Lon": 8.92314}], "Garlate": [{"Name": "Garlate", "Country Code": "IT", "Population": 2602.0, "Lat": 45.81208, "Lon": 9.39964}], "Garlenda": [{"Name": "Garlenda", "Country Code": "IT", "Population": 957.0, "Lat": 44.03325, "Lon": 8.09546}], "Garleni": [{"Name": "G\u00e2rleni", "Country Code": "RO", "Population": 1747.0, "Lat": 46.66667, "Lon": 26.8}], "Garlenii de Sus": [{"Name": "G\u00e2rlenii de Sus", "Country Code": "RO", "Population": 1626.0, "Lat": 46.65414, "Lon": 26.79491}], "Garliava": [{"Name": "Garliava", "Country Code": "LT", "Population": 9873.0, "Lat": 54.82139, "Lon": 23.8713}], "Garliciu": [{"Name": "G\u00e2rliciu", "Country Code": "RO", "Population": 1821.0, "Lat": 44.76667, "Lon": 28.08333}], "Garlin": [{"Name": "Garlin", "Country Code": "FR", "Population": 1251.0, "Lat": 43.56079, "Lon": -0.27182}], "Garlitos": [{"Name": "Garlitos", "Country Code": "ES", "Population": 721.0, "Lat": 38.88022, "Lon": -5.04759}], "Garlstorf": [{"Name": "Garlstorf", "Country Code": "DE", "Population": 1073.0, "Lat": 53.23728, "Lon": 10.10137}], "Garmeh": [{"Name": "Garmeh", "Country Code": "IR", "Population": 0.0, "Lat": 36.987, "Lon": 56.28942}], "Garmen": [{"Name": "Garmen", "Country Code": "BG", "Population": 1838.0, "Lat": 41.6, "Lon": 23.81667}], "Garmisch-Partenkirchen": [{"Name": "Garmisch-Partenkirchen", "Country Code": "DE", "Population": 26022.0, "Lat": 47.49209, "Lon": 11.09576}], "Garmsar": [{"Name": "Garms\u0101r", "Country Code": "IR", "Population": 0.0, "Lat": 35.21824, "Lon": 52.34085}], "Garnay": [{"Name": "Garnay", "Country Code": "FR", "Population": 1028.0, "Lat": 48.70489, "Lon": 1.33706}], "Garner": [{"Name": "Garner", "Country Code": "US", "Population": 28053.0, "Lat": 35.71126, "Lon": -78.61417}, {"Name": "Garner", "Country Code": "US", "Population": 3107.0, "Lat": 43.10246, "Lon": -93.60188}], "Garnet": [{"Name": "Garnet", "Country Code": "US", "Population": 7543.0, "Lat": 33.927, "Lon": -116.477}], "Garnett": [{"Name": "Garnett", "Country Code": "US", "Population": 3258.0, "Lat": 38.28058, "Lon": -95.24192}], "Garnic": [{"Name": "G\u00e2rnic", "Country Code": "RO", "Population": 1480.0, "Lat": 44.78639, "Lon": 21.79444}], "Garnich": [{"Name": "Garnich", "Country Code": "LU", "Population": 824.0, "Lat": 49.61667, "Lon": 5.9525}], "Garniga Nuova": [{"Name": "Garniga Nuova", "Country Code": "IT", "Population": 222.0, "Lat": 46.0031, "Lon": 11.08738}], "Garoafa": [{"Name": "Garoafa", "Country Code": "RO", "Population": 4624.0, "Lat": 45.78333, "Lon": 27.2}], "Garobo": [{"Name": "Garobo", "Country Code": "CI", "Population": 3623.0, "Lat": 6.76646, "Lon": -6.85808}], "Garons": [{"Name": "Garons", "Country Code": "FR", "Population": 4019.0, "Lat": 43.7682, "Lon": 4.42849}], "Garoowe": [{"Name": "Garoowe", "Country Code": "SO", "Population": 57300.0, "Lat": 8.40207, "Lon": 48.48284}], "Garoua": [{"Name": "Garoua", "Country Code": "CM", "Population": 34957.0, "Lat": 9.30143, "Lon": 13.39771}], "Garoua Boulai": [{"Name": "Garoua Boula\u00ef", "Country Code": "CM", "Population": 46615.0, "Lat": 5.88333, "Lon": 14.55}], "Garphyttan": [{"Name": "Garphyttan", "Country Code": "SE", "Population": 1613.0, "Lat": 59.30429, "Lon": 14.94623}], "Garrafe de Torio": [{"Name": "Garrafe de Tor\u00edo", "Country Code": "ES", "Population": 1101.0, "Lat": 42.73285, "Lon": -5.5236}], "Garralda": [{"Name": "Garralda", "Country Code": "ES", "Population": 190.0, "Lat": 42.94818, "Lon": -1.28624}], "Garran": [{"Name": "Garran", "Country Code": "AU", "Population": 4169.0, "Lat": -35.34206, "Lon": 149.10846}], "Garray": [{"Name": "Garray", "Country Code": "ES", "Population": 506.0, "Lat": 41.81617, "Lon": -2.44592}], "Garrel": [{"Name": "Garrel", "Country Code": "DE", "Population": 12273.0, "Lat": 52.95, "Lon": 8.01667}], "Garretson": [{"Name": "Garretson", "Country Code": "US", "Population": 1201.0, "Lat": 43.71747, "Lon": -96.50282}], "Garrett": [{"Name": "Garrett", "Country Code": "US", "Population": 1419.0, "Lat": 46.05208, "Lon": -118.40275}, {"Name": "Garrett", "Country Code": "US", "Population": 6344.0, "Lat": 41.34949, "Lon": -85.13553}], "Garrett Park": [{"Name": "Garrett Park", "Country Code": "US", "Population": 1044.0, "Lat": 39.03816, "Lon": -77.09303}], "Garrettsville": [{"Name": "Garrettsville", "Country Code": "US", "Population": 2328.0, "Lat": 41.28422, "Lon": -81.09649}], "Garrigas": [{"Name": "Garrig\u00e0s", "Country Code": "ES", "Population": 327.0, "Lat": 42.19343, "Lon": 2.95438}], "Garrigoles": [{"Name": "Garrigoles", "Country Code": "ES", "Population": 0.0, "Lat": 42.1, "Lon": 3.03333}], "Garriguella": [{"Name": "Garriguella", "Country Code": "ES", "Population": 727.0, "Lat": 42.34392, "Lon": 3.06506}], "Garrison": [{"Name": "Garrison", "Country Code": "US", "Population": 8823.0, "Lat": 39.40594, "Lon": -76.76053}, {"Name": "Garrison", "Country Code": "US", "Population": 1538.0, "Lat": 47.65222, "Lon": -101.41572}], "Garrni": [{"Name": "Garrni", "Country Code": "AM", "Population": 6827.0, "Lat": 40.11931, "Lon": 44.73442}], "Garrochales": [{"Name": "Garrochales", "Country Code": "PR", "Population": 1208.0, "Lat": 18.45356, "Lon": -66.56628}], "Garrovillas": [{"Name": "Garrovillas", "Country Code": "ES", "Population": 2054.0, "Lat": 39.71082, "Lon": -6.55034}], "Garrucha": [{"Name": "Garrucha", "Country Code": "ES", "Population": 6920.0, "Lat": 37.18141, "Lon": -1.82252}], "Garruchos": [{"Name": "Garruchos", "Country Code": "AR", "Population": 1152.0, "Lat": -28.17208, "Lon": -55.65406}], "Gars": [{"Name": "Gars", "Country Code": "DE", "Population": 3802.0, "Lat": 48.15386, "Lon": 12.27767}], "Gars am Kamp": [{"Name": "Gars am Kamp", "Country Code": "AT", "Population": 1907.0, "Lat": 48.59769, "Lon": 15.66073}], "Garsen": [{"Name": "Garsen", "Country Code": "KE", "Population": 7176.0, "Lat": -2.26645, "Lon": 40.10975}], "Garsington": [{"Name": "Garsington", "Country Code": "GB", "Population": 1333.0, "Lat": 51.71623, "Lon": -1.16129}], "Garstang": [{"Name": "Garstang", "Country Code": "GB", "Population": 9530.0, "Lat": 53.90081, "Lon": -2.77417}], "Garstedt": [{"Name": "Garstedt", "Country Code": "DE", "Population": 1459.0, "Lat": 53.28467, "Lon": 10.16137}], "Garsten": [{"Name": "Garsten", "Country Code": "AT", "Population": 2284.0, "Lat": 48.0224, "Lon": 14.40747}], "Garswood": [{"Name": "Garswood", "Country Code": "GB", "Population": 6183.0, "Lat": 53.48878, "Lon": -2.67224}], "Gartcosh": [{"Name": "Gartcosh", "Country Code": "GB", "Population": 2130.0, "Lat": 55.88841, "Lon": -4.0817}], "Gartenstadt": [{"Name": "Gartenstadt", "Country Code": "DE", "Population": 1969.0, "Lat": 52.23469, "Lon": 10.50574}, {"Name": "Gartenstadt", "Country Code": "DE", "Population": 5321.0, "Lat": 54.09265, "Lon": 9.96966}, {"Name": "Gartenstadt", "Country Code": "DE", "Population": 17745.0, "Lat": 49.45937, "Lon": 8.40377}], "Gartog": [{"Name": "Gartog", "Country Code": "CN", "Population": 0.0, "Lat": 29.68451, "Lon": 98.59473}], "Gartow": [{"Name": "Gartow", "Country Code": "DE", "Population": 1389.0, "Lat": 53.0247, "Lon": 11.462}], "Gartringen": [{"Name": "G\u00e4rtringen", "Country Code": "DE", "Population": 11760.0, "Lat": 48.64176, "Lon": 8.90073}], "Gartz": [{"Name": "Gartz", "Country Code": "DE", "Population": 2524.0, "Lat": 53.20829, "Lon": 14.39226}], "Garuhape": [{"Name": "Garuhap\u00e9", "Country Code": "AR", "Population": 8259.0, "Lat": -26.82116, "Lon": -54.95774}], "Garui": [{"Name": "Garui", "Country Code": "IN", "Population": 16499.0, "Lat": 22.63333, "Lon": 88.4}], "Garun Malam": [{"Name": "Garun Malam", "Country Code": "NG", "Population": 0.0, "Lat": 11.68566, "Lon": 8.36986}], "Garupa": [{"Name": "Garup\u00e1", "Country Code": "AR", "Population": 28814.0, "Lat": -27.48315, "Lon": -55.82924}], "Garut": [{"Name": "Garut", "Country Code": "ID", "Population": 0.0, "Lat": -7.2024, "Lon": 107.8878}], "Garvagh": [{"Name": "Garvagh", "Country Code": "GB", "Population": 1372.0, "Lat": 54.98333, "Lon": -6.66667}], "Garvan": [{"Name": "Garv\u0103n", "Country Code": "RO", "Population": 1429.0, "Lat": 45.3471, "Lon": 28.16187}], "Garvin": [{"Name": "Garv\u00edn", "Country Code": "ES", "Population": 104.0, "Lat": 39.71984, "Lon": -5.34678}], "Garwolin": [{"Name": "Garwolin", "Country Code": "PL", "Population": 15912.0, "Lat": 51.89747, "Lon": 21.61466}], "Garwood": [{"Name": "Garwood", "Country Code": "US", "Population": 4351.0, "Lat": 40.65177, "Lon": -74.32293}], "Gary": [{"Name": "Gary", "Country Code": "US", "Population": 77156.0, "Lat": 41.59337, "Lon": -87.34643}], "Garyp": [{"Name": "Garyp", "Country Code": "NL", "Population": 1545.0, "Lat": 53.16667, "Lon": 5.96667}], "Garyville": [{"Name": "Garyville", "Country Code": "US", "Population": 2811.0, "Lat": 30.05604, "Lon": -90.61926}], "Garz": [{"Name": "Garz", "Country Code": "DE", "Population": 1977.0, "Lat": 54.31843, "Lon": 13.35125}], "Garza": [{"Name": "Garza", "Country Code": "AR", "Population": 0.0, "Lat": -28.15294, "Lon": -63.53887}], "Garzeno": [{"Name": "Garzeno", "Country Code": "IT", "Population": 658.0, "Lat": 46.13409, "Lon": 9.24964}], "Garzigliana": [{"Name": "Garzigliana", "Country Code": "IT", "Population": 275.0, "Lat": 44.83724, "Lon": 7.37442}], "Garzon": [{"Name": "Garz\u00f3n", "Country Code": "CO", "Population": 29451.0, "Lat": 2.19593, "Lon": -75.62777}], "Gas City": [{"Name": "Gas City", "Country Code": "US", "Population": 5968.0, "Lat": 40.48726, "Lon": -85.61303}], "Gasa": [{"Name": "Gasa", "Country Code": "BT", "Population": 548.0, "Lat": 27.90372, "Lon": 89.72689}], "Gasan": [{"Name": "Gasan", "Country Code": "PH", "Population": 2228.0, "Lat": 13.32372, "Lon": 121.84675}], "Gasawa": [{"Name": "G\u0105sawa", "Country Code": "PL", "Population": 1400.0, "Lat": 52.76757, "Lon": 17.75579}], "Gasca": [{"Name": "Gasca", "Country Code": "MX", "Population": 1843.0, "Lat": 20.60444, "Lon": -100.85639}], "Gaschurn": [{"Name": "Gaschurn", "Country Code": "AT", "Population": 1091.0, "Lat": 46.98584, "Lon": 10.02702}], "Gascones": [{"Name": "Gascones", "Country Code": "ES", "Population": 178.0, "Lat": 41.01843, "Lon": -3.64217}], "Gascuena": [{"Name": "Gascue\u00f1a", "Country Code": "ES", "Population": 150.0, "Lat": 40.29937, "Lon": -2.51856}], "Gascuena de Bornova": [{"Name": "Gascue\u00f1a de Bornova", "Country Code": "ES", "Population": 54.0, "Lat": 41.14243, "Lon": -3.01924}], "Gasen": [{"Name": "Gasen", "Country Code": "AT", "Population": 125.0, "Lat": 47.38333, "Lon": 15.56667}], "Gashua": [{"Name": "Gashua", "Country Code": "NG", "Population": 125817.0, "Lat": 12.87398, "Lon": 11.04057}], "Gasny": [{"Name": "Gasny", "Country Code": "FR", "Population": 3093.0, "Lat": 49.09184, "Lon": 1.60336}], "Gasocin": [{"Name": "G\u0105socin", "Country Code": "PL", "Population": 1238.0, "Lat": 52.73754, "Lon": 20.7118}], "Gaspar": [{"Name": "Gaspar", "Country Code": "BR", "Population": 33658.0, "Lat": -26.93139, "Lon": -48.95889}, {"Name": "Gaspar", "Country Code": "CU", "Population": 0.0, "Lat": 21.73872, "Lon": -78.54434}], "Gaspar Hernandez": [{"Name": "Gaspar Hern\u00e1ndez", "Country Code": "DO", "Population": 6506.0, "Lat": 19.62748, "Lon": -70.27772}], "Gaspe": [{"Name": "Gasp\u00e9", "Country Code": "CA", "Population": 14819.0, "Lat": 48.83341, "Lon": -64.48194}], "Gasperina": [{"Name": "Gasperina", "Country Code": "IT", "Population": 1801.0, "Lat": 38.74039, "Lon": 16.50666}], "Gaspoltshofen": [{"Name": "Gaspoltshofen", "Country Code": "AT", "Population": 1313.0, "Lat": 48.14324, "Lon": 13.73643}], "Gasport": [{"Name": "Gasport", "Country Code": "US", "Population": 1248.0, "Lat": 43.19922, "Lon": -78.57614}], "Gaspra": [{"Name": "Gaspra", "Country Code": "UA", "Population": 10310.0, "Lat": 44.43364, "Lon": 34.10297}], "Gasselte": [{"Name": "Gasselte", "Country Code": "NL", "Population": 1495.0, "Lat": 52.97167, "Lon": 6.79444}], "Gasselternijveen": [{"Name": "Gasselternijveen", "Country Code": "NL", "Population": 1780.0, "Lat": 52.98833, "Lon": 6.85278}], "Gassin": [{"Name": "Gassin", "Country Code": "FR", "Population": 2949.0, "Lat": 43.22882, "Lon": 6.58549}], "Gassino Torinese": [{"Name": "Gassino Torinese", "Country Code": "IT", "Population": 8211.0, "Lat": 45.12907, "Lon": 7.82934}], "Gassol": [{"Name": "Gassol", "Country Code": "NG", "Population": 14326.0, "Lat": 8.53535, "Lon": 10.44615}], "Gassville": [{"Name": "Gassville", "Country Code": "US", "Population": 2133.0, "Lat": 36.28312, "Lon": -92.49405}], "Gasteiz / Vitoria": [{"Name": "Gasteiz / Vitoria", "Country Code": "ES", "Population": 249176.0, "Lat": 42.84998, "Lon": -2.67268}], "Gastello": [{"Name": "Gastello", "Country Code": "RU", "Population": 1042.0, "Lat": 49.10056, "Lon": 142.95917}], "Gastern": [{"Name": "Gastern", "Country Code": "AT", "Population": 347.0, "Lat": 48.89446, "Lon": 15.22027}], "Gaston": [{"Name": "Gaston", "Country Code": "US", "Population": 1658.0, "Lat": 33.8171, "Lon": -81.10093}, {"Name": "Gaston", "Country Code": "US", "Population": 1067.0, "Lat": 36.50043, "Lon": -77.64498}], "Gastonia": [{"Name": "Gastonia", "Country Code": "US", "Population": 74543.0, "Lat": 35.26208, "Lon": -81.1873}], "Gastonville": [{"Name": "Gastonville", "Country Code": "US", "Population": 2818.0, "Lat": 40.25729, "Lon": -79.99588}], "Gastouni": [{"Name": "Gasto\u00fani", "Country Code": "GR", "Population": 8114.0, "Lat": 37.85, "Lon": 21.25}], "Gastre": [{"Name": "Gastre", "Country Code": "AR", "Population": 0.0, "Lat": -42.26186, "Lon": -69.22112}], "Gasville-Oiseme": [{"Name": "Gasville-Ois\u00e8me", "Country Code": "FR", "Population": 1189.0, "Lat": 48.46973, "Lon": 1.53843}], "Gaszowice": [{"Name": "Gaszowice", "Country Code": "PL", "Population": 2861.0, "Lat": 50.10858, "Lon": 18.43042}], "Gata": [{"Name": "Gata", "Country Code": "ES", "Population": 1788.0, "Lat": 40.23758, "Lon": -6.59684}], "Gata de Gorgos": [{"Name": "Gata de Gorgos", "Country Code": "ES", "Population": 5281.0, "Lat": 38.77443, "Lon": 0.08538}], "Gataia": [{"Name": "G\u0103taia", "Country Code": "RO", "Population": 8002.0, "Lat": 45.43111, "Lon": 21.43}], "Gataivai": [{"Name": "Gataivai", "Country Code": "WS", "Population": 1141.0, "Lat": -13.7736, "Lon": -172.38802}], "Gatak": [{"Name": "Gatak", "Country Code": "ID", "Population": 48959.0, "Lat": -7.59083, "Lon": 110.70444}], "Gatbo": [{"Name": "Gatbo", "Country Code": "PH", "Population": 2385.0, "Lat": 13.58333, "Lon": 123.38333}], "Gatchina": [{"Name": "Gatchina", "Country Code": "RU", "Population": 89761.0, "Lat": 59.57639, "Lon": 30.12833}], "Gate City": [{"Name": "Gate City", "Country Code": "US", "Population": 1955.0, "Lat": 36.63788, "Lon": -82.58099}], "Gatersleben": [{"Name": "Gatersleben", "Country Code": "DE", "Population": 2589.0, "Lat": 51.82215, "Lon": 11.28661}], "Gates Mills": [{"Name": "Gates Mills", "Country Code": "US", "Population": 2235.0, "Lat": 41.51755, "Lon": -81.40345}], "Gates-North Gates": [{"Name": "Gates-North Gates", "Country Code": "US", "Population": 15138.0, "Lat": 43.16547, "Lon": -77.70066}], "Gateshead": [{"Name": "Gateshead", "Country Code": "AU", "Population": 3231.0, "Lat": -32.98208, "Lon": 151.69188}, {"Name": "Gateshead", "Country Code": "GB", "Population": 77649.0, "Lat": 54.96209, "Lon": -1.60168}], "Gatesville": [{"Name": "Gatesville", "Country Code": "US", "Population": 15724.0, "Lat": 31.43516, "Lon": -97.74391}, {"Name": "Gatesville", "Country Code": "US", "Population": 302.0, "Lat": 36.40349, "Lon": -76.75301}], "Gateway": [{"Name": "Gateway", "Country Code": "US", "Population": 5552.0, "Lat": 61.57278, "Lon": -149.24083}, {"Name": "Gateway", "Country Code": "US", "Population": 8401.0, "Lat": 26.57757, "Lon": -81.75036}], "Gatifla": [{"Name": "Gatifla", "Country Code": "CI", "Population": 1900.0, "Lat": 7.37244, "Lon": -6.51464}], "Gatika": [{"Name": "Gatika", "Country Code": "ES", "Population": 1376.0, "Lat": 43.36313, "Lon": -2.87294}], "Gatineau": [{"Name": "Gatineau", "Country Code": "CA", "Population": 242124.0, "Lat": 45.47723, "Lon": -75.70164}], "Gatlinburg": [{"Name": "Gatlinburg", "Country Code": "US", "Population": 4184.0, "Lat": 35.71453, "Lon": -83.51189}], "Gato Colorado": [{"Name": "Gato Colorado", "Country Code": "AR", "Population": 1412.0, "Lat": -28.02219, "Lon": -61.18663}], "Gaton de Campos": [{"Name": "Gat\u00f3n de Campos", "Country Code": "ES", "Population": 43.0, "Lat": 42.04984, "Lon": -4.98078}], "Gatouo I": [{"Name": "Gatouo I", "Country Code": "CI", "Population": 2032.0, "Lat": 6.75178, "Lon": -8.30086}], "Gatow": [{"Name": "Gatow", "Country Code": "DE", "Population": 3469.0, "Lat": 52.48324, "Lon": 13.18285}], "Gattaran": [{"Name": "Gattaran", "Country Code": "PH", "Population": 3613.0, "Lat": 18.06157, "Lon": 121.6441}], "Gattendorf": [{"Name": "Gattendorf", "Country Code": "AT", "Population": 1332.0, "Lat": 48.01667, "Lon": 16.98333},