{"Yecheon": [{"Name": "Yecheon", "Country Code": "KR", "Population": 0.0, "Lat": 36.6574, "Lon": 128.45514}], "Yecla": [{"Name": "Yecla", "Country Code": "ES", "Population": 35025.0, "Lat": 38.61365, "Lon": -1.11468}], "Yecla de Yeltes": [{"Name": "Yecla de Yeltes", "Country Code": "ES", "Population": 331.0, "Lat": 40.95917, "Lon": -6.48904}], "Yecora": [{"Name": "Y\u00e9cora", "Country Code": "MX", "Population": 2920.0, "Lat": 28.37154, "Lon": -108.92781}], "Yecuatla": [{"Name": "Yecuatla", "Country Code": "MX", "Population": 3048.0, "Lat": 19.86614, "Lon": -96.77836}], "Yedandiekaha": [{"Name": "Y\u00e9dandi\u00e9kaha", "Country Code": "CI", "Population": 1046.0, "Lat": 9.32717, "Lon": -4.94156}], "Yedisu": [{"Name": "Yedisu", "Country Code": "TR", "Population": 1771.0, "Lat": 39.43277, "Lon": 40.53368}], "Yeditepe": [{"Name": "Yeditepe", "Country Code": "TR", "Population": 0.0, "Lat": 35.96753, "Lon": 36.01452}], "Yedogon": [{"Name": "Yedogon", "Country Code": "RU", "Population": 1100.0, "Lat": 54.2549, "Lon": 100.2385}], "Yedrovo": [{"Name": "Yedrovo", "Country Code": "RU", "Population": 1166.0, "Lat": 57.91306, "Lon": 33.62028}], "Yeed": [{"Name": "Yeed", "Country Code": "SO", "Population": 8429.0, "Lat": 4.55, "Lon": 43.03333}], "Yeerongpilly": [{"Name": "Yeerongpilly", "Country Code": "AU", "Population": 1892.0, "Lat": -27.53097, "Lon": 153.00935}], "Yefimovskiy": [{"Name": "Yefimovskiy", "Country Code": "RU", "Population": 3622.0, "Lat": 59.49639, "Lon": 34.67222}], "Yefremov": [{"Name": "Yefremov", "Country Code": "RU", "Population": 45497.0, "Lat": 53.13762, "Lon": 38.11856}], "Yeghegis": [{"Name": "Yeghegis", "Country Code": "AM", "Population": 1045.0, "Lat": 39.87231, "Lon": 45.3501}], "Yeghegnadzor": [{"Name": "Yeghegnadzor", "Country Code": "AM", "Population": 8200.0, "Lat": 39.76389, "Lon": 45.33239}], "Yeghegnavan": [{"Name": "Yeghegnavan", "Country Code": "AM", "Population": 1221.0, "Lat": 39.83893, "Lon": 44.61951}], "Yeghegnut": [{"Name": "Yeghegnut", "Country Code": "AM", "Population": 1746.0, "Lat": 40.08893, "Lon": 44.16669}, {"Name": "Yeghegnut", "Country Code": "AM", "Population": 1154.0, "Lat": 40.90302, "Lon": 44.63155}], "Yeghvard": [{"Name": "Yeghvard", "Country Code": "AM", "Population": 10705.0, "Lat": 40.32507, "Lon": 44.48608}], "Yegole": [{"Name": "Y\u00e9gol\u00e9", "Country Code": "CI", "Population": 1219.0, "Lat": 7.7487, "Lon": -7.70508}], "Yegor'yevsk": [{"Name": "Yegor\u2019yevsk", "Country Code": "RU", "Population": 85200.0, "Lat": 55.37952, "Lon": 39.04122}], "Yegorlykskaya": [{"Name": "Yegorlykskaya", "Country Code": "RU", "Population": 17978.0, "Lat": 46.56564, "Lon": 40.65621}], "Yegyi": [{"Name": "Yegyi", "Country Code": "GH", "Population": 30311.0, "Lat": 8.22542, "Lon": -0.64889}], "Yehualtepec": [{"Name": "Yehualtepec", "Country Code": "MX", "Population": 6903.0, "Lat": 18.79518, "Lon": -97.6616}], "Yehud": [{"Name": "Yehud", "Country Code": "IL", "Population": 25600.0, "Lat": 32.03317, "Lon": 34.89091}], "Yehud-Monosson": [{"Name": "Yehud-Monosson", "Country Code": "IL", "Population": 29312.0, "Lat": 32.0284, "Lon": 34.8796}], "Yei": [{"Name": "Yei", "Country Code": "SS", "Population": 260720.0, "Lat": 4.09444, "Lon": 30.67639}], "Yekaterinburg": [{"Name": "Yekaterinburg", "Country Code": "RU", "Population": 1495066.0, "Lat": 56.8519, "Lon": 60.6122}], "Yekaterinoslavka": [{"Name": "Yekaterinoslavka", "Country Code": "RU", "Population": 10178.0, "Lat": 50.37344, "Lon": 129.10957}], "Yekaterinovka": [{"Name": "Yekaterinovka", "Country Code": "RU", "Population": 3555.0, "Lat": 42.92525, "Lon": 133.04922}, {"Name": "Yekaterinovka", "Country Code": "RU", "Population": 6435.0, "Lat": 52.05083, "Lon": 44.34515}], "Yekimovichi": [{"Name": "Yekimovichi", "Country Code": "RU", "Population": 1534.0, "Lat": 54.11285, "Lon": 33.29648}], "Yekolo": [{"Name": "Y\u00e9kolo", "Country Code": "CI", "Population": 1823.0, "Lat": 8.17855, "Lon": -4.91446}], "Yel'digino": [{"Name": "Yel\u2019digino", "Country Code": "RU", "Population": 2100.0, "Lat": 56.11667, "Lon": 37.81667}], "Yel'nya": [{"Name": "Yel\u2019nya", "Country Code": "RU", "Population": 10050.0, "Lat": 54.57735, "Lon": 33.18474}], "Yel'sk": [{"Name": "Yel\u2019sk", "Country Code": "BY", "Population": 0.0, "Lat": 51.8141, "Lon": 29.1522}], "Yelabuga": [{"Name": "Yelabuga", "Country Code": "RU", "Population": 72643.0, "Lat": 55.76127, "Lon": 52.06493}], "Yelahanka": [{"Name": "Yelahanka", "Country Code": "IN", "Population": 116447.0, "Lat": 13.10073, "Lon": 77.59632}], "Yelamos de Abajo": [{"Name": "Y\u00e9lamos de Abajo", "Country Code": "ES", "Population": 81.0, "Lat": 40.63092, "Lon": -2.85803}], "Yelamos de Arriba": [{"Name": "Y\u00e9lamos de Arriba", "Country Code": "ES", "Population": 119.0, "Lat": 40.64008, "Lon": -2.8434}], "Yelan'": [{"Name": "Yelan\u2019", "Country Code": "RU", "Population": 15181.0, "Lat": 50.949, "Lon": 43.73781}], "Yelan'-Koleno": [{"Name": "Yelan\u2019-Koleno", "Country Code": "RU", "Population": 5270.0, "Lat": 51.1523, "Lon": 41.2306}], "Yelan'-Kolenovskiy": [{"Name": "Yelan\u2019-Kolenovskiy", "Country Code": "RU", "Population": 4112.0, "Lat": 51.1632, "Lon": 41.151}], "Yelandur": [{"Name": "Yeland\u016br", "Country Code": "IN", "Population": 8901.0, "Lat": 12.04629, "Lon": 77.03034}], "Yelanets": [{"Name": "Yelanets", "Country Code": "UA", "Population": 4838.0, "Lat": 47.69521, "Lon": 31.85222}], "Yelanskiy": [{"Name": "Yelanskiy", "Country Code": "RU", "Population": 8653.0, "Lat": 56.8419, "Lon": 62.5014}], "Yelantsy": [{"Name": "Yelantsy", "Country Code": "RU", "Population": 4009.0, "Lat": 52.80286, "Lon": 106.40466}], "Yelat'ma": [{"Name": "Yelat\u2019ma", "Country Code": "RU", "Population": 3700.0, "Lat": 54.9675, "Lon": 41.75083}], "Yelbarga": [{"Name": "Yelbarga", "Country Code": "IN", "Population": 12023.0, "Lat": 15.61545, "Lon": 76.01184}], "Yele": [{"Name": "Y\u00e9l\u00e9", "Country Code": "CI", "Population": 2252.0, "Lat": 9.9598, "Lon": -6.21842}], "Yeles": [{"Name": "Yeles", "Country Code": "ES", "Population": 2967.0, "Lat": 40.12035, "Lon": -3.80487}], "Yelets": [{"Name": "Yelets", "Country Code": "RU", "Population": 115688.0, "Lat": 52.61435, "Lon": 38.50935}], "Yeleu": [{"Name": "Y\u00e9leu", "Country Code": "CI", "Population": 4416.0, "Lat": 6.97093, "Lon": -8.05105}], "Yeliguan": [{"Name": "Yeliguan", "Country Code": "CN", "Population": 10066.0, "Lat": 34.9644, "Lon": 103.66049}], "Yelimane": [{"Name": "Y\u00e9liman\u00e9", "Country Code": "ML", "Population": 0.0, "Lat": 15.11868, "Lon": -10.57729}], "Yelin": [{"Name": "Yelin", "Country Code": "CN", "Population": 0.0, "Lat": 18.52099, "Lon": 110.0397}], "Yelizavetinka": [{"Name": "Yelizavetinka", "Country Code": "RU", "Population": 1591.0, "Lat": 51.76732, "Lon": 59.74245}], "Yelizavetino": [{"Name": "Yelizavetino", "Country Code": "RU", "Population": 3037.0, "Lat": 59.49173, "Lon": 29.78153}], "Yelizavetinskaya": [{"Name": "Yelizavetinskaya", "Country Code": "RU", "Population": 19306.0, "Lat": 45.04616, "Lon": 38.79491}], "Yelizavetinskoye": [{"Name": "Yelizavetinskoye", "Country Code": "RU", "Population": 3316.0, "Lat": 45.00722, "Lon": 43.34944}], "Yelizovo": [{"Name": "Yelizovo", "Country Code": "RU", "Population": 40692.0, "Lat": 53.18909, "Lon": 158.38135}], "Yelkhovka": [{"Name": "Yelkhovka", "Country Code": "RU", "Population": 3142.0, "Lat": 53.86668, "Lon": 50.28319}], "Yelkino": [{"Name": "Y\u00eblkino", "Country Code": "RU", "Population": 1200.0, "Lat": 58.6922, "Lon": 59.832}], "Yellandu": [{"Name": "Yellandu", "Country Code": "IN", "Population": 43787.0, "Lat": 17.59064, "Lon": 80.32146}], "Yellapur": [{"Name": "Yell\u0101pur", "Country Code": "IN", "Population": 19343.0, "Lat": 14.9637, "Lon": 74.70929}], "Yellow Springs": [{"Name": "Yellow Springs", "Country Code": "US", "Population": 3793.0, "Lat": 39.80645, "Lon": -83.88687}], "Yellowknife": [{"Name": "Yellowknife", "Country Code": "CA", "Population": 20340.0, "Lat": 62.45411, "Lon": -114.37248}], "Yellville": [{"Name": "Yellville", "Country Code": "US", "Population": 1169.0, "Lat": 36.22618, "Lon": -92.68489}], "Yelm": [{"Name": "Yelm", "Country Code": "US", "Population": 8434.0, "Lat": 46.94204, "Lon": -122.60596}], "Yelo": [{"Name": "Yelo", "Country Code": "ES", "Population": 57.0, "Lat": 41.21667, "Lon": -2.51667}], "Yelovo": [{"Name": "Yelovo", "Country Code": "RU", "Population": 5570.0, "Lat": 57.05381, "Lon": 54.9207}], "Yelshanka": [{"Name": "Yelshanka", "Country Code": "RU", "Population": 2372.0, "Lat": 51.81389, "Lon": 46.39972}], "Yelverton": [{"Name": "Yelverton", "Country Code": "GB", "Population": 3627.0, "Lat": 50.4929, "Lon": -4.08382}], "Yelwa": [{"Name": "Yelwa", "Country Code": "NG", "Population": 0.0, "Lat": 10.83505, "Lon": 4.74244}, {"Name": "Yelwa", "Country Code": "NG", "Population": 13234.0, "Lat": 8.83333, "Lon": 9.63333}], "Yelyzavethradka": [{"Name": "Yelyzavethradka", "Country Code": "UA", "Population": 1205.0, "Lat": 48.80085, "Lon": 32.40433}], "Yemanzhelinka": [{"Name": "Yemanzhelinka", "Country Code": "RU", "Population": 4117.0, "Lat": 54.801, "Lon": 61.2989}], "Yemanzhelinsk": [{"Name": "Yemanzhelinsk", "Country Code": "RU", "Population": 29849.0, "Lat": 54.75472, "Lon": 61.32083}], "Yemeda": [{"Name": "Y\u00e9meda", "Country Code": "ES", "Population": 26.0, "Lat": 39.76667, "Lon": -1.71667}], "Yemel'yanovo": [{"Name": "Yemel\u2019yanovo", "Country Code": "RU", "Population": 10800.0, "Lat": 56.16776, "Lon": 92.67539}], "Yemelyanovka": [{"Name": "Yemelyanovka", "Country Code": "UA", "Population": 1374.0, "Lat": 45.53287, "Lon": 34.89624}], "Yemetsk": [{"Name": "Yemetsk", "Country Code": "RU", "Population": 12000.0, "Lat": 63.47191, "Lon": 41.78023}], "Yemilchyne": [{"Name": "Yemilchyne", "Country Code": "UA", "Population": 0.0, "Lat": 50.87349, "Lon": 27.80604}], "Yemisli": [{"Name": "Yemi\u015fli", "Country Code": "TR", "Population": 2011.0, "Lat": 37.3686, "Lon": 43.07774}], "Yemtsa": [{"Name": "Yemtsa", "Country Code": "RU", "Population": 1441.0, "Lat": 63.07337, "Lon": 40.33285}], "Yemva": [{"Name": "Yemva", "Country Code": "RU", "Population": 16404.0, "Lat": 62.58999, "Lon": 50.85939}], "Yen Bai": [{"Name": "Y\u00ean B\u00e1i", "Country Code": "VN", "Population": 96540.0, "Lat": 21.72288, "Lon": 104.9113}], "Yen Binh": [{"Name": "Y\u00ean B\u00ecnh", "Country Code": "VN", "Population": 0.0, "Lat": 22.40989, "Lon": 104.57949}], "Yen Cat": [{"Name": "Y\u00ean C\u00e1t", "Country Code": "VN", "Population": 0.0, "Lat": 19.66327, "Lon": 105.42854}], "Yen Chau": [{"Name": "Y\u00ean Ch\u00e2u", "Country Code": "VN", "Population": 0.0, "Lat": 21.04584, "Lon": 104.30101}], "Yen GJinh": [{"Name": "Y\u00ean \u0110\u1ecbnh", "Country Code": "VN", "Population": 0.0, "Lat": 20.20145, "Lon": 106.29578}], "Yen Lac": [{"Name": "Y\u1ebfn L\u1ea1c", "Country Code": "VN", "Population": 0.0, "Lat": 22.23693, "Lon": 106.18149}, {"Name": "Y\u00ean L\u1ea1c", "Country Code": "VN", "Population": 0.0, "Lat": 21.23646, "Lon": 105.57297}], "Yen Lap": [{"Name": "Y\u00ean L\u1eadp", "Country Code": "VN", "Population": 0.0, "Lat": 21.34705, "Lon": 105.05739}], "Yen My": [{"Name": "Y\u00ean M\u1ef9", "Country Code": "VN", "Population": 0.0, "Lat": 20.88557, "Lon": 106.0356}], "Yen Ninh": [{"Name": "Y\u00ean Ninh", "Country Code": "VN", "Population": 0.0, "Lat": 20.18396, "Lon": 106.06121}], "Yen Phu": [{"Name": "Y\u00ean Ph\u00fa", "Country Code": "VN", "Population": 0.0, "Lat": 22.73223, "Lon": 105.37145}], "Yen Thanh": [{"Name": "Y\u00ean Th\u00e0nh", "Country Code": "VN", "Population": 0.0, "Lat": 18.99856, "Lon": 105.47116}], "Yen Thinh": [{"Name": "Y\u00ean Th\u1ecbnh", "Country Code": "VN", "Population": 0.0, "Lat": 20.16245, "Lon": 106.00697}], "Yen Vinh": [{"Name": "Y\u00ean Vinh", "Country Code": "VN", "Population": 107082.0, "Lat": 18.66667, "Lon": 105.66667}], "Yenagoa": [{"Name": "Yenagoa", "Country Code": "NG", "Population": 365000.0, "Lat": 4.92675, "Lon": 6.26764}], "Yenakiieve": [{"Name": "Yenakiieve", "Country Code": "UA", "Population": 76673.0, "Lat": 48.23331, "Lon": 38.21137}], "Yenangyaung": [{"Name": "Yenangyaung", "Country Code": "MM", "Population": 110553.0, "Lat": 20.46504, "Lon": 94.8712}], "Yenda": [{"Name": "Yenda", "Country Code": "AU", "Population": 1488.0, "Lat": -34.24525, "Lon": 146.20273}], "Yendi": [{"Name": "Yendi", "Country Code": "GH", "Population": 64676.0, "Lat": 9.44272, "Lon": -0.00991}], "Yengema": [{"Name": "Yengema", "Country Code": "SL", "Population": 13358.0, "Lat": 8.71441, "Lon": -11.17057}], "Yengibag": [{"Name": "Yengibag", "Country Code": "CN", "Population": 9070.0, "Lat": 36.96583, "Lon": 81.67833}], "Yengitam": [{"Name": "Yengitam", "Country Code": "CN", "Population": 24761.0, "Lat": 43.74583, "Lon": 81.65694}], "Yeni Suraxani": [{"Name": "Yeni Suraxan\u0131", "Country Code": "AZ", "Population": 16127.0, "Lat": 40.43026, "Lon": 50.03598}], "Yenibasak": [{"Name": "Yeniba\u015fak", "Country Code": "TR", "Population": 0.0, "Lat": 38.80414, "Lon": 40.99222}], "Yenicaga": [{"Name": "Yeni\u00e7a\u011fa", "Country Code": "TR", "Population": 6852.0, "Lat": 40.77115, "Lon": 32.03375}], "Yenice": [{"Name": "Yenice", "Country Code": "TR", "Population": 3672.0, "Lat": 40.08778, "Lon": 29.42194}, {"Name": "Yenice", "Country Code": "TR", "Population": 0.0, "Lat": 36.97744, "Lon": 35.05197}, {"Name": "Yenice", "Country Code": "TR", "Population": 0.0, "Lat": 41.19962, "Lon": 32.33133}, {"Name": "Yenice", "Country Code": "TR", "Population": 3708.0, "Lat": 39.76089, "Lon": 28.90729}, {"Name": "Yenice", "Country Code": "TR", "Population": 0.0, "Lat": 37.82837, "Lon": 28.57115}, {"Name": "Yenice", "Country Code": "TR", "Population": 0.0, "Lat": 39.27528, "Lon": 32.68028}, {"Name": "Yenice", "Country Code": "TR", "Population": 0.0, "Lat": 39.93083, "Lon": 27.25806}], "Yenicekale": [{"Name": "Yenicekale", "Country Code": "TR", "Population": 0.0, "Lat": 37.59874, "Lon": 36.63264}], "Yeniceoba": [{"Name": "Yeniceoba", "Country Code": "TR", "Population": 0.0, "Lat": 38.86972, "Lon": 32.78833}], "Yenifakili": [{"Name": "Yenifak\u0131l\u0131", "Country Code": "TR", "Population": 11470.0, "Lat": 39.21142, "Lon": 35.00036}], "Yenifoca": [{"Name": "Yenifo\u00e7a", "Country Code": "TR", "Population": 3742.0, "Lat": 38.73333, "Lon": 26.83333}], "Yenikonak": [{"Name": "Yenikonak", "Country Code": "TR", "Population": 0.0, "Lat": 41.87319, "Lon": 34.60308}], "Yenikoy": [{"Name": "Yenik\u00f6y", "Country Code": "TR", "Population": 3269.0, "Lat": 37.88042, "Lon": 41.05004}, {"Name": "Yenik\u00f6y", "Country Code": "TR", "Population": 0.0, "Lat": 39.77874, "Lon": 28.00299}, {"Name": "Yenik\u00f6y", "Country Code": "TR", "Population": 4352.0, "Lat": 40.53568, "Lon": 29.35364}, {"Name": "Yenik\u00f6y", "Country Code": "TR", "Population": 1104.0, "Lat": 37.27069, "Lon": 42.42348}], "Yenimehmetli": [{"Name": "Yenimehmetli", "Country Code": "TR", "Population": 0.0, "Lat": 39.42, "Lon": 32.16889}], "Yenipazar": [{"Name": "Yenipazar", "Country Code": "TR", "Population": 1293.0, "Lat": 40.17833, "Lon": 30.52}, {"Name": "Yenipazar", "Country Code": "TR", "Population": 6513.0, "Lat": 37.82332, "Lon": 28.19573}, {"Name": "Yenipazar", "Country Code": "TR", "Population": 0.0, "Lat": 39.46361, "Lon": 35.08306}], "Yenipinar": [{"Name": "Yenip\u0131nar", "Country Code": "TR", "Population": 1100.0, "Lat": 37.84291, "Lon": 41.30137}], "Yenisakran": [{"Name": "Yeni\u015fakran", "Country Code": "TR", "Population": 3552.0, "Lat": 38.88639, "Lon": 27.06694}], "Yenisarbademli": [{"Name": "Yeni\u015farbademli", "Country Code": "TR", "Population": 5198.0, "Lat": 37.70778, "Lon": 31.38639}], "Yenisehir": [{"Name": "Yeni\u015fehir", "Country Code": "TR", "Population": 28656.0, "Lat": 40.26444, "Lon": 29.65306}, {"Name": "Yeni\u015fehir", "Country Code": "TR", "Population": 0.0, "Lat": 37.94146, "Lon": 40.13801}], "Yeniseysk": [{"Name": "Yeniseysk", "Country Code": "RU", "Population": 19920.0, "Lat": 58.44937, "Lon": 92.17968}], "Yenisu": [{"Name": "Yenisu", "Country Code": "TR", "Population": 0.0, "Lat": 38.75201, "Lon": 40.87571}], "Yeniugou": [{"Name": "Yeniugou", "Country Code": "CN", "Population": 2747.0, "Lat": 38.42731, "Lon": 99.51866}], "Yenne": [{"Name": "Yenne", "Country Code": "FR", "Population": 2816.0, "Lat": 45.7042, "Lon": 5.75795}], "Yennora": [{"Name": "Yennora", "Country Code": "AU", "Population": 1608.0, "Lat": -33.86173, "Lon": 150.96865}], "Yenotayevka": [{"Name": "Yenotayevka", "Country Code": "RU", "Population": 7985.0, "Lat": 47.24332, "Lon": 47.02898}], "Yeoju": [{"Name": "Yeoju", "Country Code": "KR", "Population": 37490.0, "Lat": 37.29583, "Lon": 127.63389}], "Yeola": [{"Name": "Yeola", "Country Code": "IN", "Population": 46762.0, "Lat": 20.0424, "Lon": 74.48944}], "Yeomsan": [{"Name": "Yeomsan", "Country Code": "KR", "Population": 0.0, "Lat": 35.21831, "Lon": 126.37194}], "Yeoncheon": [{"Name": "Yeoncheon", "Country Code": "KR", "Population": 0.0, "Lat": 38.10113, "Lon": 127.07727}], "Yeongam": [{"Name": "Yeongam", "Country Code": "KR", "Population": 55000.0, "Lat": 34.80059, "Lon": 126.69669}], "Yeongdeok": [{"Name": "Yeongdeok", "Country Code": "KR", "Population": 0.0, "Lat": 36.41366, "Lon": 129.37}], "Yeongdong": [{"Name": "Yeongdong", "Country Code": "KR", "Population": 24154.0, "Lat": 36.175, "Lon": 127.77639}], "Yeonggwang": [{"Name": "Yeonggwang", "Country Code": "KR", "Population": 19909.0, "Lat": 35.27814, "Lon": 126.51181}], "Yeongju": [{"Name": "Yeongju", "Country Code": "KR", "Population": 84625.0, "Lat": 36.82167, "Lon": 128.63083}], "Yeonil": [{"Name": "Yeonil", "Country Code": "KR", "Population": 34560.0, "Lat": 36.00446, "Lon": 129.3185}], "Yeosu": [{"Name": "Yeosu", "Country Code": "KR", "Population": 295538.0, "Lat": 34.76062, "Lon": 127.66215}], "Yeouli": [{"Name": "Y\u00e9ouli", "Country Code": "CI", "Population": 1026.0, "Lat": 4.52293, "Lon": -7.5577}], "Yeovil": [{"Name": "Yeovil", "Country Code": "GB", "Population": 45784.0, "Lat": 50.94159, "Lon": -2.63211}], "Yepes": [{"Name": "Yepes", "Country Code": "ES", "Population": 4752.0, "Lat": 39.90199, "Lon": -3.62517}], "Yepifan'": [{"Name": "Yepifan\u2019", "Country Code": "RU", "Population": 2310.0, "Lat": 53.82526, "Lon": 38.55181}], "Yepleu": [{"Name": "Y\u00e9pleu", "Country Code": "CI", "Population": 1250.0, "Lat": 7.23882, "Lon": -8.2685}, {"Name": "Y\u00e9pleu", "Country Code": "CI", "Population": 3244.0, "Lat": 7.7191, "Lon": -7.82147}], "Yepocapa": [{"Name": "Yepocapa", "Country Code": "GT", "Population": 34948.0, "Lat": 14.50195, "Lon": -90.95396}], "Yeppoon": [{"Name": "Yeppoon", "Country Code": "AU", "Population": 7037.0, "Lat": -23.12683, "Lon": 150.74406}], "Yeppoon city centre": [{"Name": "Yeppoon city centre", "Country Code": "AU", "Population": 6436.0, "Lat": -23.1295, "Lon": 150.73639}], "Yeranos": [{"Name": "Yeranos", "Country Code": "AM", "Population": 4233.0, "Lat": 40.20428, "Lon": 45.19209}], "Yeraskhahun": [{"Name": "Yeraskhahun", "Country Code": "AM", "Population": 1346.0, "Lat": 40.07233, "Lon": 44.21948}], "Yerazgavors": [{"Name": "Yerazgavors", "Country Code": "AM", "Population": 1285.0, "Lat": 40.69505, "Lon": 43.74722}], "Yerba Buena": [{"Name": "Yerba Buena", "Country Code": "AR", "Population": 50783.0, "Lat": -26.81298, "Lon": -65.29543}], "Yerbabuena": [{"Name": "Yerbabuena", "Country Code": "MX", "Population": 8399.0, "Lat": 20.96319, "Lon": -101.27448}, {"Name": "Yerbabuena", "Country Code": "MX", "Population": 1110.0, "Lat": 21.68586, "Lon": -100.76728}], "Yerbogachen": [{"Name": "Yerbogachen", "Country Code": "RU", "Population": 2019.0, "Lat": 61.28016, "Lon": 108.01535}], "Yerebaye": [{"Name": "Y\u00e9r\u00e9baye", "Country Code": "CI", "Population": 4289.0, "Lat": 8.34553, "Lon": -2.81344}], "Yeretiele": [{"Name": "Y\u00e9r\u00e9ti\u00e9l\u00e9", "Country Code": "CI", "Population": 1488.0, "Lat": 9.12295, "Lon": -6.36463}], "Yerevan": [{"Name": "Yerevan", "Country Code": "AM", "Population": 1093485.0, "Lat": 40.18111, "Lon": 44.51361}], "Yereymentau": [{"Name": "Yereymentau", "Country Code": "KZ", "Population": 14169.0, "Lat": 51.62364, "Lon": 73.10265}], "Yerington": [{"Name": "Yerington", "Country Code": "US", "Population": 3064.0, "Lat": 38.98575, "Lon": -119.16293}], "Yerkesik": [{"Name": "Yerkesik", "Country Code": "TR", "Population": 0.0, "Lat": 37.13625, "Lon": 28.28403}], "Yerkoy": [{"Name": "Yerk\u00f6y", "Country Code": "TR", "Population": 35294.0, "Lat": 39.63806, "Lon": 34.46722}], "Yerky": [{"Name": "Yerky", "Country Code": "UA", "Population": 3893.0, "Lat": 48.98606, "Lon": 30.99579}], "Yermakovo": [{"Name": "Yermakovo", "Country Code": "UA", "Population": 909.0, "Lat": 45.85364, "Lon": 34.48644}], "Yermakovskoye": [{"Name": "Yermakovskoye", "Country Code": "RU", "Population": 8910.0, "Lat": 53.27545, "Lon": 92.40021}], "Yermekeyevo": [{"Name": "Yermekeyevo", "Country Code": "RU", "Population": 4214.0, "Lat": 54.07614, "Lon": 53.67125}], "Yermish'": [{"Name": "Yermish\u2019", "Country Code": "RU", "Population": 4598.0, "Lat": 54.76847, "Lon": 42.26738}], "Yermolayevo": [{"Name": "Yermolayevo", "Country Code": "RU", "Population": 6354.0, "Lat": 52.71667, "Lon": 55.8}], "Yermolino": [{"Name": "Yermolino", "Country Code": "RU", "Population": 10100.0, "Lat": 55.19489, "Lon": 36.59513}, {"Name": "Yermolino", "Country Code": "RU", "Population": 1334.0, "Lat": 56.14887, "Lon": 37.49112}], "Yerofey Pavlovich": [{"Name": "Yerofey Pavlovich", "Country Code": "RU", "Population": 5409.0, "Lat": 53.96305, "Lon": 121.95805}], "Yeroham": [{"Name": "Yero\u1e96am", "Country Code": "IL", "Population": 10294.0, "Lat": 30.98822, "Lon": 34.93176}], "Yeronga": [{"Name": "Yeronga", "Country Code": "AU", "Population": 6364.0, "Lat": -27.51571, "Lon": 153.01642}], "Yerres": [{"Name": "Yerres", "Country Code": "FR", "Population": 28897.0, "Lat": 48.71785, "Lon": 2.49338}], "Yerri": [{"Name": "Yerri", "Country Code": "ES", "Population": 1436.0, "Lat": 42.70161, "Lon": -1.93806}], "Yerrinbool": [{"Name": "Yerrinbool", "Country Code": "AU", "Population": 1146.0, "Lat": -34.36884, "Lon": 150.53848}], "Yerseke": [{"Name": "Yerseke", "Country Code": "NL", "Population": 6541.0, "Lat": 51.4925, "Lon": 4.05}], "Yershichi": [{"Name": "Yershichi", "Country Code": "RU", "Population": 3239.0, "Lat": 53.6727, "Lon": 32.75484}], "Yershov": [{"Name": "Yershov", "Country Code": "RU", "Population": 23681.0, "Lat": 51.3513, "Lon": 48.2766}], "Yershovo": [{"Name": "Yershovo", "Country Code": "RU", "Population": 9367.0, "Lat": 55.76911, "Lon": 36.85929}], "Yertarskiy": [{"Name": "Yertarskiy", "Country Code": "RU", "Population": 1612.0, "Lat": 56.79016, "Lon": 64.29952}], "Yertsevo": [{"Name": "Yertsevo", "Country Code": "RU", "Population": 3860.0, "Lat": 60.7966, "Lon": 40.086}], "Yerville": [{"Name": "Yerville", "Country Code": "FR", "Population": 2220.0, "Lat": 49.6672, "Lon": 0.89594}], "Yesa": [{"Name": "Yesa", "Country Code": "ES", "Population": 259.0, "Lat": 42.62025, "Lon": -1.2036}], "Yesan": [{"Name": "Yesan", "Country Code": "KR", "Population": 39409.0, "Lat": 36.67756, "Lon": 126.84272}], "Yesero": [{"Name": "Y\u00e9sero", "Country Code": "ES", "Population": 76.0, "Lat": 42.61911, "Lon": -0.2502}], "Yesilalan": [{"Name": "Ye\u015filalan", "Country Code": "TR", "Population": 3791.0, "Lat": 37.46319, "Lon": 40.78723}], "Yesilce": [{"Name": "Ye\u015filce", "Country Code": "TR", "Population": 0.0, "Lat": 40.53577, "Lon": 37.79566}], "Yesildere": [{"Name": "Ye\u015fildere", "Country Code": "TR", "Population": 2701.0, "Lat": 36.973, "Lon": 37.49488}, {"Name": "Ye\u015fildere", "Country Code": "TR", "Population": 0.0, "Lat": 37.15668, "Lon": 33.51447}], "Yesilhisar": [{"Name": "Ye\u015filhisar", "Country Code": "TR", "Population": 14354.0, "Lat": 38.35232, "Lon": 35.08873}], "Yesilli": [{"Name": "Ye\u015filli", "Country Code": "TR", "Population": 32072.0, "Lat": 37.33813, "Lon": 40.81739}], "Yesilova": [{"Name": "Ye\u015filova", "Country Code": "TR", "Population": 6777.0, "Lat": 37.50806, "Lon": 29.75472}, {"Name": "Ye\u015filova", "Country Code": "TR", "Population": 0.0, "Lat": 38.4095, "Lon": 33.83804}], "Yesiluzumlu": [{"Name": "Ye\u015fil\u00fcz\u00fcml\u00fc", "Country Code": "TR", "Population": 0.0, "Lat": 36.73361, "Lon": 29.23333}], "Yesilvadi": [{"Name": "Ye\u015filvadi", "Country Code": "TR", "Population": 0.0, "Lat": 41.123, "Lon": 29.47696}], "Yesilyazi": [{"Name": "Ye\u015filyaz\u0131", "Country Code": "TR", "Population": 0.0, "Lat": 39.33473, "Lon": 39.08122}], "Yesilyurt": [{"Name": "Ye\u015filyurt", "Country Code": "TR", "Population": 13766.0, "Lat": 38.29602, "Lon": 38.24526}, {"Name": "Ye\u015filyurt", "Country Code": "TR", "Population": 0.0, "Lat": 40.0064, "Lon": 36.22069}, {"Name": "Ye\u015filyurt", "Country Code": "TR", "Population": 0.0, "Lat": 37.19324, "Lon": 28.27537}, {"Name": "Ye\u015filyurt", "Country Code": "TR", "Population": 0.0, "Lat": 38.33972, "Lon": 28.66444}, {"Name": "Ye\u015filyurt", "Country Code": "TR", "Population": 6860.0, "Lat": 40.32786, "Lon": 36.35144}], "Yessentuki": [{"Name": "Yessentuki", "Country Code": "RU", "Population": 81015.0, "Lat": 44.04826, "Lon": 42.85638}], "Yessentukskaya": [{"Name": "Yessentukskaya", "Country Code": "RU", "Population": 19956.0, "Lat": 44.02583, "Lon": 42.87491}], "Yeste": [{"Name": "Yeste", "Country Code": "ES", "Population": 3580.0, "Lat": 38.36852, "Lon": -2.31756}], "Yesud HaMa'ala": [{"Name": "Yesud HaMa\u2018ala", "Country Code": "IL", "Population": 1730.0, "Lat": 33.0592, "Lon": 35.61033}], "Yetkul'": [{"Name": "Yetkul\u2019", "Country Code": "RU", "Population": 6163.0, "Lat": 54.8221, "Lon": 61.588}], "Yetla": [{"Name": "Yetla", "Country Code": "MX", "Population": 1363.0, "Lat": 16.99355, "Lon": -100.00328}], "Yetla de Juarez": [{"Name": "Yetla de Ju\u00e1rez", "Country Code": "MX", "Population": 1258.0, "Lat": 17.66559, "Lon": -97.99124}], "Yetlancingo": [{"Name": "Yetlancingo", "Country Code": "MX", "Population": 1169.0, "Lat": 17.7213, "Lon": -99.11538}], "Yetminster": [{"Name": "Yetminster", "Country Code": "GB", "Population": 1105.0, "Lat": 50.89579, "Lon": -2.57959}], "Yeung Uk Tsuen": [{"Name": "Yeung Uk Tsuen", "Country Code": "HK", "Population": 16236.0, "Lat": 22.45, "Lon": 114.01667}], "Yevhenivka": [{"Name": "Yevhenivka", "Country Code": "UA", "Population": 1176.0, "Lat": 47.08707, "Lon": 32.90293}], "Yevlakh": [{"Name": "Yevlakh", "Country Code": "AZ", "Population": 127400.0, "Lat": 40.61832, "Lon": 47.15014}], "Yevpatoriya": [{"Name": "Yevpatoriya", "Country Code": "UA", "Population": 106202.0, "Lat": 45.20091, "Lon": 33.36655}], "Yevres": [{"Name": "Y\u00e8vres", "Country Code": "FR", "Population": 1778.0, "Lat": 48.21078, "Lon": 1.18717}], "Yextla": [{"Name": "Yextla", "Country Code": "MX", "Population": 3242.0, "Lat": 17.60446, "Lon": -99.93446}], "Yeysk": [{"Name": "Yeysk", "Country Code": "RU", "Population": 87814.0, "Lat": 46.7055, "Lon": 38.2739}], "Yeyskoye Ukrepleniye": [{"Name": "Yeyskoye Ukrepleniye", "Country Code": "RU", "Population": 2000.0, "Lat": 46.70675, "Lon": 38.61348}], "Yeyuan": [{"Name": "Yeyuan", "Country Code": "CN", "Population": 97936.0, "Lat": 36.41667, "Lon": 118.5}], "Yezhou": [{"Name": "Yezhou", "Country Code": "CN", "Population": 104839.0, "Lat": 30.60369, "Lon": 109.72333}], "Yezimala": [{"Name": "Y\u00e9zimala", "Country Code": "CI", "Population": 3484.0, "Lat": 8.20664, "Lon": -2.94812}], "Yezupil": [{"Name": "Yezupil", "Country Code": "UA", "Population": 2792.0, "Lat": 49.04154, "Lon": 24.78102}], "Yffiniac": [{"Name": "Yffiniac", "Country Code": "FR", "Population": 4392.0, "Lat": 48.48479, "Lon": -2.67757}], "Ygos-Saint-Saturnin": [{"Name": "Ygos-Saint-Saturnin", "Country Code": "FR", "Population": 1223.0, "Lat": 43.97651, "Lon": -0.7378}], "Yguazu": [{"Name": "Yguaz\u00fa", "Country Code": "PY", "Population": 3363.0, "Lat": -25.46096, "Lon": -55.00489}], "Yhu": [{"Name": "Yh\u00fa", "Country Code": "PY", "Population": 2092.0, "Lat": -25.05784, "Lon": -55.92267}], "Yi Xian": [{"Name": "Yi Xian", "Country Code": "CN", "Population": 0.0, "Lat": 39.35372, "Lon": 115.49601}], "Yi'an": [{"Name": "Yi\u2019an", "Country Code": "CN", "Population": 0.0, "Lat": 47.89116, "Lon": 125.2996}], "Yi-ngo": [{"Name": "Yi-ngo", "Country Code": "TH", "Population": 0.0, "Lat": 6.40297, "Lon": 101.70625}], "Yibeljoj": [{"Name": "Yibeljoj", "Country Code": "MX", "Population": 1286.0, "Lat": 16.9575, "Lon": -92.50361}], "Yibin": [{"Name": "Yibin", "Country Code": "CN", "Population": 836340.0, "Lat": 28.7593, "Lon": 104.63994}], "Yichang": [{"Name": "Yichang", "Country Code": "CN", "Population": 1350150.0, "Lat": 30.71444, "Lon": 111.28472}], "Yicheng": [{"Name": "Yicheng", "Country Code": "CN", "Population": 61027.0, "Lat": 31.70472, "Lon": 112.25611}], "Yichuan Chengguanzhen": [{"Name": "Yichuan Chengguanzhen", "Country Code": "CN", "Population": 0.0, "Lat": 34.41972, "Lon": 112.41917}], "Yichun": [{"Name": "Yichun", "Country Code": "CN", "Population": 1045952.0, "Lat": 27.83333, "Lon": 114.4}, {"Name": "Yichun", "Country Code": "CN", "Population": 155762.0, "Lat": 47.72143, "Lon": 128.87529}], "Yidu": [{"Name": "Yidu", "Country Code": "CN", "Population": 105070.0, "Lat": 36.77121, "Lon": 118.42454}], "Yif'at": [{"Name": "Yif\u2018at", "Country Code": "IL", "Population": 1208.0, "Lat": 32.6775, "Lon": 35.22333}], "Yigai'erqi": [{"Name": "Yigai'erqi", "Country Code": "CN", "Population": 27038.0, "Lat": 38.34075, "Lon": 77.46915}], "Yigilca": [{"Name": "Y\u0131\u011f\u0131lca", "Country Code": "TR", "Population": 0.0, "Lat": 40.95983, "Lon": 31.44355}], "Yigitler": [{"Name": "Yi\u011fitler", "Country Code": "TR", "Population": 0.0, "Lat": 39.8675, "Lon": 26.61111}], "Yigityolu": [{"Name": "Yi\u011fityolu", "Country Code": "TR", "Population": 0.0, "Lat": 35.99563, "Lon": 36.26004}], "Yigo Village": [{"Name": "Yigo Village", "Country Code": "GU", "Population": 20539.0, "Lat": 13.53605, "Lon": 144.88855}], "Yigou": [{"Name": "Yigou", "Country Code": "CN", "Population": 59073.0, "Lat": 35.81139, "Lon": 114.31667}], "Yihe": [{"Name": "Yihe", "Country Code": "CN", "Population": 37390.0, "Lat": 29.73734, "Lon": 107.21918}, {"Name": "Yihe", "Country Code": "CN", "Population": 26313.0, "Lat": 31.15734, "Lon": 108.08256}], "Yijiang": [{"Name": "Yijiang", "Country Code": "CN", "Population": 0.0, "Lat": 31.31546, "Lon": 118.36053}], "Yijing": [{"Name": "Yijing", "Country Code": "CN", "Population": 0.0, "Lat": 37.83556, "Lon": 113.60194}], "Yiju": [{"Name": "Yiju", "Country Code": "CN", "Population": 13557.0, "Lat": 28.87656, "Lon": 108.5911}], "Yilan": [{"Name": "Yilan", "Country Code": "CN", "Population": 71180.0, "Lat": 46.3223, "Lon": 129.56081}, {"Name": "Yilan", "Country Code": "TW", "Population": 94188.0, "Lat": 24.757, "Lon": 121.753}], "Yildirim": [{"Name": "Y\u0131ld\u0131r\u0131m", "Country Code": "TR", "Population": 0.0, "Lat": 40.18851, "Lon": 29.10974}], "Yildizeli": [{"Name": "Y\u0131ld\u0131zeli", "Country Code": "TR", "Population": 0.0, "Lat": 39.86639, "Lon": 36.59889}], "Yildizli": [{"Name": "Y\u0131ld\u0131zl\u0131", "Country Code": "TR", "Population": 13443.0, "Lat": 41.00122, "Lon": 39.60731}], "Yili": [{"Name": "Yili", "Country Code": "CN", "Population": 269158.0, "Lat": 43.9, "Lon": 81.35}], "Yilong": [{"Name": "Yilong", "Country Code": "CN", "Population": 0.0, "Lat": 23.69137, "Lon": 102.48701}], "Yima": [{"Name": "Yima", "Country Code": "CN", "Population": 82509.0, "Lat": 34.73806, "Lon": 111.88389}], "Yimnon": [{"Name": "Yimn\u00f3n", "Country Code": "GR", "Population": 2008.0, "Lat": 38.44048, "Lon": 23.884}], "Yinchuan": [{"Name": "Yinchuan", "Country Code": "CN", "Population": 1487579.0, "Lat": 38.46806, "Lon": 106.27306}], "Ying'airike": [{"Name": "Ying'airike", "Country Code": "CN", "Population": 10253.0, "Lat": 37.25468, "Lon": 79.90014}], "Ying'awati": [{"Name": "Ying\u2019awati", "Country Code": "CN", "Population": 23624.0, "Lat": 37.29875, "Lon": 79.83031}], "Yingcheng": [{"Name": "Yingcheng", "Country Code": "CN", "Population": 0.0, "Lat": 24.16588, "Lon": 113.41267}], "Yingchuan": [{"Name": "Yingchuan", "Country Code": "CN", "Population": 87961.0, "Lat": 34.16278, "Lon": 113.46389}], "Yingdu": [{"Name": "Yingdu", "Country Code": "CN", "Population": 4960.0, "Lat": 24.97167, "Lon": 118.24417}], "Yingge": [{"Name": "Yingge", "Country Code": "TW", "Population": 87920.0, "Lat": 24.95608, "Lon": 121.3507}], "Yinggen": [{"Name": "Yinggen", "Country Code": "CN", "Population": 0.0, "Lat": 19.03833, "Lon": 109.84}], "Yingjiang": [{"Name": "Yingjiang", "Country Code": "CN", "Population": 80481.0, "Lat": 24.71022, "Lon": 97.93671}], "Yingkou": [{"Name": "Yingkou", "Country Code": "CN", "Population": 591159.0, "Lat": 40.66472, "Lon": 122.23176}], "Yingli": [{"Name": "Yingli", "Country Code": "CN", "Population": 57091.0, "Lat": 37.065, "Lon": 118.81029}], "Yinglin": [{"Name": "Yinglin", "Country Code": "CN", "Population": 4150.0, "Lat": 24.63222, "Lon": 118.58056}], "Yingpan": [{"Name": "Yingpan", "Country Code": "CN", "Population": 37406.0, "Lat": 26.45, "Lon": 99.15}], "Yingqiu": [{"Name": "Yingqiu", "Country Code": "CN", "Population": 92564.0, "Lat": 36.52663, "Lon": 118.99285}], "Yingshang Chengguanzhen": [{"Name": "Yingshang Chengguanzhen", "Country Code": "CN", "Population": 61771.0, "Lat": 32.62945, "Lon": 116.27013}], "Yingshouyingzi": [{"Name": "Yingshouyingzi", "Country Code": "CN", "Population": 0.0, "Lat": 40.54842, "Lon": 117.65393}], "Yingtan": [{"Name": "Yingtan", "Country Code": "CN", "Population": 214229.0, "Lat": 28.23333, "Lon": 117.0}], "Yingwusitang": [{"Name": "Yingwusitang", "Country Code": "CN", "Population": 10582.0, "Lat": 38.31368, "Lon": 77.22775}], "Yingwusitangcun": [{"Name": "Yingwusitangcun", "Country Code": "CN", "Population": 6233.0, "Lat": 38.17883, "Lon": 85.41506}], "Yingxian": [{"Name": "Yingxian", "Country Code": "CN", "Population": 0.0, "Lat": 39.55912, "Lon": 113.18554}], "Yingye'er": [{"Name": "Yingye'er", "Country Code": "CN", "Population": 11485.0, "Lat": 37.37312, "Lon": 79.77745}], "Yinhai": [{"Name": "Yinhai", "Country Code": "CN", "Population": 0.0, "Lat": 21.4513, "Lon": 109.13571}], "Yining": [{"Name": "Yining", "Country Code": "CN", "Population": 0.0, "Lat": 43.97799, "Lon": 81.51804}, {"Name": "Yining", "Country Code": "CN", "Population": 0.0, "Lat": 29.03614, "Lon": 114.56362}], "Yinla": [{"Name": "Yinla", "Country Code": "CN", "Population": 0.0, "Lat": 29.5773, "Lon": 94.48301}], "Yinliu": [{"Name": "Yinliu", "Country Code": "CN", "Population": 1007.0, "Lat": 39.9825, "Lon": 117.39639}], "Yinma": [{"Name": "Yinma", "Country Code": "CN", "Population": 83872.0, "Lat": 36.66083, "Lon": 119.4625}], "Yinnon": [{"Name": "Yinnon", "Country Code": "IL", "Population": 1197.0, "Lat": 31.74199, "Lon": 34.78229}], "Yinping": [{"Name": "Yinping", "Country Code": "CN", "Population": 18574.0, "Lat": 30.54197, "Lon": 107.57518}], "Yinqiao Zhen": [{"Name": "Yinqiao Zhen", "Country Code": "CN", "Population": 28002.0, "Lat": 25.75429, "Lon": 100.12346}], "Yintai": [{"Name": "Yintai", "Country Code": "CN", "Population": 217509.0, "Lat": 35.11524, "Lon": 109.09702}], "Yinxingshu": [{"Name": "Yinxingshu", "Country Code": "CN", "Population": 14806.0, "Lat": 33.80497, "Lon": 106.03793}], "Yinying": [{"Name": "Yinying", "Country Code": "CN", "Population": 0.0, "Lat": 37.93694, "Lon": 113.5575}], "Yinzhu": [{"Name": "Yinzhu", "Country Code": "CN", "Population": 75656.0, "Lat": 35.87861, "Lon": 119.97528}], "Yirga 'Alem": [{"Name": "Yirga \u2018Alem", "Country Code": "ET", "Population": 81600.0, "Lat": 6.75, "Lon": 38.41667}], "Yirga Ch'efe": [{"Name": "Yirga Ch\u2019ef\u0113", "Country Code": "ET", "Population": 40600.0, "Lat": 6.16667, "Lon": 38.2}], "Yirka": [{"Name": "Yirk\u0101", "Country Code": "IL", "Population": 17171.0, "Lat": 32.95435, "Lon": 35.21197}], "Yirol": [{"Name": "Yirol", "Country Code": "SS", "Population": 11650.0, "Lat": 6.5525, "Lon": 30.49806}], "Yisa": [{"Name": "Yisa", "Country Code": "CN", "Population": 0.0, "Lat": 23.33231, "Lon": 102.44711}], "Yishan": [{"Name": "Yishan", "Country Code": "CN", "Population": 0.0, "Lat": 34.29944, "Lon": 119.25417}, {"Name": "Yishan", "Country Code": "CN", "Population": 78408.0, "Lat": 36.22107, "Lon": 118.69663}], "Yishi": [{"Name": "Yishi", "Country Code": "CN", "Population": 0.0, "Lat": 35.16497, "Lon": 110.74598}], "Yishikuli": [{"Name": "Yishikuli", "Country Code": "CN", "Population": 29930.0, "Lat": 38.48889, "Lon": 77.20145}], "Yishui": [{"Name": "Yishui", "Country Code": "CN", "Population": 94115.0, "Lat": 35.78472, "Lon": 118.62806}], "Yisilamu'awati": [{"Name": "Yisilamu'awati", "Country Code": "CN", "Population": 19828.0, "Lat": 37.58491, "Lon": 80.18401}], "Yisuhe": [{"Name": "Yisuhe", "Country Code": "CN", "Population": 0.0, "Lat": 27.76544, "Lon": 112.92683}], "Yitang": [{"Name": "Yitang", "Country Code": "CN", "Population": 28002.0, "Lat": 34.25833, "Lon": 117.88889}], "Yitiaoshan": [{"Name": "Yitiaoshan", "Country Code": "CN", "Population": 0.0, "Lat": 37.1533, "Lon": 104.062}], "Yitong": [{"Name": "Yitong", "Country Code": "CN", "Population": 0.0, "Lat": 43.33966, "Lon": 125.29815}], "Yiu Tung Estate": [{"Name": "Yiu Tung Estate", "Country Code": "HK", "Population": 15061.0, "Lat": 22.27849, "Lon": 114.22299}], "Yiwa": [{"Name": "Yiwa", "Country Code": "CN", "Population": 4719.0, "Lat": 34.13744, "Lon": 103.16894}], "Yiwu": [{"Name": "Yiwu", "Country Code": "CN", "Population": 1481384.0, "Lat": 29.31506, "Lon": 120.07676}, {"Name": "Yiwu", "Country Code": "CN", "Population": 0.0, "Lat": 43.24968, "Lon": 94.68801}], "Yixing": [{"Name": "Yixing", "Country Code": "CN", "Population": 1285785.0, "Lat": 31.36059, "Lon": 119.82016}, {"Name": "Yixing", "Country Code": "CN", "Population": 0.0, "Lat": 37.3376, "Lon": 113.53926}], "Yiyang": [{"Name": "Yiyang", "Country Code": "CN", "Population": 0.0, "Lat": 26.38893, "Lon": 112.37925}, {"Name": "Yiyang", "Country Code": "CN", "Population": 1249807.0, "Lat": 28.58917, "Lon": 112.32833}], "Yiyang Chengguanzhen": [{"Name": "Yiyang Chengguanzhen", "Country Code": "CN", "Population": 0.0, "Lat": 34.51083, "Lon": 112.16222}], "Yizhang Chengguanzhen": [{"Name": "Yizhang Chengguanzhen", "Country Code": "CN", "Population": 0.0, "Lat": 25.38323, "Lon": 112.97897}], "Yizhar": [{"Name": "Yi\u1e95har", "Country Code": "PS", "Population": 1635.0, "Lat": 32.16744, "Lon": 35.23875}], "Yizhivtsi": [{"Name": "Yizhivtsi", "Country Code": "UA", "Population": 5987.0, "Lat": 48.02526, "Lon": 25.64626}], "Yizhou": [{"Name": "Yizhou", "Country Code": "CN", "Population": 155872.0, "Lat": 24.5, "Lon": 108.66667}], "Yizhuang": [{"Name": "Yizhuang", "Country Code": "CN", "Population": 34968.0, "Lat": 34.15651, "Lon": 117.59367}], "Ylaemaa": [{"Name": "Yl\u00e4maa", "Country Code": "FI", "Population": 1415.0, "Lat": 60.8, "Lon": 28.0}], "Ylaene": [{"Name": "Yl\u00e4ne", "Country Code": "FI", "Population": 2148.0, "Lat": 60.88333, "Lon": 22.41667}], "Yli-Ii": [{"Name": "Yli-Ii", "Country Code": "FI", "Population": 2235.0, "Lat": 65.37181, "Lon": 25.8458}], "Ylihaermae": [{"Name": "Ylih\u00e4rm\u00e4", "Country Code": "FI", "Population": 2836.0, "Lat": 63.15, "Lon": 22.78333}], "Ylikiiminki": [{"Name": "Ylikiiminki", "Country Code": "FI", "Population": 3386.0, "Lat": 65.08333, "Lon": 26.25}], "Ylitornio": [{"Name": "Ylitornio", "Country Code": "FI", "Population": 5104.0, "Lat": 66.30893, "Lon": 23.67734}], "Ylivieska": [{"Name": "Ylivieska", "Country Code": "FI", "Population": 13159.0, "Lat": 64.08333, "Lon": 24.55}], "Yloejaervi": [{"Name": "Yl\u00f6j\u00e4rvi", "Country Code": "FI", "Population": 22140.0, "Lat": 61.55632, "Lon": 23.59606}], "Ymare": [{"Name": "Ymare", "Country Code": "FR", "Population": 1060.0, "Lat": 49.3506, "Lon": 1.17938}], "Ymittos": [{"Name": "Ymittos", "Country Code": "GR", "Population": 11000.0, "Lat": 37.95342, "Lon": 23.74897}], "Ynysybwl": [{"Name": "Ynysybwl", "Country Code": "GB", "Population": 3503.0, "Lat": 51.63922, "Lon": -3.36036}], "Yoakum": [{"Name": "Yoakum", "Country Code": "US", "Population": 6016.0, "Lat": 29.28775, "Lon": -97.15193}], "Yobain": [{"Name": "Yobain", "Country Code": "MX", "Population": 1820.0, "Lat": 21.23435, "Lon": -89.11488}], "Yoboue-N'Zue": [{"Name": "Yobou\u00e9-N'Zu\u00e9", "Country Code": "CI", "Population": 1331.0, "Lat": 7.59147, "Lon": -5.47954}], "Yoboueagui": [{"Name": "Yobou\u00e9agui", "Country Code": "CI", "Population": 1744.0, "Lat": 5.30081, "Lon": -6.64875}], "Yobouessou": [{"Name": "Yobouessou", "Country Code": "CI", "Population": 3015.0, "Lat": 6.92748, "Lon": -4.04531}], "Yodolo": [{"Name": "Yodolo", "Country Code": "CI", "Population": 1396.0, "Lat": 8.90354, "Lon": -4.23518}], "Yoe": [{"Name": "Yoe", "Country Code": "US", "Population": 1011.0, "Lat": 39.90899, "Lon": -76.63691}], "Yogonon": [{"Name": "Yogonon", "Country Code": "CI", "Population": 3747.0, "Lat": 7.67433, "Lon": -6.43261}], "Yogun": [{"Name": "Yo\u011fun", "Country Code": "TR", "Population": 0.0, "Lat": 38.09906, "Lon": 39.51321}], "Yoguntas": [{"Name": "Yo\u011funta\u015f", "Country Code": "TR", "Population": 0.0, "Lat": 41.83081, "Lon": 27.06971}], "Yogyakarta": [{"Name": "Yogyakarta", "Country Code": "ID", "Population": 373589.0, "Lat": -7.80139, "Lon": 110.36472}], "Yoho": [{"Name": "Yoho", "Country Code": "CI", "Population": 2272.0, "Lat": 6.92297, "Lon": -5.57969}], "Yoichi": [{"Name": "Yoichi", "Country Code": "JP", "Population": 18993.0, "Lat": 43.20389, "Lon": 140.77028}], "Yokadouma": [{"Name": "Yokadouma", "Country Code": "CM", "Population": 32900.0, "Lat": 3.51667, "Lon": 15.05}], "Yokaichiba": [{"Name": "Y\u014dkaichiba", "Country Code": "JP", "Population": 32651.0, "Lat": 35.7, "Lon": 140.55}], "Yokine": [{"Name": "Yokine", "Country Code": "AU", "Population": 12706.0, "Lat": -31.90113, "Lon": 115.85319}], "Yokkaichi": [{"Name": "Yokkaichi", "Country Code": "JP", "Population": 295841.0, "Lat": 34.96667, "Lon": 136.61667}], "Yoko": [{"Name": "Yoko", "Country Code": "CM", "Population": 5269.0, "Lat": 5.53333, "Lon": 12.31667}], "Yokoboue": [{"Name": "Yokobou\u00e9", "Country Code": "CI", "Population": 6520.0, "Lat": 5.26933, "Lon": -5.10658}], "Yokohama": [{"Name": "Yokohama", "Country Code": "JP", "Population": 4412.0, "Lat": 41.08333, "Lon": 141.25}, {"Name": "Yokohama", "Country Code": "JP", "Population": 3761630.0, "Lat": 35.43333, "Lon": 139.65}], "Yokorea II": [{"Name": "Yokor\u00e9a II", "Country Code": "CI", "Population": 3680.0, "Lat": 6.7029, "Lon": -6.64593}], "Yokoshiba": [{"Name": "Yokoshiba", "Country Code": "JP", "Population": 14589.0, "Lat": 35.65, "Lon": 140.48333}], "Yokosuka": [{"Name": "Yokosuka", "Country Code": "JP", "Population": 409478.0, "Lat": 35.28361, "Lon": 139.66722}], "Yokote": [{"Name": "Yokote", "Country Code": "JP", "Population": 39178.0, "Lat": 39.31691, "Lon": 140.55034}], "Yol": [{"Name": "Yol", "Country Code": "IN", "Population": 11314.0, "Lat": 32.16423, "Lon": 76.19622}], "Yola": [{"Name": "Yola", "Country Code": "NG", "Population": 460000.0, "Lat": 9.20839, "Lon": 12.48146}], "Yolagzi": [{"Name": "Yola\u011fz\u0131", "Country Code": "TR", "Population": 2600.0, "Lat": 37.5248, "Lon": 41.35308}], "Yolbasi": [{"Name": "Yolba\u015f\u0131", "Country Code": "TR", "Population": 5400.0, "Lat": 37.38736, "Lon": 41.3166}], "Yolboyu": [{"Name": "Yolboyu", "Country Code": "TR", "Population": 0.0, "Lat": 37.89764, "Lon": 40.00086}], "Yoleu": [{"Name": "Yoleu", "Country Code": "CI", "Population": 2106.0, "Lat": 7.19543, "Lon": -8.18102}], "Yoloeten": [{"Name": "Yol\u00f6ten", "Country Code": "TM", "Population": 37705.0, "Lat": 37.29886, "Lon": 62.35975}], "Yolombo": [{"Name": "Yolomb\u00f3", "Country Code": "CO", "Population": 6033.0, "Lat": 6.59841, "Lon": -75.0114}], "Yolotepec": [{"Name": "Yolotepec", "Country Code": "MX", "Population": 2487.0, "Lat": 20.38767, "Lon": -99.07307}], "Yoloxochitl": [{"Name": "Yolox\u00f3chitl", "Country Code": "MX", "Population": 3191.0, "Lat": 16.81605, "Lon": -98.68627}], "Yomakrou": [{"Name": "Yomakrou", "Country Code": "CI", "Population": 1235.0, "Lat": 7.51627, "Lon": -3.51582}], "Yoman Kouahipla": [{"Name": "Yoman Kouahipla", "Country Code": "CI", "Population": 1153.0, "Lat": 7.92166, "Lon": -5.77963}], "Yomian Kouadiokro": [{"Name": "Yomian Kouadiokro", "Country Code": "CI", "Population": 1866.0, "Lat": 7.83302, "Lon": -5.165}], "Yomidji": [{"Name": "Yomidji", "Country Code": "CI", "Population": 2793.0, "Lat": 5.53894, "Lon": -4.53322}], "Yomitan": [{"Name": "Yomitan", "Country Code": "JP", "Population": 40517.0, "Lat": 26.40167, "Lon": 127.74503}], "Yomju-up": [{"Name": "Y\u014fmju-\u016dp", "Country Code": "KP", "Population": 9437.0, "Lat": 39.89333, "Lon": 124.59806}], "Yomogita": [{"Name": "Yomogita", "Country Code": "JP", "Population": 2740.0, "Lat": 40.98015, "Lon": 140.65455}], "Yomou": [{"Name": "Yomou", "Country Code": "GN", "Population": 8674.0, "Lat": 7.56748, "Lon": -9.26283}], "Yomra": [{"Name": "Yomra", "Country Code": "TR", "Population": 19770.0, "Lat": 40.95326, "Lon": 39.85546}], "Yomya": [{"Name": "Yomya", "Country Code": "CI", "Population": 1419.0, "Lat": 7.81667, "Lon": -2.93333}], "Yona Village": [{"Name": "Yona Village", "Country Code": "GU", "Population": 6484.0, "Lat": 13.40974, "Lon": 144.77697}], "Yonabaru": [{"Name": "Yonabaru", "Country Code": "JP", "Population": 18410.0, "Lat": 26.20437, "Lon": 127.75267}], "Yonago": [{"Name": "Yonago", "Country Code": "JP", "Population": 148720.0, "Lat": 35.43333, "Lon": 133.33333}], "Yonakuni": [{"Name": "Yonakuni", "Country Code": "JP", "Population": 1684.0, "Lat": 24.46667, "Lon": 123.0}], "Yonan-up": [{"Name": "Y\u014fnan-\u016dp", "Country Code": "KP", "Population": 22665.0, "Lat": 37.90889, "Lon": 126.16111}], "Yonango": [{"Name": "Yonango", "Country Code": "CI", "Population": 2302.0, "Lat": 7.44031, "Lon": -3.0641}], "Yoncali": [{"Name": "Yoncal\u0131", "Country Code": "TR", "Population": 0.0, "Lat": 39.00913, "Lon": 38.2532}], "Yoncalla": [{"Name": "Yoncalla", "Country Code": "US", "Population": 1053.0, "Lat": 43.59845, "Lon": -123.28342}], "Yondo": [{"Name": "Yond\u00f3", "Country Code": "CO", "Population": 17597.0, "Lat": 7.00621, "Lon": -73.90972}], "Yonedacho Sendo": [{"Name": "Yonedacho Sendo", "Country Code": "JP", "Population": 6000.0, "Lat": 34.7756, "Lon": 134.82551}], "Yonezawa": [{"Name": "Yonezawa", "Country Code": "JP", "Population": 94486.0, "Lat": 37.91, "Lon": 140.11667}], "Yong Peng": [{"Name": "Yong Peng", "Country Code": "MY", "Population": 27138.0, "Lat": 2.0136, "Lon": 103.0659}], "Yong'an": [{"Name": "Yong\u2019an", "Country Code": "CN", "Population": 0.0, "Lat": 39.69571, "Lon": 113.68708}, {"Name": "Yong\u2019an", "Country Code": "CN", "Population": 26390.0, "Lat": 30.3531, "Lon": 107.51289}, {"Name": "Yong\u2019an", "Country Code": "CN", "Population": 0.0, "Lat": 25.96367, "Lon": 117.36025}, {"Name": "Yong\u2019an", "Country Code": "CN", "Population": 0.0, "Lat": 36.65762, "Lon": 111.56643}, {"Name": "Yong\u2019an", "Country Code": "CN", "Population": 144314.0, "Lat": 31.01894, "Lon": 109.45949}], "Yongan": [{"Name": "Yongan", "Country Code": "KR", "Population": 0.0, "Lat": 36.11962, "Lon": 126.95283}], "Yongbei": [{"Name": "Yongbei", "Country Code": "CN", "Population": 60099.0, "Lat": 26.64623, "Lon": 100.78073}], "Yongbyon": [{"Name": "Y\u014fngby\u014fn", "Country Code": "KP", "Population": 9584.0, "Lat": 39.81333, "Lon": 125.80417}], "Yongchang": [{"Name": "Yongchang", "Country Code": "CN", "Population": 0.0, "Lat": 31.66574, "Lon": 104.43726}], "Yongchang Chengguanzhen": [{"Name": "Yongchang Chengguanzhen", "Country Code": "CN", "Population": 0.0, "Lat": 38.27053, "Lon": 102.02017}], "Yongcheng": [{"Name": "Yongcheng", "Country Code": "CN", "Population": 17634.0, "Lat": 29.02133, "Lon": 106.82012}], "Yongchuan": [{"Name": "Yongchuan", "Country Code": "CN", "Population": 192954.0, "Lat": 29.35376, "Lon": 105.89392}], "Yongchun": [{"Name": "Yongchun", "Country Code": "CN", "Population": 0.0, "Lat": 25.32493, "Lon": 118.28982}], "Yongcong": [{"Name": "Yongcong", "Country Code": "CN", "Population": 13670.0, "Lat": 26.04222, "Lon": 109.13139}], "Yongdeng Chengguanzhen": [{"Name": "Yongdeng Chengguanzhen", "Country Code": "CN", "Population": 0.0, "Lat": 36.73361, "Lon": 103.25931}], "Yongding": [{"Name": "Yongding", "Country Code": "CN", "Population": 0.0, "Lat": 26.04122, "Lon": 101.68642}, {"Name": "Yongding", "Country Code": "CN", "Population": 0.0, "Lat": 25.1986, "Lon": 102.46189}], "Yongdong": [{"Name": "Yongdong", "Country Code": "CN", "Population": 7643.0, "Lat": 28.61108, "Lon": 109.12219}], "Yonge-Eglinton": [{"Name": "Yonge-Eglinton", "Country Code": "CA", "Population": 11817.0, "Lat": 43.70469, "Lon": -79.40359}], "Yonge-St.Clair": [{"Name": "Yonge-St.Clair", "Country Code": "CA", "Population": 12528.0, "Lat": 43.68786, "Lon": -79.39787}], "Yongfeng": [{"Name": "Yongfeng", "Country Code": "CN", "Population": 70783.0, "Lat": 27.45493, "Lon": 112.16943}], "Yongfu": [{"Name": "Yongfu", "Country Code": "CN", "Population": 0.0, "Lat": 24.99204, "Lon": 109.99167}], "Yonggang-up": [{"Name": "Yonggang-\u016dp", "Country Code": "KP", "Population": 13440.0, "Lat": 38.85611, "Lon": 125.42444}], "Yonggwang-up": [{"Name": "Y\u014fnggwang-\u016dp", "Country Code": "KP", "Population": 21882.0, "Lat": 40.01833, "Lon": 127.45472}], "Yongha": [{"Name": "Yongha", "Country Code": "KP", "Population": 0.0, "Lat": 41.27388, "Lon": 127.52132}], "Yonghe": [{"Name": "Yonghe", "Country Code": "CN", "Population": 1286.0, "Lat": 39.07528, "Lon": 117.47556}], "Yonghwa": [{"Name": "Yonghwa", "Country Code": "KR", "Population": 0.0, "Lat": 36.0213, "Lon": 127.7665}], "Yongjia": [{"Name": "Yongjia", "Country Code": "CN", "Population": 22377.0, "Lat": 29.5719, "Lon": 106.00134}], "Yongjian": [{"Name": "Yongjian", "Country Code": "CN", "Population": 53970.0, "Lat": 25.42543, "Lon": 100.21244}], "Yongkang": [{"Name": "Yongkang", "Country Code": "TW", "Population": 233730.0, "Lat": 23.02444, "Lon": 120.25556}], "Yongle": [{"Name": "Yongle", "Country Code": "CN", "Population": 0.0, "Lat": 33.26465, "Lon": 104.23278}, {"Name": "Yongle", "Country Code": "CN", "Population": 22434.0, "Lat": 31.01048, "Lon": 109.50479}], "Yongning": [{"Name": "Yongning", "Country Code": "CN", "Population": 8460.0, "Lat": 24.68, "Lon": 118.69}, {"Name": "Yongning", "Country Code": "CN", "Population": 20852.0, "Lat": 27.83333, "Lon": 100.66667}, {"Name": "Yongning", "Country Code": "CN", "Population": 0.0, "Lat": 28.52449, "Lon": 114.36576}, {"Name": "Yongning", "Country Code": "CN", "Population": 9999.0, "Lat": 33.83956, "Lon": 106.18865}, {"Name": "Yongning", "Country Code": "CN", "Population": 61690.0, "Lat": 22.76101, "Lon": 108.48359}], "Yongping": [{"Name": "Yongping", "Country Code": "CN", "Population": 10315.0, "Lat": 30.15108, "Lon": 107.43452}, {"Name": "Yongping", "Country Code": "CN", "Population": 18279.0, "Lat": 34.28994, "Lon": 105.27225}], "Yongqing": [{"Name": "Yongqing", "Country Code": "CN", "Population": 0.0, "Lat": 39.3107, "Lon": 116.49181}, {"Name": "Yongqing", "Country Code": "CN", "Population": 55595.0, "Lat": 34.74806, "Lon": 106.12694}], "Yongrong": [{"Name": "Yongrong", "Country Code": "CN", "Population": 14305.0, "Lat": 29.33898, "Lon": 105.65778}], "Yongsan": [{"Name": "Yongsan", "Country Code": "KR", "Population": 0.0, "Lat": 36.2603, "Lon": 127.8285}], "Yongsan-dong": [{"Name": "Yongsan-dong", "Country Code": "KR", "Population": 12612.0, "Lat": 37.5445, "Lon": 126.9837}], "Yongtai": [{"Name": "Yongtai", "Country Code": "CN", "Population": 0.0, "Lat": 25.8713, "Lon": 118.9277}], "Yongxi": [{"Name": "Yongxi", "Country Code": "CN", "Population": 15213.0, "Lat": 29.73853, "Lon": 105.97941}], "Yongxin": [{"Name": "Yongxin", "Country Code": "CN", "Population": 49951.0, "Lat": 28.96667, "Lon": 106.53333}], "Yongxing": [{"Name": "Yongxing", "Country Code": "CN", "Population": 22079.0, "Lat": 34.20778, "Lon": 105.32889}, {"Name": "Yongxing", "Country Code": "CN", "Population": 32535.0, "Lat": 28.98968, "Lon": 106.17612}], "Yongxing Chengguanzhen": [{"Name": "Yongxing Chengguanzhen", "Country Code": "CN", "Population": 0.0, "Lat": 26.12408, "Lon": 113.12852}], "Yongyang": [{"Name": "Yongyang", "Country Code": "CN", "Population": 0.0, "Lat": 31.65811, "Lon": 119.02772}], "Yongzhou": [{"Name": "Yongzhou", "Country Code": "CN", "Population": 1020715.0, "Lat": 26.42389, "Lon": 111.61306}], "Yonibana": [{"Name": "Yonibana", "Country Code": "SL", "Population": 3589.0, "Lat": 8.44347, "Lon": -12.23929}], "Yonkers": [{"Name": "Yonkers", "Country Code": "US", "Population": 201116.0, "Lat": 40.93121, "Lon": -73.89875}], "Yonmu": [{"Name": "Y\u014fnmu", "Country Code": "KR", "Population": 25015.0, "Lat": 36.12944, "Lon": 127.1}], "Yono": [{"Name": "Yono", "Country Code": "JP", "Population": 102364.0, "Lat": 35.88333, "Lon": 139.63333}], "Yoogali": [{"Name": "Yoogali", "Country Code": "AU", "Population": 1236.0, "Lat": -34.29944, "Lon": 146.08443}], "Yook": [{"Name": "Yook", "Country Code": "PH", "Population": 2820.0, "Lat": 13.22608, "Lon": 121.964}], "Yopal": [{"Name": "Yopal", "Country Code": "CO", "Population": 168433.0, "Lat": 5.33775, "Lon": -72.39586}], "Yopi": [{"Name": "Yopi", "Country Code": "MX", "Population": 1045.0, "Lat": 19.82667, "Lon": -97.38028}], "Yopohua": [{"Name": "Yopohua", "Country Code": "CI", "Population": 5247.0, "Lat": 6.39596, "Lon": -5.82952}], "Yopurga": [{"Name": "Yopurga", "Country Code": "CN", "Population": 0.0, "Lat": 39.23938, "Lon": 76.76432}], "Yoqne'am 'Illit": [{"Name": "Yoqne\u2018am \u2018Illit", "Country Code": "IL", "Population": 23796.0, "Lat": 32.65385, "Lon": 35.10382}], "Yoqneam": [{"Name": "Yoqneam", "Country Code": "IL", "Population": 1398.0, "Lat": 32.65497, "Lon": 35.11381}], "Yorba Linda": [{"Name": "Yorba Linda", "Country Code": "US", "Population": 67973.0, "Lat": 33.88863, "Lon": -117.81311}], "Yordaneshty": [{"Name": "Yordaneshty", "Country Code": "UA", "Population": 2263.0, "Lat": 48.1038, "Lon": 25.81099}], "Yorii": [{"Name": "Yorii", "Country Code": "JP", "Population": 32851.0, "Lat": 36.11567, "Lon": 139.19429}], "Yorito": [{"Name": "Yorito", "Country Code": "HN", "Population": 2169.0, "Lat": 15.06667, "Lon": -87.28333}], "York": [{"Name": "York", "Country Code": "AU", "Population": 2472.0, "Lat": -31.88809, "Lon": 116.7678}, {"Name": "York", "Country Code": "GB", "Population": 156135.0, "Lat": 53.95763, "Lon": -1.08271}, {"Name": "York", "Country Code": "US", "Population": 8009.0, "Lat": 34.9943, "Lon": -81.24202}, {"Name": "York", "Country Code": "US", "Population": 43992.0, "Lat": 39.9626, "Lon": -76.72774}, {"Name": "York", "Country Code": "US", "Population": 7864.0, "Lat": 40.86807, "Lon": -97.592}, {"Name": "York", "Country Code": "US", "Population": 2399.0, "Lat": 32.48625, "Lon": -88.29642}], "York Beach": [{"Name": "York Beach", "Country Code": "US", "Population": 12854.0, "Lat": 43.17148, "Lon": -70.60894}], "York Harbor": [{"Name": "York Harbor", "Country Code": "US", "Population": 3033.0, "Lat": 43.13676, "Lon": -70.64561}], "York University Heights": [{"Name": "York University Heights", "Country Code": "CA", "Population": 27593.0, "Lat": 43.76574, "Lon": -79.48888}], "Yorkdale-Glen Park": [{"Name": "Yorkdale-Glen Park", "Country Code": "CA", "Population": 14804.0, "Lat": 43.71467, "Lon": -79.45711}], "Yorketown": [{"Name": "Yorketown", "Country Code": "US", "Population": 6535.0, "Lat": 40.30789, "Lon": -74.33765}], "Yorkeys Knob": [{"Name": "Yorkeys Knob", "Country Code": "AU", "Population": 2879.0, "Lat": -16.80278, "Lon": 145.72083}], "Yorklyn": [{"Name": "Yorklyn", "Country Code": "US", "Population": 1912.0, "Lat": 39.99232, "Lon": -76.64635}], "Yorkshire": [{"Name": "Yorkshire", "Country Code": "US", "Population": 1180.0, "Lat": 42.53006, "Lon": -78.4728}, {"Name": "Yorkshire", "Country Code": "US", "Population": 7541.0, "Lat": 38.79317, "Lon": -77.44777}], "Yorkton": [{"Name": "Yorkton", "Country Code": "CA", "Population": 16343.0, "Lat": 51.2167, "Lon": -102.46766}], "Yorktown": [{"Name": "Yorktown", "Country Code": "US", "Population": 195.0, "Lat": 37.23858, "Lon": -76.50894}, {"Name": "Yorktown", "Country Code": "US", "Population": 11231.0, "Lat": 40.17365, "Lon": -85.49414}, {"Name": "Yorktown", "Country Code": "US", "Population": 2145.0, "Lat": 28.98109, "Lon": -97.50277}], "Yorktown Heights": [{"Name": "Yorktown Heights", "Country Code": "US", "Population": 1781.0, "Lat": 41.27093, "Lon": -73.77763}], "Yorkville": [{"Name": "Yorkville", "Country Code": "US", "Population": 1044.0, "Lat": 40.15452, "Lon": -80.71036}, {"Name": "Yorkville", "Country Code": "US", "Population": 2634.0, "Lat": 43.11285, "Lon": -75.271}, {"Name": "Yorkville", "Country Code": "US", "Population": 18451.0, "Lat": 41.64114, "Lon": -88.44729}], "Yoro": [{"Name": "Yoro", "Country Code": "HN", "Population": 15774.0, "Lat": 15.1375, "Lon": -87.12778}], "Yorobodi": [{"Name": "Yorobodi", "Country Code": "CI", "Population": 5841.0, "Lat": 8.11913, "Lon": -3.68191}], "Yorodougou": [{"Name": "Yorodougou", "Country Code": "CI", "Population": 5996.0, "Lat": 7.78356, "Lon": -7.88024}], "Yorongos": [{"Name": "Yorongos", "Country Code": "PE", "Population": 0.0, "Lat": -6.13972, "Lon": -77.14389}], "Yorosso": [{"Name": "Yorosso", "Country Code": "ML", "Population": 17447.0, "Lat": 12.35811, "Lon": -4.77688}], "Yosemite Lakes": [{"Name": "Yosemite Lakes", "Country Code": "US", "Population": 4952.0, "Lat": 37.19106, "Lon": -119.77265}], "Yosemite Valley": [{"Name": "Yosemite Valley", "Country Code": "US", "Population": 1035.0, "Lat": 37.74075, "Lon": -119.57788}], "Yoshib": [{"Name": "Yoshib", "Country Code": "MX", "Population": 3722.0, "Lat": 16.84528, "Lon": -92.44611}], "Yoshida-kasugacho": [{"Name": "Yoshida-kasugach\u014d", "Country Code": "JP", "Population": 25500.0, "Lat": 37.68333, "Lon": 138.88333}], "Yoshii": [{"Name": "Yoshii", "Country Code": "JP", "Population": 25655.0, "Lat": 36.25, "Lon": 138.98333}], "Yoshikawa": [{"Name": "Yoshikawa", "Country Code": "JP", "Population": 73262.0, "Lat": 35.89232, "Lon": 139.84184}], "Yoshino-cho": [{"Name": "Yoshino-ch\u014d", "Country Code": "JP", "Population": 8829.0, "Lat": 34.39611, "Lon": 135.85768}], "Yoshinogawa": [{"Name": "Yoshinogawa", "Country Code": "JP", "Population": 0.0, "Lat": 34.03858, "Lon": 134.29207}], "Yoshitomi": [{"Name": "Yoshitomi", "Country Code": "JP", "Population": 6875.0, "Lat": 33.60247, "Lon": 131.17599}], "Yoshkar-Ola": [{"Name": "Yoshkar-Ola", "Country Code": "RU", "Population": 268272.0, "Lat": 56.63877, "Lon": 47.89078}], "Yosowilangun": [{"Name": "Yosowilangun", "Country Code": "ID", "Population": 0.0, "Lat": -8.2391, "Lon": 113.3136}], "Yosphi": [{"Name": "Yosph\u00ed", "Country Code": "MX", "Population": 1386.0, "Lat": 20.17083, "Lon": -99.95222}], "Yosypivka": [{"Name": "Yosypivka", "Country Code": "UA", "Population": 1429.0, "Lat": 46.407, "Lon": 30.43552}], "Yotenere": [{"Name": "Yot\u00e9n\u00e9r\u00e9", "Country Code": "CI", "Population": 1147.0, "Lat": 9.54522, "Lon": -3.3252}], "Yotholin": [{"Name": "Yotholin", "Country Code": "MX", "Population": 2267.0, "Lat": 20.32786, "Lon": -89.45429}], "Yotoco": [{"Name": "Yotoco", "Country Code": "CO", "Population": 8362.0, "Lat": 3.86048, "Lon": -76.38364}], "Yotsukaido": [{"Name": "Yotsukaid\u014d", "Country Code": "JP", "Population": 95266.0, "Lat": 35.65, "Lon": 140.16667}], "Youampleu": [{"Name": "Youampleu", "Country Code": "CI", "Population": 2230.0, "Lat": 6.79954, "Lon": -8.28196}], "Youchou": [{"Name": "Youchou", "Country Code": "CN", "Population": 17763.0, "Lat": 28.96346, "Lon": 109.14147}], "Youdian": [{"Name": "Youdian", "Country Code": "CN", "Population": 0.0, "Lat": 24.82894, "Lon": 99.59232}], "Youganning": [{"Name": "Youganning", "Country Code": "CN", "Population": 0.0, "Lat": 34.73564, "Lon": 101.61141}], "Youghal": [{"Name": "Youghal", "Country Code": "IE", "Population": 7963.0, "Lat": 51.95, "Lon": -7.85056}], "Youguzhuang": [{"Name": "Youguzhuang", "Country Code": "CN", "Population": 1470.0, "Lat": 39.90583, "Lon": 117.24611}], "Youhao": [{"Name": "Youhao", "Country Code": "CN", "Population": 78402.0, "Lat": 47.85306, "Lon": 128.83565}], "Youhoulil": [{"Name": "Youhoulil", "Country Code": "CI", "Population": 3868.0, "Lat": 5.4234, "Lon": -4.48806}], "Youjiang": [{"Name": "Youjiang", "Country Code": "CN", "Population": 0.0, "Lat": 23.90427, "Lon": 106.61552}], "Youkaichi": [{"Name": "Youkaichi", "Country Code": "JP", "Population": 45338.0, "Lat": 35.11626, "Lon": 136.19768}], "Youkou": [{"Name": "Youkou", "Country Code": "CI", "Population": 1971.0, "Lat": 5.27423, "Lon": -7.31232}], "Youkounkoun": [{"Name": "Youkounkoun", "Country Code": "GN", "Population": 7952.0, "Lat": 12.5311, "Lon": -13.1224}], "Youlgreave": [{"Name": "Youlgreave", "Country Code": "GB", "Population": 1018.0, "Lat": 53.17399, "Lon": -1.69044}], "Youndouo": [{"Name": "Youndouo", "Country Code": "CI", "Population": 4717.0, "Lat": 8.82541, "Lon": -2.95745}], "Young": [{"Name": "Young", "Country Code": "AU", "Population": 10160.0, "Lat": -34.3135, "Lon": 148.30107}, {"Name": "Young", "Country Code": "UY", "Population": 16756.0, "Lat": -32.69844, "Lon": -57.62693}], "Young America (historical)": [{"Name": "Young America (historical)", "Country Code": "US", "Population": 1530.0, "Lat": 44.78274, "Lon": -93.91358}], "Young Harris": [{"Name": "Young Harris", "Country Code": "US", "Population": 1325.0, "Lat": 34.93315, "Lon": -83.84712}], "Youngstown": [{"Name": "Youngstown", "Country Code": "US", "Population": 4324.0, "Lat": 30.36436, "Lon": -85.43826}, {"Name": "Youngstown", "Country Code": "US", "Population": 64628.0, "Lat": 41.09978, "Lon": -80.64952}, {"Name": "Youngstown", "Country Code": "US", "Population": 1921.0, "Lat": 43.24728, "Lon": -79.05005}], "Youngsville": [{"Name": "Youngsville", "Country Code": "US", "Population": 1665.0, "Lat": 41.85228, "Lon": -79.31866}, {"Name": "Youngsville", "Country Code": "US", "Population": 1217.0, "Lat": 36.02487, "Lon": -78.47444}, {"Name": "Youngsville", "Country Code": "US", "Population": 11961.0, "Lat": 30.09965, "Lon": -91.99012}, {"Name": "Youngsville", "Country Code": "US", "Population": 1732.0, "Lat": 40.78121, "Lon": -75.47685}], "Youngtown": [{"Name": "Youngtown", "Country Code": "AU", "Population": 3923.0, "Lat": -41.48332, "Lon": 147.17067}, {"Name": "Youngtown", "Country Code": "US", "Population": 6613.0, "Lat": 33.59393, "Lon": -112.30294}], "Youngwood": [{"Name": "Youngwood", "Country Code": "US", "Population": 2956.0, "Lat": 40.24035, "Lon": -79.57671}], "Yountville": [{"Name": "Yountville", "Country Code": "US", "Population": 3017.0, "Lat": 38.40158, "Lon": -122.36081}], "Youoredoula": [{"Name": "Youor\u00e9doula", "Country Code": "CI", "Population": 4441.0, "Lat": 7.31758, "Lon": -6.71288}], "Youssoufia": [{"Name": "Youssoufia", "Country Code": "MA", "Population": 73848.0, "Lat": 32.24634, "Lon": -8.52941}], "Yousuo": [{"Name": "Yousuo", "Country Code": "CN", "Population": 53233.0, "Lat": 26.02527, "Lon": 100.06771}], "Youting": [{"Name": "Youting", "Country Code": "CN", "Population": 44363.0, "Lat": 29.43128, "Lon": 105.73757}], "Youwarou": [{"Name": "Youwarou", "Country Code": "ML", "Population": 0.0, "Lat": 15.3684, "Lon": -4.2628}], "Youwasso": [{"Name": "Youwasso", "Country Code": "CI", "Population": 2313.0, "Lat": 4.70464, "Lon": -6.9666}], "Youx": [{"Name": "Youx", "Country Code": "FR", "Population": 1040.0, "Lat": 46.14467, "Lon": 2.79903}], "Youxi": [{"Name": "Youxi", "Country Code": "CN", "Population": 63386.0, "Lat": 29.20936, "Lon": 106.14428}, {"Name": "Youxi", "Country Code": "CN", "Population": 0.0, "Lat": 26.17361, "Lon": 118.17889}], "Youxian Chengguanzhen": [{"Name": "Youxian Chengguanzhen", "Country Code": "CN", "Population": 0.0, "Lat": 26.99168, "Lon": 113.36062}], "Youyi": [{"Name": "Youyi", "Country Code": "CN", "Population": 0.0, "Lat": 46.76499, "Lon": 131.80022}], "Youyupu": [{"Name": "Youyupu", "Country Code": "CN", "Population": 1124.0, "Lat": 27.5517, "Lon": 109.135}], "Yovon": [{"Name": "Yovon", "Country Code": "TJ", "Population": 17471.0, "Lat": 38.31408, "Lon": 69.03784}], "Yowie Bay": [{"Name": "Yowie Bay", "Country Code": "AU", "Population": 2982.0, "Lat": -34.05116, "Lon": 151.10228}], "Yoxall": [{"Name": "Yoxall", "Country Code": "GB", "Population": 1638.0, "Lat": 52.76659, "Lon": -1.79068}], "Yoya": [{"Name": "Yoya", "Country Code": "CI", "Population": 2901.0, "Lat": 6.58013, "Lon": -8.04296}], "Yozgat": [{"Name": "Yozgat", "Country Code": "TR", "Population": 87881.0, "Lat": 39.82, "Lon": 34.80444}], "Yozyovon": [{"Name": "Yozyovon", "Country Code": "UZ", "Population": 0.0, "Lat": 40.66139, "Lon": 71.74361}], "Ypacarai": [{"Name": "Ypacarai", "Country Code": "PY", "Population": 9655.0, "Lat": -25.40777, "Lon": -57.28889}], "Ypaejae": [{"Name": "Yp\u00e4j\u00e4", "Country Code": "FI", "Population": 2659.0, "Lat": 60.8, "Lon": 23.28333}], "Ypenburg": [{"Name": "Ypenburg", "Country Code": "NL", "Population": 30000.0, "Lat": 52.04098, "Lon": 4.36981}], "Yport": [{"Name": "Yport", "Country Code": "FR", "Population": 1041.0, "Lat": 49.73716, "Lon": 0.31537}], "Ypsilanti": [{"Name": "Ypsilanti", "Country Code": "US", "Population": 19945.0, "Lat": 42.24115, "Lon": -83.61299}], "Ypsonas": [{"Name": "\u00ddpsonas", "Country Code": "CY", "Population": 7348.0, "Lat": 34.68797, "Lon": 32.96191}], "Yreka": [{"Name": "Yreka", "Country Code": "US", "Population": 7597.0, "Lat": 41.73542, "Lon": -122.63447}], "Yrghyz": [{"Name": "Yrghyz", "Country Code": "KZ", "Population": 4673.0, "Lat": 48.61958, "Lon": 61.26067}], "Yrougouin": [{"Name": "Yrougouin", "Country Code": "CI", "Population": 1187.0, "Lat": 7.64101, "Lon": -7.60762}], "Yrozon": [{"Name": "Yrozon", "Country Code": "CI", "Population": 5813.0, "Lat": 6.84043, "Lon": -7.21862}], "Ysper": [{"Name": "Ysper", "Country Code": "AT", "Population": 1149.0, "Lat": 48.28865, "Lon": 15.06131}], "Ysselsteyn": [{"Name": "Ysselsteyn", "Country Code": "NL", "Population": 2260.0, "Lat": 51.49, "Lon": 5.89722}], "Yssingeaux": [{"Name": "Yssingeaux", "Country Code": "FR", "Population": 7286.0, "Lat": 45.14282, "Lon": 4.12372}], "Ystad": [{"Name": "Ystad", "Country Code": "SE", "Population": 18806.0, "Lat": 55.42966, "Lon": 13.82041}], "Ystalyfera": [{"Name": "Ystalyfera", "Country Code": "GB", "Population": 10218.0, "Lat": 51.76716, "Lon": -3.78082}], "Ystrad Mynach": [{"Name": "Ystrad Mynach", "Country Code": "GB", "Population": 0.0, "Lat": 51.64276, "Lon": -3.2362}], "Ystradgynlais": [{"Name": "Ystradgynlais", "Country Code": "GB", "Population": 0.0, "Lat": 51.76667, "Lon": -3.76667}], "Ytrac": [{"Name": "Ytrac", "Country Code": "FR", "Population": 3421.0, "Lat": 44.912, "Lon": 2.36248}], "Ytre Arna": [{"Name": "Ytre Arna", "Country Code": "NO", "Population": 2484.0, "Lat": 60.46175, "Lon": 5.43265}], "Ytrebygda": [{"Name": "Ytrebygda", "Country Code": "NO", "Population": 24044.0, "Lat": 60.30504, "Lon": 5.28236}], "Ytteresse": [{"Name": "Ytteresse", "Country Code": "FI", "Population": 1758.0, "Lat": 63.62209, "Lon": 22.99456}], "Ytyk-Kyuyel'": [{"Name": "Ytyk-Kyuy\u00ebl\u2019", "Country Code": "RU", "Population": 7023.0, "Lat": 62.36119, "Lon": 133.56044}], "Yu Chui": [{"Name": "Yu Chui", "Country Code": "HK", "Population": 14944.0, "Lat": 22.38059, "Lon": 114.2053}], "Yuala": [{"Name": "Yuala", "Country Code": "CI", "Population": 1778.0, "Lat": 7.56667, "Lon": -6.51667}], "Yuanba": [{"Name": "Yuanba", "Country Code": "CN", "Population": 0.0, "Lat": 32.32563, "Lon": 105.96178}], "Yuanhe": [{"Name": "Yuanhe", "Country Code": "CN", "Population": 0.0, "Lat": 31.39929, "Lon": 120.61445}], "Yuanjiazhuang": [{"Name": "Yuanjiazhuang", "Country Code": "CN", "Population": 0.0, "Lat": 33.52319, "Lon": 107.983}], "Yuanjue": [{"Name": "Yuanjue", "Country Code": "CN", "Population": 9629.0, "Lat": 29.55846, "Lon": 105.31719}], "Yuanlin": [{"Name": "Yuanlin", "Country Code": "TW", "Population": 124725.0, "Lat": 23.95671, "Lon": 120.57608}], "Yuanling": [{"Name": "Yuanling", "Country Code": "CN", "Population": 0.0, "Lat": 28.44861, "Lon": 110.40222}], "Yuanmen": [{"Name": "Yuanmen", "Country Code": "CN", "Population": 9830.0, "Lat": 34.79722, "Lon": 105.8925}], "Yuanmou": [{"Name": "Yuanmou", "Country Code": "CN", "Population": 0.0, "Lat": 25.70589, "Lon": 101.86875}], "Yuanping": [{"Name": "Yuanping", "Country Code": "CN", "Population": 82883.0, "Lat": 38.71528, "Lon": 112.7575}], "Yuanquan": [{"Name": "Yuanquan", "Country Code": "CN", "Population": 0.0, "Lat": 40.5, "Lon": 95.8}], "Yuanshan": [{"Name": "Yuanshan", "Country Code": "CN", "Population": 0.0, "Lat": 24.36959, "Lon": 114.48962}], "Yuanshang": [{"Name": "Yuanshang", "Country Code": "CN", "Population": 74253.0, "Lat": 36.76833, "Lon": 120.34556}], "Yuanyang": [{"Name": "Yuanyang", "Country Code": "CN", "Population": 26352.0, "Lat": 34.78768, "Lon": 104.77531}, {"Name": "Yuanyang", "Country Code": "CN", "Population": 37009.0, "Lat": 29.66572, "Lon": 106.55749}], "Yuanyang Chengguanzhen": [{"Name": "Yuanyang Chengguanzhen", "Country Code": "CN", "Population": 0.0, "Lat": 35.05222, "Lon": 113.96389}], "Yuanzhou": [{"Name": "Yuanzhou", "Country Code": "CN", "Population": 0.0, "Lat": 27.79846, "Lon": 114.37608}], "Yuasa": [{"Name": "Yuasa", "Country Code": "JP", "Population": 11960.0, "Lat": 34.03686, "Lon": 135.18041}], "Yuba City": [{"Name": "Yuba City", "Country Code": "US", "Population": 66941.0, "Lat": 39.14045, "Lon": -121.61691}], "Yubari": [{"Name": "Y\u016bbari", "Country Code": "JP", "Population": 7175.0, "Lat": 43.03778, "Lon": 141.95778}], "Yubileyny": [{"Name": "Yubileyny", "Country Code": "RU", "Population": 32508.0, "Lat": 55.93333, "Lon": 37.83333}], "Yubileynyy": [{"Name": "Yubileynyy", "Country Code": "RU", "Population": 1656.0, "Lat": 58.7794, "Lon": 57.7822}], "Yubilyeyny": [{"Name": "Yubilyeyny", "Country Code": "BY", "Population": 3000.0, "Lat": 53.8191, "Lon": 27.5215}], "Yubo": [{"Name": "Yubo", "Country Code": "PH", "Population": 2373.0, "Lat": 10.3896, "Lon": 123.069}], "Yucaipa": [{"Name": "Yucaipa", "Country Code": "US", "Population": 53328.0, "Lat": 34.03363, "Lon": -117.04309}], "Yucay": [{"Name": "Yucay", "Country Code": "PE", "Population": 0.0, "Lat": -13.32139, "Lon": -72.08222}], "Yucca Valley": [{"Name": "Yucca Valley", "Country Code": "US", "Population": 21600.0, "Lat": 34.11417, "Lon": -116.43224}], "Yucebag": [{"Name": "Y\u00fcceba\u011f", "Country Code": "TR", "Population": 0.0, "Lat": 38.39367, "Lon": 41.26713}], "Yucheng": [{"Name": "Yucheng", "Country Code": "CN", "Population": 0.0, "Lat": 36.93099, "Lon": 116.65691}, {"Name": "Yucheng", "Country Code": "CN", "Population": 62365.0, "Lat": 34.92889, "Lon": 116.46528}], "Yuchi": [{"Name": "Yuchi", "Country Code": "CN", "Population": 10607.0, "Lat": 30.26577, "Lon": 108.22354}, {"Name": "Yuchi", "Country Code": "KR", "Population": 0.0, "Lat": 34.80247, "Lon": 126.83899}], "Yuci": [{"Name": "Yuci", "Country Code": "CN", "Population": 235929.0, "Lat": 37.68028, "Lon": 112.73194}], "Yucuita": [{"Name": "Yucuita", "Country Code": "MX", "Population": 517.0, "Lat": 17.51073, "Lon": -97.26965}], "Yucuyachi": [{"Name": "Yucuyachi", "Country Code": "MX", "Population": 0.0, "Lat": 17.60858, "Lon": -98.19675}], "Yudi": [{"Name": "Yudi", "Country Code": "CN", "Population": 6303.0, "Lat": 29.00326, "Lon": 108.91545}], "Yudomari": [{"Name": "Yudomari", "Country Code": "JP", "Population": 2034.0, "Lat": 30.2347, "Lon": 130.47942}], "Yudong": [{"Name": "Yudong", "Country Code": "CN", "Population": 81408.0, "Lat": 29.385, "Lon": 106.51944}], "Yue Fai Court": [{"Name": "Yue Fai Court", "Country Code": "HK", "Population": 3025.0, "Lat": 22.2498, "Lon": 114.15678}], "Yue Kwong Chuen": [{"Name": "Yue Kwong Chuen", "Country Code": "HK", "Population": 2679.0, "Lat": 22.25158, "Lon": 114.15764}], "Yue On Court": [{"Name": "Yue On Court", "Country Code": "HK", "Population": 5175.0, "Lat": 22.24304, "Lon": 114.15746}], "Yue Wan Estate": [{"Name": "Yue Wan Estate", "Country Code": "HK", "Population": 7998.0, "Lat": 22.26592, "Lon": 114.24129}], "Yuecheng": [{"Name": "Yuecheng", "Country Code": "CN", "Population": 0.0, "Lat": 28.64157, "Lon": 102.5087}], "Yuelai": [{"Name": "Yuelai", "Country Code": "CN", "Population": 12298.0, "Lat": 30.20531, "Lon": 108.26699}, {"Name": "Yuelai", "Country Code": "CN", "Population": 10654.0, "Lat": 29.73012, "Lon": 106.54489}], "Yuen Long": [{"Name": "Yuen Long", "Country Code": "HK", "Population": 200000.0, "Lat": 22.44518, "Lon": 114.02621}], "Yuen Long Kau Hui": [{"Name": "Yuen Long Kau Hui", "Country Code": "HK", "Population": 169600.0, "Lat": 22.45, "Lon": 114.03333}], "Yuen Long San Hui": [{"Name": "Yuen Long San Hui", "Country Code": "HK", "Population": 200000.0, "Lat": 22.43333, "Lon": 114.03333}], "Yuet Wu": [{"Name": "Yuet Wu", "Country Code": "HK", "Population": 12513.0, "Lat": 22.37529, "Lon": 113.96814}], "Yuexi": [{"Name": "Yuexi", "Country Code": "CN", "Population": 47802.0, "Lat": 30.91127, "Lon": 108.15926}], "Yueyang": [{"Name": "Yueyang", "Country Code": "CN", "Population": 0.0, "Lat": 36.2896, "Lon": 111.91454}, {"Name": "Yueyang", "Country Code": "CN", "Population": 991465.0, "Lat": 29.37455, "Lon": 113.09481}], "Yuezhao": [{"Name": "Yuezhao", "Country Code": "CN", "Population": 4663.0, "Lat": 33.14059, "Lon": 105.16108}], "Yufeng": [{"Name": "Yufeng", "Country Code": "CN", "Population": 0.0, "Lat": 24.31756, "Lon": 109.45569}], "Yufengshan": [{"Name": "Yufengshan", "Country Code": "CN", "Population": 23917.0, "Lat": 29.71975, "Lon": 106.72342}], "Yufrus": [{"Name": "Yufrus", "Country Code": "YE", "Population": 0.0, "Lat": 13.45529, "Lon": 43.94704}], "Yufu": [{"Name": "Yufu", "Country Code": "JP", "Population": 0.0, "Lat": 33.1956, "Lon": 131.37829}], "Yug": [{"Name": "Yug", "Country Code": "RU", "Population": 2412.0, "Lat": 57.7293, "Lon": 56.172}], "Yuganets": [{"Name": "Yuganets", "Country Code": "RU", "Population": 2991.0, "Lat": 56.2508, "Lon": 43.23069}], "Yugawara": [{"Name": "Yugawara", "Country Code": "JP", "Population": 23267.0, "Lat": 35.15, "Lon": 139.06667}], "Yugo-Kamskiy": [{"Name": "Yugo-Kamskiy", "Country Code": "RU", "Population": 7779.0, "Lat": 57.7026, "Lon": 55.5904}], "Yugorsk": [{"Name": "Yugorsk", "Country Code": "RU", "Population": 30878.0, "Lat": 61.31226, "Lon": 63.33067}], "Yuguan": [{"Name": "Yuguan", "Country Code": "CN", "Population": 5645.0, "Lat": 33.63539, "Lon": 106.16716}], "Yuguzhuang": [{"Name": "Yuguzhuang", "Country Code": "CN", "Population": 1442.0, "Lat": 39.64, "Lon": 117.35889}], "Yuhai": [{"Name": "Yuhai", "Country Code": "CN", "Population": 0.0, "Lat": 36.98129, "Lon": 105.90606}], "Yuhe": [{"Name": "Yuhe", "Country Code": "CN", "Population": 4539.0, "Lat": 32.99907, "Lon": 105.48614}], "Yuhuang": [{"Name": "Yuhuang", "Country Code": "CN", "Population": 8468.0, "Lat": 33.29227, "Lon": 105.22467}], "Yujia": [{"Name": "Yujia", "Country Code": "CN", "Population": 30454.0, "Lat": 30.8115, "Lon": 107.95377}], "Yujin": [{"Name": "Yujin", "Country Code": "CN", "Population": 0.0, "Lat": 29.20909, "Lon": 103.94556}], "Yujing": [{"Name": "Yujing", "Country Code": "TW", "Population": 16597.0, "Lat": 23.12493, "Lon": 120.46138}], "Yukamenskoye": [{"Name": "Yukamenskoye", "Country Code": "RU", "Population": 4278.0, "Lat": 57.8878, "Lon": 52.245}], "Yukari Tasyalak": [{"Name": "Yukar\u0131 Ta\u015fyalak", "Country Code": "TR", "Population": 1268.0, "Lat": 36.96306, "Lon": 40.13194}], "Yukhary-Dashkesan": [{"Name": "Yukhary-Dashkesan", "Country Code": "AZ", "Population": 9900.0, "Lat": 40.52393, "Lon": 46.08186}], "Yukhnov": [{"Name": "Yukhnov", "Country Code": "RU", "Population": 7934.0, "Lat": 54.74403, "Lon": 35.23233}], "Yuki": [{"Name": "Y\u016bki", "Country Code": "JP", "Population": 50282.0, "Lat": 36.3, "Lon": 139.88333}], "Yukon": [{"Name": "Yukon", "Country Code": "US", "Population": 25892.0, "Lat": 35.50672, "Lon": -97.76254}], "Yuksekova": [{"Name": "Y\u00fcksekova", "Country Code": "TR", "Population": 71729.0, "Lat": 37.57362, "Lon": 44.28716}], "Yuktae-dong": [{"Name": "Yuktae-dong", "Country Code": "KP", "Population": 76427.0, "Lat": 40.02472, "Lon": 128.15972}], "Yukuhashi": [{"Name": "Yukuhashi", "Country Code": "JP", "Population": 70601.0, "Lat": 33.72873, "Lon": 130.983}], "Yul'yevka": [{"Name": "Yul\u2019yevka", "Country Code": "KZ", "Population": 0.0, "Lat": 52.11775, "Lon": 64.27539}], "Yulara": [{"Name": "Yulara", "Country Code": "AU", "Population": 2244.0, "Lat": -25.2406, "Lon": 130.9889}], "Yulee": [{"Name": "Yulee", "Country Code": "US", "Population": 11491.0, "Lat": 30.6319, "Lon": -81.60649}], "Yulei": [{"Name": "Yulei", "Country Code": "CN", "Population": 4360.0, "Lat": 32.84056, "Lon": 105.00806}], "Yuli": [{"Name": "Yuli", "Country Code": "CN", "Population": 0.0, "Lat": 41.33662, "Lon": 86.25675}, {"Name": "Yuli", "Country Code": "NG", "Population": 9549.0, "Lat": 9.69707, "Lon": 10.2735}], "Yulin": [{"Name": "Yulin", "Country Code": "CN", "Population": 1056743.0, "Lat": 22.6305, "Lon": 110.14686}, {"Name": "Yulin", "Country Code": "CN", "Population": 0.0, "Lat": 22.65541, "Lon": 110.17819}, {"Name": "Yulin", "Country Code": "CN", "Population": 5336.0, "Lat": 31.67517, "Lon": 109.48636}], "Yulinshi": [{"Name": "Yulinshi", "Country Code": "CN", "Population": 90870.0, "Lat": 38.29181, "Lon": 109.73753}], "Yulong": [{"Name": "Yulong", "Country Code": "CN", "Population": 16072.0, "Lat": 29.54615, "Lon": 105.81044}, {"Name": "Yulong", "Country Code": "CN", "Population": 0.0, "Lat": 33.38324, "Lon": 120.13058}, {"Name": "Yulong", "Country Code": "CN", "Population": 15397.0, "Lat": 33.51003, "Lon": 105.1812}], "Yuma": [{"Name": "Yuma", "Country Code": "US", "Population": 94139.0, "Lat": 32.72532, "Lon": -114.6244}, {"Name": "Yuma", "Country Code": "US", "Population": 3596.0, "Lat": 40.12221, "Lon": -102.72521}], "Yumaguzino": [{"Name": "Yumaguzino", "Country Code": "RU", "Population": 5353.0, "Lat": 52.90412, "Lon": 56.39329}], "Yumani": [{"Name": "Yumani", "Country Code": "BO", "Population": 2500.0, "Lat": -16.03574, "Lon": -69.14843}], "Yumare": [{"Name": "Yumare", "Country Code": "VE", "Population": 15661.0, "Lat": 10.59703, "Lon": -68.67328}], "Yumbe": [{"Name": "Yumbe", "Country Code": "UG", "Population": 24300.0, "Lat": 3.46506, "Lon": 31.24689}], "Yumbel": [{"Name": "Yumbel", "Country Code": "CL", "Population": 11111.0, "Lat": -37.0982, "Lon": -72.56084}], "Yumbing": [{"Name": "Yumbing", "Country Code": "PH", "Population": 4930.0, "Lat": 9.23933, "Lon": 124.65778}], "Yumbo": [{"Name": "Yumbo", "Country Code": "CO", "Population": 71436.0, "Lat": 3.58234, "Lon": -76.49146}], "Yumen": [{"Name": "Yumen", "Country Code": "CN", "Population": 0.0, "Lat": 40.28333, "Lon": 97.2}], "Yumurtalik": [{"Name": "Yumurtal\u0131k", "Country Code": "TR", "Population": 0.0, "Lat": 36.76863, "Lon": 35.78938}], "Yunak": [{"Name": "Yunak", "Country Code": "TR", "Population": 14050.0, "Lat": 38.81418, "Lon": 31.73223}], "Yuncheng": [{"Name": "Yuncheng", "Country Code": "CN", "Population": 0.0, "Lat": 35.59833, "Lon": 115.93472}, {"Name": "Yuncheng", "Country Code": "CN", "Population": 680036.0, "Lat": 35.02306, "Lon": 110.99278}], "Yuncler": [{"Name": "Yuncler", "Country Code": "ES", "Population": 2467.0, "Lat": 40.04079, "Lon": -3.89979}], "Yuncos": [{"Name": "Yuncos", "Country Code": "ES", "Population": 5615.0, "Lat": 40.0859, "Lon": -3.87106}], "Yundum": [{"Name": "Yundum", "Country Code": "GM", "Population": 13162.0, "Lat": 13.34556, "Lon": -16.67278}], "Yunfu": [{"Name": "Yunfu", "Country Code": "CN", "Population": 2612800.0, "Lat": 22.92787, "Lon": 112.03809}], "Yung Shue Wan": [{"Name": "Yung Shue Wan", "Country Code": "HK", "Population": 6000.0, "Lat": 22.22623, "Lon": 114.11241}], "Yunga": [{"Name": "Yunga", "Country Code": "PE", "Population": 0.0, "Lat": -16.2, "Lon": -70.68333}], "Yungaburra": [{"Name": "Yungaburra", "Country Code": "AU", "Population": 1357.0, "Lat": -17.27058, "Lon": 145.58335}], "Yungar": [{"Name": "Yungar", "Country Code": "PE", "Population": 595.0, "Lat": -9.37794, "Lon": -77.59307}], "Yungay": [{"Name": "Yungay", "Country Code": "PE", "Population": 5269.0, "Lat": -9.13833, "Lon": -77.74361}], "Yunguyo": [{"Name": "Yunguyo", "Country Code": "PE", "Population": 16140.0, "Lat": -16.25, "Lon": -69.08333}], "Yunhe": [{"Name": "Yunhe", "Country Code": "CN", "Population": 0.0, "Lat": 26.5601, "Lon": 100.17625}, {"Name": "Yunhe", "Country Code": "CN", "Population": 0.0, "Lat": 38.30922, "Lon": 116.83199}], "Yuni": [{"Name": "Yuni", "Country Code": "PH", "Population": 5714.0, "Lat": 13.4124, "Lon": 122.4846}], "Yunji": [{"Name": "Yunji", "Country Code": "CN", "Population": 0.0, "Lat": 26.6932, "Lon": 112.66748}, {"Name": "Yunji", "Country Code": "CN", "Population": 27564.0, "Lat": 29.91943, "Lon": 107.34041}], "Yunjin": [{"Name": "Yunjin", "Country Code": "CN", "Population": 54385.0, "Lat": 29.0818, "Lon": 105.64329}], "Yunling": [{"Name": "Yunling", "Country Code": "CN", "Population": 0.0, "Lat": 23.95384, "Lon": 117.33603}], "Yunlong": [{"Name": "Yunlong", "Country Code": "CN", "Population": 345393.0, "Lat": 34.25281, "Lon": 117.25167}, {"Name": "Yunlong", "Country Code": "CN", "Population": 29673.0, "Lat": 30.5228, "Lon": 107.64196}], "Yunmen": [{"Name": "Yunmen", "Country Code": "CN", "Population": 68698.0, "Lat": 30.08274, "Lon": 106.32376}], "Yunmeng Chengguanzhen": [{"Name": "Yunmeng Chengguanzhen", "Country Code": "CN", "Population": 64390.0, "Lat": 31.06251, "Lon": 113.76545}], "Yunnanyi": [{"Name": "Yunnanyi", "Country Code": "CN", "Population": 93671.0, "Lat": 25.4245, "Lon": 100.689}], "Yunomae": [{"Name": "Yunomae", "Country Code": "JP", "Population": 4046.0, "Lat": 32.28333, "Lon": 130.98333}], "Yunquera": [{"Name": "Yunquera", "Country Code": "ES", "Population": 3298.0, "Lat": 36.73252, "Lon": -4.92122}], "Yunquera de Henares": [{"Name": "Yunquera de Henares", "Country Code": "ES", "Population": 2420.0, "Lat": 40.75139, "Lon": -3.1626}], "Yunshan": [{"Name": "Yunshan", "Country Code": "CN", "Population": 16220.0, "Lat": 34.76063, "Lon": 105.79252}, {"Name": "Yunshan", "Country Code": "CN", "Population": 52249.0, "Lat": 36.82417, "Lon": 120.22611}], "Yuntai": [{"Name": "Yuntai", "Country Code": "CN", "Population": 10962.0, "Lat": 33.44634, "Lon": 105.66561}, {"Name": "Yuntai", "Country Code": "CN", "Population": 40328.0, "Lat": 30.13894, "Lon": 107.20487}], "Yuntdag": [{"Name": "Yuntda\u011f", "Country Code": "TR", "Population": 0.0, "Lat": 38.93167, "Lon": 27.21361}], "Yunwu": [{"Name": "Yunwu", "Country Code": "CN", "Population": 3287.0, "Lat": 30.6006, "Lon": 109.12537}], "Yunxi": [{"Name": "Yunxi", "Country Code": "CN", "Population": 0.0, "Lat": 29.47328, "Lon": 113.2458}, {"Name": "Yunxi", "Country Code": "CN", "Population": 0.0, "Lat": 31.2264, "Lon": 105.38614}], "Yunxian Chengguanzhen": [{"Name": "Yunxian Chengguanzhen", "Country Code": "CN", "Population": 0.0, "Lat": 32.83129, "Lon": 110.80875}], "Yunxing": [{"Name": "Yunxing", "Country Code": "CN", "Population": 0.0, "Lat": 39.9991, "Lon": 112.69787}], "Yunxixian Chengguanzhen": [{"Name": "Yunxixian Chengguanzhen", "Country Code": "CN", "Population": 0.0, "Lat": 32.98276, "Lon": 110.42306}], "Yunyang": [{"Name": "Yunyang", "Country Code": "CN", "Population": 73922.0, "Lat": 33.44743, "Lon": 112.71422}, {"Name": "Yunyang", "Country Code": "CN", "Population": 0.0, "Lat": 31.99563, "Lon": 119.56463}], "Yunzhong": [{"Name": "Yunzhong", "Country Code": "CN", "Population": 0.0, "Lat": 39.82707, "Lon": 113.09622}], "Yupan": [{"Name": "Yupan", "Country Code": "CN", "Population": 14227.0, "Lat": 34.91651, "Lon": 104.91558}], "Yupiltepeque": [{"Name": "Yupiltepeque", "Country Code": "GT", "Population": 3028.0, "Lat": 14.19705, "Lon": -89.79262}], "Yuping": [{"Name": "Yuping", "Country Code": "CN", "Population": 0.0, "Lat": 22.97693, "Lon": 103.71085}], "Yuquan": [{"Name": "Yuquan", "Country Code": "CN", "Population": 0.0, "Lat": 40.44259, "Lon": 113.97442}], "Yuquanying": [{"Name": "Yuquanying", "Country Code": "CN", "Population": 5030.0, "Lat": 38.1377, "Lon": 105.985}], "Yuqunweng": [{"Name": "Yuqunweng", "Country Code": "CN", "Population": 46759.0, "Lat": 43.87444, "Lon": 81.62056}], "Yur'ya": [{"Name": "Yur\u2019ya", "Country Code": "RU", "Population": 0.0, "Lat": 59.04453, "Lon": 49.27533}], "Yur'yev-Pol'skiy": [{"Name": "Yur\u2019yev-Pol\u2019skiy", "Country Code": "RU", "Population": 19906.0, "Lat": 56.5046, "Lon": 39.67931}], "Yur'yevets": [{"Name": "Yur\u2019yevets", "Country Code": "RU", "Population": 11488.0, "Lat": 57.31213, "Lon": 43.10395}], "Yura": [{"Name": "Yura", "Country Code": "PE", "Population": 5686.0, "Lat": -16.25223, "Lon": -71.67969}], "Yuracyacu": [{"Name": "Yuracyacu", "Country Code": "PE", "Population": 0.0, "Lat": -5.93139, "Lon": -77.22667}], "Yurecuaro": [{"Name": "Yur\u00e9cuaro", "Country Code": "MX", "Population": 23843.0, "Lat": 20.33606, "Lon": -102.28382}], "Yuregir": [{"Name": "Y\u00fcre\u011fir", "Country Code": "TR", "Population": 0.0, "Lat": 36.97439, "Lon": 35.35916}], "Yureo": [{"Name": "Yureo", "Country Code": "KR", "Population": 0.0, "Lat": 34.87102, "Lon": 127.18702}], "Yurga": [{"Name": "Yurga", "Country Code": "RU", "Population": 84220.0, "Lat": 55.72306, "Lon": 84.88611}], "Yurgamysh": [{"Name": "Yurgamysh", "Country Code": "RU", "Population": 7888.0, "Lat": 55.37454, "Lon": 64.46222}], "Yurginskoye": [{"Name": "Yurginskoye", "Country Code": "RU", "Population": 4606.0, "Lat": 56.81888, "Lon": 67.39211}], "Yurihonjo": [{"Name": "Yurihonj\u014d", "Country Code": "JP", "Population": 76077.0, "Lat": 39.3895, "Lon": 140.05813}], "Yurimaguas": [{"Name": "Yurimaguas", "Country Code": "PE", "Population": 41827.0, "Lat": -5.90181, "Lon": -76.12234}], "Yurino": [{"Name": "Yurino", "Country Code": "RU", "Population": 4199.0, "Lat": 56.29441, "Lon": 46.30198}], "Yuriria": [{"Name": "Yuriria", "Country Code": "MX", "Population": 25216.0, "Lat": 20.21081, "Lon": -101.13212}], "Yurkivka": [{"Name": "Yurkivka", "Country Code": "UA", "Population": 2887.0, "Lat": 49.01082, "Lon": 31.08797}], "Yurkivtsi": [{"Name": "Yurkivtsi", "Country Code": "UA", "Population": 1846.0, "Lat": 48.50197, "Lon": 25.93335}], "Yurla": [{"Name": "Yurla", "Country Code": "RU", "Population": 4058.0, "Lat": 59.3251, "Lon": 54.3278}], "Yurovka": [{"Name": "Yurovka", "Country Code": "RU", "Population": 3510.0, "Lat": 45.1147, "Lon": 37.41882}], "Yurty": [{"Name": "Yurty", "Country Code": "RU", "Population": 5902.0, "Lat": 56.0498, "Lon": 97.6348}], "Yuruk": [{"Name": "Y\u00fcr\u00fck", "Country Code": "TR", "Population": 0.0, "Lat": 40.93553, "Lon": 27.06631}], "Yuryivka": [{"Name": "Yuryivka", "Country Code": "UA", "Population": 2193.0, "Lat": 48.74323, "Lon": 36.01692}], "Yuryuzan'": [{"Name": "Yuryuzan\u2019", "Country Code": "RU", "Population": 13424.0, "Lat": 54.86333, "Lon": 58.42194}], "Yuscaran": [{"Name": "Yuscar\u00e1n", "Country Code": "HN", "Population": 2371.0, "Lat": 13.94389, "Lon": -86.85278}], "Yuseong": [{"Name": "Yuseong", "Country Code": "KR", "Population": 0.0, "Lat": 36.35389, "Lon": 127.33667}], "Yushala": [{"Name": "Yushala", "Country Code": "RU", "Population": 4169.0, "Lat": 57.07611, "Lon": 64.26011}], "Yushan": [{"Name": "Yushan", "Country Code": "CN", "Population": 30981.0, "Lat": 29.53284, "Lon": 108.42504}, {"Name": "Yushan", "Country Code": "CN", "Population": 0.0, "Lat": 31.67265, "Lon": 118.48456}, {"Name": "Yushan", "Country Code": "CN", "Population": 2640.0, "Lat": 26.90863, "Lon": 118.56713}, {"Name": "Yushan", "Country Code": "CN", "Population": 0.0, "Lat": 31.67748, "Lon": 120.80134}], "Yushkozero": [{"Name": "Yushkozero", "Country Code": "RU", "Population": 1300.0, "Lat": 64.75162, "Lon": 32.10255}], "Yushu": [{"Name": "Yushu", "Country Code": "CN", "Population": 6012.0, "Lat": 33.95978, "Lon": 106.00571}, {"Name": "Yushu", "Country Code": "CN", "Population": 124736.0, "Lat": 44.82751, "Lon": 126.54063}], "Yustis": [{"Name": "Yustis", "Country Code": "MX", "Population": 1713.0, "Lat": 20.58233, "Lon": -100.86392}], "Yusuf as-Siddiq": [{"Name": "Y\u016bsuf a\u1e63-\u1e62idd\u012bq", "Country Code": "EG", "Population": 23965.0, "Lat": 29.385, "Lon": 30.557}], "Yusufeli": [{"Name": "Yusufeli", "Country Code": "TR", "Population": 6847.0, "Lat": 40.82042, "Lon": 41.53743}], "Yutai": [{"Name": "Yutai", "Country Code": "CN", "Population": 0.0, "Lat": 35.00337, "Lon": 116.64503}], "Yutan": [{"Name": "Yutan", "Country Code": "CN", "Population": 55312.0, "Lat": 28.25831, "Lon": 112.56048}, {"Name": "Yutan", "Country Code": "US", "Population": 1212.0, "Lat": 41.245, "Lon": -96.39725}], "Yutanduchi de Guerrero": [{"Name": "Yutanduchi de Guerrero", "Country Code": "MX", "Population": 1148.0, "Lat": 17.0402, "Lon": -97.29795}], "Yutian": [{"Name": "Yutian", "Country Code": "CN", "Population": 0.0, "Lat": 39.87861, "Lon": 117.73917}], "Yuto": [{"Name": "Yuto", "Country Code": "AR", "Population": 7732.0, "Lat": -23.64281, "Lon": -64.47162}, {"Name": "Yuto", "Country Code": "CO", "Population": 0.0, "Lat": 5.53168, "Lon": -76.63512}], "Yutsa": [{"Name": "Yutsa", "Country Code": "RU", "Population": 8702.0, "Lat": 43.95639, "Lon": 43.01278}], "Yuty": [{"Name": "Yuty", "Country Code": "PY", "Population": 4774.0, "Lat": -26.61415, "Lon": -56.24727}], "Yutz": [{"Name": "Yutz", "Country Code": "FR", "Population": 15659.0, "Lat": 49.35571, "Lon": 6.1926}], "Yuva": [{"Name": "Yuva", "Country Code": "TR", "Population": 1347.0, "Lat": 38.24476, "Lon": 34.15368}], "Yuvacik": [{"Name": "Yuvac\u0131k", "Country Code": "TR", "Population": 7338.0, "Lat": 40.68815, "Lon": 29.96738}], "Yuvallim": [{"Name": "Yuvallim", "Country Code": "IL", "Population": 1093.0, "Lat": 32.87756, "Lon": 35.27031}], "Yuxari Aran": [{"Name": "Yuxar\u0131 Aran", "Country Code": "AZ", "Population": 1623.0, "Lat": 39.73361, "Lon": 47.655}], "Yuxi": [{"Name": "Yuxi", "Country Code": "CN", "Population": 0.0, "Lat": 28.889, "Lon": 107.594}, {"Name": "Yuxi", "Country Code": "CN", "Population": 16463.0, "Lat": 30.32392, "Lon": 105.77743}, {"Name": "Yuxi", "Country Code": "CN", "Population": 103829.0, "Lat": 24.355, "Lon": 102.54222}], "Yuxia": [{"Name": "Yuxia", "Country Code": "CN", "Population": 60206.0, "Lat": 34.06153, "Lon": 108.62905}], "Yuyao": [{"Name": "Yuyao", "Country Code": "CN", "Population": 114177.0, "Lat": 30.05, "Lon": 121.14944}], "Yuyapichis": [{"Name": "Yuyapichis", "Country Code": "PE", "Population": 739.0, "Lat": -9.62789, "Lon": -74.97459}], "Yuyue": [{"Name": "Yuyue", "Country Code": "CN", "Population": 0.0, "Lat": 30.0182, "Lon": 113.96325}], "Yuza": [{"Name": "Yuza", "Country Code": "JP", "Population": 13615.0, "Lat": 39.01573, "Lon": 139.92909}], "Yuzawa": [{"Name": "Yuzawa", "Country Code": "JP", "Population": 44346.0, "Lat": 39.16667, "Lon": 140.5}, {"Name": "Yuzawa", "Country Code": "JP", "Population": 7926.0, "Lat": 36.93804, "Lon": 138.81331}], "Yuzha": [{"Name": "Yuzha", "Country Code": "RU", "Population": 14678.0, "Lat": 56.58374, "Lon": 42.01177}], "Yuzhne": [{"Name": "Yuzhne", "Country Code": "UA", "Population": 32677.0, "Lat": 46.62472, "Lon": 31.10182}], "Yuzhno-Kurilsk": [{"Name": "Yuzhno-Kurilsk", "Country Code": "RU", "Population": 7777.0, "Lat": 44.02734, "Lon": 145.86146}], "Yuzhno-Sakhalinsk": [{"Name": "Yuzhno-Sakhalinsk", "Country Code": "RU", "Population": 198973.0, "Lat": 46.95407, "Lon": 142.73603}], "Yuzhno-Sukhokumsk": [{"Name": "Yuzhno-Sukhokumsk", "Country Code": "RU", "Population": 10665.0, "Lat": 44.66033, "Lon": 45.6475}], "Yuzhnoukrayinsk": [{"Name": "Yuzhnoukrayinsk", "Country Code": "UA", "Population": 38560.0, "Lat": 47.82879, "Lon": 31.17513}], "Yuzhnoural'sk": [{"Name": "Yuzhnoural\u2019sk", "Country Code": "RU", "Population": 39200.0, "Lat": 54.4418, "Lon": 61.2536}], "Yuzhnyy": [{"Name": "Yuzhnyy", "Country Code": "RU", "Population": 3111.0, "Lat": 54.54837, "Lon": 20.59843}, {"Name": "Yuzhnyy", "Country Code": "RU", "Population": 19515.0, "Lat": 53.25417, "Lon": 83.69361}, {"Name": "Yuzhnyy", "Country Code": "RU", "Population": 4504.0, "Lat": 45.0025, "Lon": 40.47472}, {"Name": "Yuzhnyy", "Country Code": "RU", "Population": 3320.0, "Lat": 44.72111, "Lon": 39.87918}], "Yuzhnyy-Kospashskiy": [{"Name": "Yuzhnyy-Kospashskiy", "Country Code": "RU", "Population": 2275.0, "Lat": 58.9725, "Lon": 57.759}], "Yuzhong Chengguanzhen": [{"Name": "Yuzhong Chengguanzhen", "Country Code": "CN", "Population": 0.0, "Lat": 35.84278, "Lon": 104.1125}], "Yuzhou": [{"Name": "Yuzhou", "Country Code": "CN", "Population": 0.0, "Lat": 39.83246, "Lon": 114.57594}], "Yuzhynets": [{"Name": "Yuzhynets", "Country Code": "UA", "Population": 1128.0, "Lat": 48.53812, "Lon": 25.66149}], "Yverdon-les-Bains": [{"Name": "Yverdon-les-Bains", "Country Code": "CH", "Population": 23702.0, "Lat": 46.77852, "Lon": 6.64115}], "Yves": [{"Name": "Yves", "Country Code": "FR", "Population": 1128.0, "Lat": 46.01909, "Lon": -1.04806}], "Yves-Gomezee": [{"Name": "Yves-Gomez\u00e9e", "Country Code": "BE", "Population": 1680.0, "Lat": 50.23926, "Lon": 4.49344}], "Yvetot": [{"Name": "Yvetot", "Country Code": "FR", "Population": 11232.0, "Lat": 49.61744, "Lon": 0.75814}], "Yvignac-la-Tour": [{"Name": "Yvignac-la-Tour", "Country Code": "FR", "Population": 1124.0, "Lat": 48.35, "Lon": -2.18333}], "Yvoir": [{"Name": "Yvoir", "Country Code": "BE", "Population": 8169.0, "Lat": 50.3279, "Lon": 4.88059}], "Yvonand": [{"Name": "Yvonand", "Country Code": "CH", "Population": 2401.0, "Lat": 46.80034, "Lon": 6.74249}], "Yvrac": [{"Name": "Yvrac", "Country Code": "FR", "Population": 2357.0, "Lat": 44.88063, "Lon": -0.4618}], "Yvre-le-Polin": [{"Name": "Yvr\u00e9-le-P\u00f4lin", "Country Code": "FR", "Population": 1747.0, "Lat": 47.81953, "Lon": 0.15253}], "Yylanly": [{"Name": "Yylanly", "Country Code": "TM", "Population": 26901.0, "Lat": 41.83333, "Lon": 59.65}], "Yzernay": [{"Name": "Yzernay", "Country Code": "FR", "Population": 1565.0, "Lat": 47.02143, "Lon": -0.70353}], "Yzeure": [{"Name": "Yzeure", "Country Code": "FR", "Population": 13435.0, "Lat": 46.56596, "Lon": 3.35446}], "Yzeures-sur-Creuse": [{"Name": "Yzeures-sur-Creuse", "Country Code": "FR", "Population": 1550.0, "Lat": 46.78609, "Lon": 0.87166}], "Za": [{"Name": "Za", "Country Code": "CI", "Population": 1844.0, "Lat": 6.71535, "Lon": -6.4345}], "Za Bougrine": [{"Name": "Za Bougrine", "Country Code": "MA", "Population": 4490.0, "Lat": 33.85524, "Lon": -4.48813}], "Za'tarah": [{"Name": "Za\u2018tarah", "Country Code": "PS", "Population": 6210.0, "Lat": 31.67361, "Lon": 35.25662}], "Zaadi": [{"Name": "Zaadi", "Country Code": "CI", "Population": 9158.0, "Lat": 6.33317, "Lon": -5.73659}], "Zaakro": [{"Name": "Zaakro", "Country Code": "CI", "Population": 1217.0, "Lat": 6.59968, "Lon": -5.07086}], "Zaamslag": [{"Name": "Zaamslag", "Country Code": "NL", "Population": 2980.0, "Lat": 51.3125, "Lon": 3.9125}], "Zaandam": [{"Name": "Zaandam", "Country Code": "NL", "Population": 71708.0, "Lat": 52.43854, "Lon": 4.82643}], "Zaandijk": [{"Name": "Zaandijk", "Country Code": "NL", "Population": 9040.0, "Lat": 52.47494, "Lon": 4.80686}], "Zaanstad": [{"Name": "Zaanstad", "Country Code": "NL", "Population": 140085.0, "Lat": 52.45313, "Lon": 4.81356}], "Zabala": [{"Name": "Z\u0103bala", "Country Code": "RO", "Population": 4729.0, "Lat": 45.9, "Lon": 26.18333}], "Zabalj": [{"Name": "\u017dabalj", "Country Code": "RS", "Population": 8503.0, "Lat": 45.37222, "Lon": 20.06389}], "Zabanandougou": [{"Name": "Zabanandougou", "Country Code": "CI", "Population": 1317.0, "Lat": 8.27009, "Lon": -8.16712}], "Zabari": [{"Name": "\u017dabari", "Country Code": "RS", "Population": 0.0, "Lat": 44.35611, "Lon": 21.215}], "Zabaykal'sk": [{"Name": "Zabaykal\u2019sk", "Country Code": "RU", "Population": 10563.0, "Lat": 49.6513, "Lon": 117.32557}], "Zabbar": [{"Name": "\u017babbar", "Country Code": "MT", "Population": 15648.0, "Lat": 35.87611, "Lon": 14.535}], "Zabcice": [{"Name": "\u017dab\u010dice", "Country Code": "CZ", "Population": 1492.0, "Lat": 49.0116, "Lon": 16.60257}], "Zabeltitz": [{"Name": "Zabeltitz", "Country Code": "DE", "Population": 3047.0, "Lat": 51.35147, "Lon": 13.50462}], "Zaberfeld": [{"Name": "Zaberfeld", "Country Code": "DE", "Population": 3843.0, "Lat": 49.05611, "Lon": 8.92694}], "Zabia Wola": [{"Name": "\u017babia Wola", "Country Code": "PL", "Population": 1256.0, "Lat": 52.03169, "Lon": 20.69112}], "Zabid": [{"Name": "Zab\u012bd", "Country Code": "YE", "Population": 52590.0, "Lat": 14.1951, "Lon": 43.31518}], "Zabieniec": [{"Name": "\u017babieniec", "Country Code": "PL", "Population": 1126.0, "Lat": 52.05856, "Lon": 21.04817}], "Zabierzow": [{"Name": "Zabierz\u00f3w", "Country Code": "PL", "Population": 4689.0, "Lat": 50.11425, "Lon": 19.79788}], "Zabierzow Bochenski": [{"Name": "Zabierz\u00f3w Boche\u0144ski", "Country Code": "PL", "Population": 1700.0, "Lat": 50.06821, "Lon": 20.31896}], "Zabki": [{"Name": "Z\u0105bki", "Country Code": "PL", "Population": 23473.0, "Lat": 52.29271, "Lon": 21.10539}], "Zabkowice Slaskie": [{"Name": "Z\u0105bkowice \u015al\u0105skie", "Country Code": "PL", "Population": 16321.0, "Lat": 50.58969, "Lon": 16.81239}], "Zabljak": [{"Name": "\u017dabljak", "Country Code": "ME", "Population": 1937.0, "Lat": 43.15423, "Lon": 19.12325}], "Zablocie": [{"Name": "Zab\u0142ocie", "Country Code": "PL", "Population": 1316.0, "Lat": 49.90282, "Lon": 18.78147}], "Zabludow": [{"Name": "Zab\u0142ud\u00f3w", "Country Code": "PL", "Population": 2452.0, "Lat": 53.01442, "Lon": 23.33831}], "Zabnica": [{"Name": "\u017babnica", "Country Code": "PL", "Population": 3120.0, "Lat": 49.58139, "Lon": 19.15621}], "Zabno": [{"Name": "\u017babno", "Country Code": "PL", "Population": 4250.0, "Lat": 50.13334, "Lon": 20.88615}], "Zabok": [{"Name": "Zabok", "Country Code": "HR", "Population": 3408.0, "Lat": 46.02626, "Lon": 15.90391}], "Zabol": [{"Name": "Z\u0101bol", "Country Code": "IR", "Population": 121989.0, "Lat": 31.0306, "Lon": 61.4949}], "Zaboli": [{"Name": "Z\u0101bol\u012b", "Country Code": "IR", "Population": 0.0, "Lat": 27.131, "Lon": 61.67445}], "Zabolotiv": [{"Name": "Zabolotiv", "Country Code": "UA", "Population": 3998.0, "Lat": 48.467, "Lon": 25.28523}], "Zabolotovka": [{"Name": "Zabolotovka", "Country Code": "RU", "Population": 3308.0, "Lat": 50.27798, "Lon": 39.31439}], "Zabor": [{"Name": "Zab\u00f3r", "Country Code": "PL", "Population": 950.0, "Lat": 51.95194, "Lon": 15.71676}], "Zaborze": [{"Name": "Zaborze", "Country Code": "PL", "Population": 2489.0, "Lat": 50.02175, "Lon": 19.24067}, {"Name": "Zaborze", "Country Code": "PL", "Population": 1005.0, "Lat": 49.87279, "Lon": 18.8037}], "Zabrani": [{"Name": "Z\u0103brani", "Country Code": "RO", "Population": 4392.0, "Lat": 46.06667, "Lon": 21.55}], "Zabrat": [{"Name": "Zabrat", "Country Code": "AZ", "Population": 21396.0, "Lat": 40.47746, "Lon": 49.94174}], "Zabre": [{"Name": "Zabr\u00e9", "Country Code": "BF", "Population": 21726.0, "Lat": 11.1825, "Lon": -0.63222},