{"Laroque-Timbaut": [{"Name": "Laroque-Timbaut", "Country Code": "FR", "Population": 1405.0, "Lat": 44.28363, "Lon": 0.76181}], "Laroque-d'Olmes": [{"Name": "Laroque-d'Olmes", "Country Code": "FR", "Population": 2713.0, "Lat": 42.97033, "Lon": 1.87098}], "Laroque-des-Alberes": [{"Name": "Laroque-des-Alb\u00e8res", "Country Code": "FR", "Population": 2086.0, "Lat": 42.5213, "Lon": 2.93374}], "Laroquebrou": [{"Name": "Laroquebrou", "Country Code": "FR", "Population": 1091.0, "Lat": 44.96855, "Lon": 2.19158}], "Larose": [{"Name": "Larose", "Country Code": "US", "Population": 7400.0, "Lat": 29.57244, "Lon": -90.38175}], "Laroya": [{"Name": "Laroya", "Country Code": "ES", "Population": 141.0, "Lat": 37.29771, "Lon": -2.33419}], "Larraga": [{"Name": "Larraga", "Country Code": "ES", "Population": 1959.0, "Lat": 42.55841, "Lon": -1.84954}], "Larrainzar": [{"Name": "Larr\u00e1inzar", "Country Code": "MX", "Population": 2364.0, "Lat": 16.88392, "Lon": -92.71329}], "Larrakeyah": [{"Name": "Larrakeyah", "Country Code": "AU", "Population": 4245.0, "Lat": -12.45527, "Lon": 130.83172}], "Larraona": [{"Name": "Larraona", "Country Code": "ES", "Population": 140.0, "Lat": 42.7797, "Lon": -2.25682}], "Larraul": [{"Name": "Larraul", "Country Code": "ES", "Population": 184.0, "Lat": 43.18773, "Lon": -2.10202}], "Larressore": [{"Name": "Larressore", "Country Code": "FR", "Population": 1426.0, "Lat": 43.37024, "Lon": -1.43924}], "Larreynaga": [{"Name": "Larreynaga", "Country Code": "NI", "Population": 7703.0, "Lat": 12.67692, "Lon": -86.57193}], "Larringes": [{"Name": "Larringes", "Country Code": "FR", "Population": 1077.0, "Lat": 46.36919, "Lon": 6.57125}], "Larrodrigo": [{"Name": "Larrodrigo", "Country Code": "ES", "Population": 277.0, "Lat": 40.73722, "Lon": -5.44895}], "Larroque": [{"Name": "Larroque", "Country Code": "AR", "Population": 6200.0, "Lat": -33.03511, "Lon": -58.99982}], "Larsmo": [{"Name": "Larsmo", "Country Code": "FI", "Population": 4331.0, "Lat": 63.75388, "Lon": 22.74728}], "Larsnes": [{"Name": "Larsnes", "Country Code": "NO", "Population": 626.0, "Lat": 62.20282, "Lon": 5.57729}], "Lartington": [{"Name": "Lartington", "Country Code": "GB", "Population": 0.0, "Lat": 54.55415, "Lon": -1.97239}], "Laruns": [{"Name": "Laruns", "Country Code": "FR", "Population": 1546.0, "Lat": 42.98826, "Lon": -0.42658}], "Laruscade": [{"Name": "Laruscade", "Country Code": "FR", "Population": 1852.0, "Lat": 45.10812, "Lon": -0.34109}], "Larva": [{"Name": "Larva", "Country Code": "ES", "Population": 491.0, "Lat": 37.76069, "Lon": -3.20269}], "Larvik": [{"Name": "Larvik", "Country Code": "NO", "Population": 23113.0, "Lat": 59.05328, "Lon": 10.03517}], "Larzhanka": [{"Name": "Larzhanka", "Country Code": "UA", "Population": 2386.0, "Lat": 45.35492, "Lon": 28.71472}], "Las Acequias": [{"Name": "Las Acequias", "Country Code": "AR", "Population": 2116.0, "Lat": -33.28057, "Lon": -63.97608}], "Las Aguamitas": [{"Name": "Las Aguamitas", "Country Code": "MX", "Population": 1629.0, "Lat": 24.57556, "Lon": -107.80056}], "Las Amapolas": [{"Name": "Las Amapolas", "Country Code": "MX", "Population": 14553.0, "Lat": 19.15194, "Lon": -96.19778}], "Las Animas": [{"Name": "Las Animas", "Country Code": "CL", "Population": 30000.0, "Lat": -39.80867, "Lon": -73.21821}, {"Name": "Las \u00c1nimas", "Country Code": "HN", "Population": 1117.0, "Lat": 14.25, "Lon": -86.56667}, {"Name": "Las \u00c1nimas", "Country Code": "MX", "Population": 1557.0, "Lat": 16.97284, "Lon": -99.31964}, {"Name": "Las \u00c1nimas", "Country Code": "MX", "Population": 1794.0, "Lat": 22.09057, "Lon": -102.26684}, {"Name": "Las \u00c1nimas", "Country Code": "MX", "Population": 1063.0, "Lat": 20.39709, "Lon": -101.79964}, {"Name": "Las Animas", "Country Code": "US", "Population": 2227.0, "Lat": 38.06667, "Lon": -103.22271}], "Las Arenitas": [{"Name": "Las Arenitas", "Country Code": "MX", "Population": 1838.0, "Lat": 24.37245, "Lon": -107.53612}], "Las Armas": [{"Name": "Las Armas", "Country Code": "MX", "Population": 1042.0, "Lat": 21.69685, "Lon": -98.96752}], "Las Barrillas": [{"Name": "Las Barrillas", "Country Code": "MX", "Population": 1031.0, "Lat": 18.18617, "Lon": -94.59542}], "Las Bocas": [{"Name": "Las Bocas", "Country Code": "MX", "Population": 1049.0, "Lat": 26.58821, "Lon": -109.33622}], "Las Brenas": [{"Name": "Las Bre\u00f1as", "Country Code": "AR", "Population": 26955.0, "Lat": -27.08966, "Lon": -61.08161}], "Las Brisas": [{"Name": "Las Brisas", "Country Code": "MX", "Population": 1078.0, "Lat": 30.96056, "Lon": -116.16444}, {"Name": "Las Brisas", "Country Code": "MX", "Population": 2176.0, "Lat": 25.49022, "Lon": -108.24587}, {"Name": "Las Brisas", "Country Code": "MX", "Population": 1718.0, "Lat": 15.51681, "Lon": -93.11763}], "Las Cabezas de San Juan": [{"Name": "Las Cabezas de San Juan", "Country Code": "ES", "Population": 16379.0, "Lat": 36.9838, "Lon": -5.93933}], "Las Cabras": [{"Name": "Las Cabras", "Country Code": "PA", "Population": 0.0, "Lat": 7.87704, "Lon": -80.54811}], "Las Canadas": [{"Name": "Las Ca\u00f1adas", "Country Code": "MX", "Population": 2223.0, "Lat": 20.2975, "Lon": -101.97806}], "Las Canas": [{"Name": "Las Ca\u00f1as", "Country Code": "MX", "Population": 1076.0, "Lat": 18.56583, "Lon": -101.97611}, {"Name": "Las Ca\u00f1as", "Country Code": "MX", "Population": 1093.0, "Lat": 20.29586, "Lon": -101.41823}], "Las Casitas del Vegon de Nutrias": [{"Name": "Las Casitas del Vegon de Nutrias", "Country Code": "VE", "Population": 0.0, "Lat": 8.23704, "Lon": -69.4183}], "Las Catarinas": [{"Name": "Las Catarinas", "Country Code": "MX", "Population": 1535.0, "Lat": 23.09115, "Lon": -102.61597}], "Las Charcas": [{"Name": "Las Charcas", "Country Code": "DO", "Population": 4720.0, "Lat": 18.45026, "Lon": -70.61724}], "Las Chicharras": [{"Name": "Las Chicharras", "Country Code": "MX", "Population": 1324.0, "Lat": 15.67089, "Lon": -92.2107}], "Las Choapas": [{"Name": "Las Choapas", "Country Code": "MX", "Population": 42693.0, "Lat": 17.91177, "Lon": -94.09646}], "Las Cieneguitas": [{"Name": "Las Cieneguitas", "Country Code": "MX", "Population": 1335.0, "Lat": 20.24884, "Lon": -102.24505}], "Las Colinas": [{"Name": "Las Colinas", "Country Code": "PA", "Population": 1447.0, "Lat": 8.55, "Lon": -80.08333}], "Las Colonias de Hidalgo": [{"Name": "Las Colonias de Hidalgo", "Country Code": "MX", "Population": 3243.0, "Lat": 20.19611, "Lon": -97.97667}], "Las Coloradas": [{"Name": "Las Coloradas", "Country Code": "AR", "Population": 0.0, "Lat": -39.55641, "Lon": -70.59415}, {"Name": "Las Coloradas", "Country Code": "MX", "Population": 1151.0, "Lat": 21.60767, "Lon": -87.99045}], "Las Compuertas": [{"Name": "Las Compuertas", "Country Code": "MX", "Population": 1101.0, "Lat": 17.19559, "Lon": -100.0084}, {"Name": "Las Compuertas", "Country Code": "MX", "Population": 4156.0, "Lat": 25.84202, "Lon": -109.0198}], "Las Cruces": [{"Name": "Las Cruces", "Country Code": "MX", "Population": 1696.0, "Lat": 16.97304, "Lon": -99.44515}, {"Name": "Las Cruces", "Country Code": "MX", "Population": 1206.0, "Lat": 29.43278, "Lon": -107.38958}, {"Name": "Las Cruces", "Country Code": "PA", "Population": 823.0, "Lat": 7.8272, "Lon": -80.42973}, {"Name": "Las Cruces", "Country Code": "US", "Population": 101643.0, "Lat": 32.31232, "Lon": -106.77834}], "Las Cuevas": [{"Name": "Las Cuevas", "Country Code": "MX", "Population": 1125.0, "Lat": 25.49815, "Lon": -103.5495}], "Las Cumbres": [{"Name": "Las Cumbres", "Country Code": "PA", "Population": 69102.0, "Lat": 9.09211, "Lon": -79.53895}], "Las Delicias": [{"Name": "Las Delicias", "Country Code": "MX", "Population": 15486.0, "Lat": 32.40889, "Lon": -116.94361}, {"Name": "Las Delicias", "Country Code": "MX", "Population": 2121.0, "Lat": 15.96932, "Lon": -91.86315}], "Las Esperanzas (El Ranchito)": [{"Name": "Las Esperanzas (El Ranchito)", "Country Code": "MX", "Population": 2425.0, "Lat": 23.84972, "Lon": -103.13111}], "Las Flechas": [{"Name": "Las Flechas", "Country Code": "MX", "Population": 1579.0, "Lat": 16.70028, "Lon": -93.02639}], "Las Flores": [{"Name": "Las Flores", "Country Code": "AR", "Population": 0.0, "Lat": -36.01427, "Lon": -59.09986}, {"Name": "Las Flores", "Country Code": "US", "Population": 6037.0, "Lat": 34.03723, "Lon": -118.63592}, {"Name": "Las Flores", "Country Code": "US", "Population": 5971.0, "Lat": 33.58808, "Lon": -117.62672}], "Las Gabias": [{"Name": "Las Gabias", "Country Code": "ES", "Population": 16369.0, "Lat": 37.13548, "Lon": -3.67029}], "Las Garcitas": [{"Name": "Las Garcitas", "Country Code": "AR", "Population": 4244.0, "Lat": -26.61802, "Lon": -59.80135}], "Las Gaviotas": [{"Name": "Las Gaviotas", "Country Code": "CL", "Population": 1500.0, "Lat": -39.86653, "Lon": -73.18834}], "Las Golondrinas [Fraccionamiento]": [{"Name": "Las Golondrinas [Fraccionamiento]", "Country Code": "MX", "Population": 1135.0, "Lat": 22.10528, "Lon": -103.25417}], "Las Grullas Margen Derecha": [{"Name": "Las Grullas Margen Derecha", "Country Code": "MX", "Population": 1383.0, "Lat": 25.8777, "Lon": -109.33773}], "Las Grullas Margen Izquierda": [{"Name": "Las Grullas Margen Izquierda", "Country Code": "MX", "Population": 2628.0, "Lat": 25.85306, "Lon": -109.32917}], "Las Guabas": [{"Name": "Las Guabas", "Country Code": "PA", "Population": 165.0, "Lat": 7.91059, "Lon": -80.80535}, {"Name": "Las Guabas", "Country Code": "PA", "Population": 192.0, "Lat": 7.81469, "Lon": -80.50155}], "Las Guaranas": [{"Name": "Las Gu\u00e1ranas", "Country Code": "DO", "Population": 9586.0, "Lat": 19.1931, "Lon": -70.20835}], "Las Guias Abajo": [{"Name": "Las Gu\u00edas Abajo", "Country Code": "PA", "Population": 416.0, "Lat": 8.19838, "Lon": -80.75699}], "Las Heras": [{"Name": "Las Heras", "Country Code": "AR", "Population": 9303.0, "Lat": -46.54131, "Lon": -68.93227}, {"Name": "Las Heras", "Country Code": "AR", "Population": 0.0, "Lat": -32.85034, "Lon": -68.84052}], "Las Higueras": [{"Name": "Las Higueras", "Country Code": "AR", "Population": 5282.0, "Lat": -33.09386, "Lon": -64.28824}, {"Name": "Las Higueras", "Country Code": "MX", "Population": 1280.0, "Lat": 20.03693, "Lon": -96.62199}], "Las Higuerillas": [{"Name": "Las Higuerillas", "Country Code": "MX", "Population": 2139.0, "Lat": 25.26222, "Lon": -97.43611}], "Las Huacas": [{"Name": "Las Huacas", "Country Code": "PA", "Population": 180.0, "Lat": 7.9033, "Lon": -81.14002}], "Las Huacas del Quije": [{"Name": "Las Huacas del Quije", "Country Code": "PA", "Population": 451.0, "Lat": 8.46702, "Lon": -80.75089}], "Las Huertas": [{"Name": "Las Huertas", "Country Code": "MX", "Population": 3931.0, "Lat": 19.97222, "Lon": -99.55611}], "Las Huertas Tercera Seccion": [{"Name": "Las Huertas Tercera Secci\u00f3n", "Country Code": "MX", "Population": 1251.0, "Lat": 20.65278, "Lon": -101.39306}], "Las Jarretaderas": [{"Name": "Las Jarretaderas", "Country Code": "MX", "Population": 6262.0, "Lat": 20.6925, "Lon": -105.27389}], "Las Juntas": [{"Name": "Las Juntas", "Country Code": "MX", "Population": 9035.0, "Lat": 20.70131, "Lon": -105.24585}], "Las Junturas": [{"Name": "Las Junturas", "Country Code": "AR", "Population": 1541.0, "Lat": -31.83158, "Lon": -63.45061}], "Las Khorey": [{"Name": "Las Khorey", "Country Code": "SO", "Population": 6941.0, "Lat": 11.1595, "Lon": 48.1967}], "Las Lajas": [{"Name": "Las Lajas", "Country Code": "AR", "Population": 4673.0, "Lat": -38.52447, "Lon": -70.36516}, {"Name": "Las Lajas", "Country Code": "HN", "Population": 3011.0, "Lat": 14.78333, "Lon": -87.75}, {"Name": "Las Lajas", "Country Code": "MX", "Population": 1018.0, "Lat": 19.99831, "Lon": -98.07332}, {"Name": "Las Lajas", "Country Code": "PA", "Population": 1012.0, "Lat": 8.2452, "Lon": -81.87006}, {"Name": "Las Lajas", "Country Code": "PA", "Population": 3291.0, "Lat": 8.55267, "Lon": -79.93315}], "Las Lajitas": [{"Name": "Las Lajitas", "Country Code": "AR", "Population": 9151.0, "Lat": -24.72762, "Lon": -64.19335}, {"Name": "Las Lajitas", "Country Code": "MX", "Population": 1020.0, "Lat": 20.8036, "Lon": -100.40107}], "Las Letras": [{"Name": "Las Letras", "Country Code": "MX", "Population": 1221.0, "Lat": 20.23083, "Lon": -101.43361}], "Las Liebres": [{"Name": "Las Liebres", "Country Code": "MX", "Population": 1184.0, "Lat": 20.83532, "Lon": -101.47062}], "Las Lomas": [{"Name": "Las Lomas", "Country Code": "MX", "Population": 3268.0, "Lat": 19.8239, "Lon": -97.61227}, {"Name": "Las Lomas", "Country Code": "MX", "Population": 1541.0, "Lat": 19.44745, "Lon": -96.9061}, {"Name": "Las Lomas", "Country Code": "MX", "Population": 1303.0, "Lat": 16.98194, "Lon": -100.095}, {"Name": "Las Lomas", "Country Code": "MX", "Population": 1189.0, "Lat": 17.95154, "Lon": -94.56094}, {"Name": "Las Lomas", "Country Code": "MX", "Population": 1811.0, "Lat": 20.26067, "Lon": -97.61528}, {"Name": "Las Lomas", "Country Code": "PA", "Population": 11726.0, "Lat": 8.42897, "Lon": -82.38901}, {"Name": "Las Lomas", "Country Code": "PE", "Population": 9450.0, "Lat": -4.65333, "Lon": -80.24667}, {"Name": "Las Lomas", "Country Code": "US", "Population": 3024.0, "Lat": 36.86523, "Lon": -121.73495}, {"Name": "Las Lomas", "Country Code": "US", "Population": 3147.0, "Lat": 26.36479, "Lon": -98.7753}], "Las Lomas de Tacamichapan": [{"Name": "Las Lomas de Tacamichapan", "Country Code": "MX", "Population": 1034.0, "Lat": 17.86611, "Lon": -94.70833}], "Las Lomitas": [{"Name": "Las Lomitas", "Country Code": "AR", "Population": 10354.0, "Lat": -24.70818, "Lon": -60.59239}], "Las Manzanas": [{"Name": "Las Manzanas", "Country Code": "MX", "Population": 2593.0, "Lat": 19.95069, "Lon": -99.56109}], "Las Maravillas": [{"Name": "Las Maravillas", "Country Code": "MX", "Population": 1339.0, "Lat": 16.95951, "Lon": -93.32012}, {"Name": "Las Maravillas", "Country Code": "US", "Population": 1628.0, "Lat": 34.73815, "Lon": -106.66854}], "Las Margaritas": [{"Name": "Las Margaritas", "Country Code": "MX", "Population": 1595.0, "Lat": 27.61833, "Lon": -113.45361}, {"Name": "Las Margaritas", "Country Code": "MX", "Population": 20786.0, "Lat": 16.31265, "Lon": -91.98107}, {"Name": "Las Margaritas", "Country Code": "MX", "Population": 1925.0, "Lat": 18.25501, "Lon": -96.28421}, {"Name": "Las Margaritas", "Country Code": "PA", "Population": 4165.0, "Lat": 9.19181, "Lon": -79.08672}], "Las Marias": [{"Name": "Las Marias", "Country Code": "PA", "Population": 71.0, "Lat": 8.89007, "Lon": -80.22004}, {"Name": "Las Marias", "Country Code": "PR", "Population": 1823.0, "Lat": 18.29328, "Lon": -67.14629}, {"Name": "Las Mar\u00edas", "Country Code": "PR", "Population": 1031.0, "Lat": 18.2519, "Lon": -66.99212}], "Las Masas (La Luz Masas)": [{"Name": "Las Masas (La Luz Masas)", "Country Code": "MX", "Population": 1396.0, "Lat": 20.59917, "Lon": -101.54278}], "Las Matas": [{"Name": "Las Matas", "Country Code": "ES", "Population": 14213.0, "Lat": 40.55779, "Lon": -3.89173}], "Las Matas de Farfan": [{"Name": "Las Matas de Farf\u00e1n", "Country Code": "DO", "Population": 21802.0, "Lat": 18.87309, "Lon": -71.51656}], "Las Matas de Santa Cruz": [{"Name": "Las Matas de Santa Cruz", "Country Code": "DO", "Population": 10218.0, "Lat": 19.67119, "Lon": -71.50471}], "Las Mercedes": [{"Name": "Las Mercedes", "Country Code": "VE", "Population": 0.0, "Lat": 9.11037, "Lon": -66.39607}], "Las Mercedes [Agropecuaria]": [{"Name": "Las Mercedes [Agropecuaria]", "Country Code": "MX", "Population": 1147.0, "Lat": 29.36389, "Lon": -110.95167}], "Las Mesas": [{"Name": "Las Mesas", "Country Code": "ES", "Population": 2544.0, "Lat": 39.38871, "Lon": -2.76524}, {"Name": "Las Mesas", "Country Code": "MX", "Population": 2692.0, "Lat": 17.00794, "Lon": -99.45786}, {"Name": "Las Mesas", "Country Code": "VE", "Population": 0.0, "Lat": 8.17123, "Lon": -72.15948}], "Las Mieleras": [{"Name": "Las Mieleras", "Country Code": "MX", "Population": 1116.0, "Lat": 25.39948, "Lon": -103.2674}], "Las Minas": [{"Name": "Las Minas", "Country Code": "MX", "Population": 235.0, "Lat": 19.69091, "Lon": -97.14597}, {"Name": "Las Minas", "Country Code": "PA", "Population": 548.0, "Lat": 8.6421, "Lon": -80.40036}, {"Name": "Las Minas", "Country Code": "PA", "Population": 889.0, "Lat": 7.79947, "Lon": -80.74573}], "Las Moras": [{"Name": "Las Moras", "Country Code": "MX", "Population": 1828.0, "Lat": 25.65745, "Lon": -108.45807}], "Las Navas": [{"Name": "Las Navas", "Country Code": "PH", "Population": 3415.0, "Lat": 12.3392, "Lon": 125.0313}], "Las Navas del Marques": [{"Name": "Las Navas del Marqu\u00e9s", "Country Code": "ES", "Population": 5005.0, "Lat": 40.60244, "Lon": -4.33449}], "Las Nazarenas": [{"Name": "Las Nazarenas", "Country Code": "PE", "Population": 14316.0, "Lat": -13.15465, "Lon": -74.21553}], "Las Nieves": [{"Name": "Las Nieves", "Country Code": "MX", "Population": 1290.0, "Lat": 18.18361, "Lon": -98.04611}], "Las Norias de Ojocaliente": [{"Name": "Las Norias de Ojocaliente", "Country Code": "MX", "Population": 3741.0, "Lat": 21.88944, "Lon": -102.21738}], "Las Ochenta": [{"Name": "Las Ochenta", "Country Code": "PR", "Population": 1199.0, "Lat": 17.98469, "Lon": -66.31795}], "Las Ollas": [{"Name": "Las Ollas", "Country Code": "MX", "Population": 1165.0, "Lat": 16.78146, "Lon": -92.55278}, {"Name": "Las Ollas", "Country Code": "PR", "Population": 1949.0, "Lat": 18.014, "Lon": -66.421}], "Las Ollas Arriba": [{"Name": "Las Ollas Arriba", "Country Code": "PA", "Population": 0.0, "Lat": 8.81282, "Lon": -79.90055}], "Las Ovejas": [{"Name": "Las Ovejas", "Country Code": "AR", "Population": 1312.0, "Lat": -36.98897, "Lon": -70.74952}], "Las Palmas": [{"Name": "Las Palmas", "Country Code": "MX", "Population": 1592.0, "Lat": 22.03339, "Lon": -98.87407}, {"Name": "Las Palmas", "Country Code": "MX", "Population": 11562.0, "Lat": 22.93672, "Lon": -109.94235}, {"Name": "Las Palmas", "Country Code": "PA", "Population": 13.0, "Lat": 7.68314, "Lon": -80.49728}, {"Name": "Las Palmas", "Country Code": "PA", "Population": 1291.0, "Lat": 8.13623, "Lon": -81.4541}, {"Name": "Las Palmas", "Country Code": "PE", "Population": 0.0, "Lat": -9.38412, "Lon": -76.00505}], "Las Palmas II": [{"Name": "Las Palmas II", "Country Code": "US", "Population": 1605.0, "Lat": 26.20171, "Lon": -97.7376}], "Las Palmas de Gran Canaria": [{"Name": "Las Palmas de Gran Canaria", "Country Code": "ES", "Population": 378517.0, "Lat": 28.09973, "Lon": -15.41343}], "Las Palmitas": [{"Name": "Las Palmitas", "Country Code": "PA", "Population": 821.0, "Lat": 7.76697, "Lon": -80.29035}], "Las Parejas": [{"Name": "Las Parejas", "Country Code": "AR", "Population": 11317.0, "Lat": -32.68478, "Lon": -61.51637}], "Las Pedroneras": [{"Name": "Las Pedro\u00f1eras", "Country Code": "ES", "Population": 6986.0, "Lat": 39.44997, "Lon": -2.67394}], "Las Penas": [{"Name": "Las Pe\u00f1as", "Country Code": "MX", "Population": 1469.0, "Lat": 19.44972, "Lon": -99.99944}], "Las Perdices": [{"Name": "Las Perdices", "Country Code": "AR", "Population": 4615.0, "Lat": -32.69898, "Lon": -63.70473}], "Las Piedras": [{"Name": "Las Piedras", "Country Code": "PR", "Population": 6655.0, "Lat": 18.18301, "Lon": -65.86627}, {"Name": "Las Piedras", "Country Code": "UY", "Population": 2185.0, "Lat": -30.26204, "Lon": -57.58174}, {"Name": "Las Piedras", "Country Code": "UY", "Population": 69682.0, "Lat": -34.7302, "Lon": -56.21915}], "Las Pilas": [{"Name": "Las Pilas", "Country Code": "MX", "Population": 1129.0, "Lat": 22.84, "Lon": -102.61278}], "Las Pinas": [{"Name": "Las Pi\u00f1as", "Country Code": "PH", "Population": 590000.0, "Lat": 14.45056, "Lon": 120.98278}], "Las Pintas": [{"Name": "Las Pintas", "Country Code": "MX", "Population": 1020.0, "Lat": 19.89667, "Lon": -98.88694}], "Las Pintas de Arriba": [{"Name": "Las Pintas de Arriba", "Country Code": "MX", "Population": 22838.0, "Lat": 20.57376, "Lon": -103.32345}], "Las Pintitas": [{"Name": "Las Pintitas", "Country Code": "MX", "Population": 26500.0, "Lat": 20.56444, "Lon": -103.30222}], "Las Pirias": [{"Name": "Las Pirias", "Country Code": "PE", "Population": 778.0, "Lat": -5.62718, "Lon": -78.85353}], "Las Plassas": [{"Name": "Las Plassas", "Country Code": "IT", "Population": 223.0, "Lat": 39.67979, "Lon": 8.98442}], "Las Plazuelas": [{"Name": "Las Plazuelas", "Country Code": "MX", "Population": 1010.0, "Lat": 16.87417, "Lon": -99.78556}], "Las Plumas": [{"Name": "Las Plumas", "Country Code": "AR", "Population": 0.0, "Lat": -43.72163, "Lon": -67.28424}], "Las Praderas": [{"Name": "Las Praderas", "Country Code": "NI", "Population": 7836.0, "Lat": 13.17, "Lon": -85.85}], "Las Primaveras [Invernadero]": [{"Name": "Las Primaveras [Invernadero]", "Country Code": "MX", "Population": 1023.0, "Lat": 19.69472, "Lon": -103.83333}], "Las Quemazones": [{"Name": "Las Quemazones", "Country Code": "MX", "Population": 1319.0, "Lat": 25.68583, "Lon": -108.45243}], "Las Quintas Fronterizas": [{"Name": "Las Quintas Fronterizas", "Country Code": "US", "Population": 3290.0, "Lat": 28.69053, "Lon": -100.46869}], "Las Quintas Fronterizas Colonia": [{"Name": "Las Quintas Fronterizas Colonia", "Country Code": "US", "Population": 3290.0, "Lat": 28.69137, "Lon": -100.46924}], "Las Ranas": [{"Name": "Las Ranas", "Country Code": "MX", "Population": 1047.0, "Lat": 20.2086, "Lon": -101.4781}], "Las Rosas": [{"Name": "Las Rosas", "Country Code": "AR", "Population": 12793.0, "Lat": -32.47661, "Lon": -61.58041}, {"Name": "Las Rosas", "Country Code": "ES", "Population": 2000.0, "Lat": 28.01539, "Lon": -16.65373}, {"Name": "Las Rosas", "Country Code": "MX", "Population": 1763.0, "Lat": 19.54631, "Lon": -100.15986}, {"Name": "Las Rosas", "Country Code": "MX", "Population": 18817.0, "Lat": 16.36574, "Lon": -92.3704}], "Las Rozas de Madrid": [{"Name": "Las Rozas de Madrid", "Country Code": "ES", "Population": 95550.0, "Lat": 40.49292, "Lon": -3.87371}], "Las Sabanas": [{"Name": "Las Sabanas", "Country Code": "NI", "Population": 1257.0, "Lat": 13.34302, "Lon": -86.62184}, {"Name": "Las Sabanas", "Country Code": "PA", "Population": 88.0, "Lat": 8.58284, "Lon": -80.68049}], "Las Sabanetas": [{"Name": "Las Sabanetas", "Country Code": "MX", "Population": 1427.0, "Lat": 18.12661, "Lon": -95.82265}], "Las Sabinas": [{"Name": "Las Sabinas", "Country Code": "MX", "Population": 1167.0, "Lat": 21.31806, "Lon": -97.88083}], "Las Salinas": [{"Name": "Las Salinas", "Country Code": "DO", "Population": 4513.0, "Lat": 18.27485, "Lon": -71.31596}], "Las Tablas": [{"Name": "Las Tablas", "Country Code": "ES", "Population": 3000.0, "Lat": 40.50649, "Lon": -3.67235}, {"Name": "Las Tablas", "Country Code": "PA", "Population": 8939.0, "Lat": 7.76472, "Lon": -80.27483}], "Las Taponas": [{"Name": "Las Taponas", "Country Code": "MX", "Population": 1994.0, "Lat": 20.41747, "Lon": -100.38421}], "Las Tazas": [{"Name": "Las Tazas", "Country Code": "MX", "Population": 1381.0, "Lat": 16.75722, "Lon": -91.615}], "Las Tejeras": [{"Name": "Las Tejeras", "Country Code": "HN", "Population": 1140.0, "Lat": 14.80442, "Lon": -88.59508}], "Las Tejerias": [{"Name": "Las Tejer\u00edas", "Country Code": "VE", "Population": 43445.0, "Lat": 10.25416, "Lon": -67.17333}], "Las Terrenas": [{"Name": "Las Terrenas", "Country Code": "DO", "Population": 7713.0, "Lat": 19.31102, "Lon": -69.5428}], "Las Torres": [{"Name": "Las Torres", "Country Code": "MX", "Population": 4925.0, "Lat": 25.95167, "Lon": -100.31806}], "Las Torres de Cotillas": [{"Name": "Las Torres de Cotillas", "Country Code": "ES", "Population": 21062.0, "Lat": 38.02822, "Lon": -1.24188}], "Las Torres de Guadalupe": [{"Name": "Las Torres de Guadalupe", "Country Code": "MX", "Population": 1010.0, "Lat": 25.80611, "Lon": -100.6225}], "Las Toscas": [{"Name": "Las Toscas", "Country Code": "AR", "Population": 11811.0, "Lat": -28.35503, "Lon": -59.25915}, {"Name": "Las Toscas", "Country Code": "UY", "Population": 3146.0, "Lat": -34.73333, "Lon": -55.71667}], "Las Trancas": [{"Name": "Las Trancas", "Country Code": "MX", "Population": 1116.0, "Lat": 19.50444, "Lon": -96.86444}, {"Name": "Las Trancas", "Country Code": "PA", "Population": 153.0, "Lat": 7.73643, "Lon": -80.37259}], "Las Tres Torres": [{"Name": "Las Tres Torres", "Country Code": "ES", "Population": 16532.0, "Lat": 41.39989, "Lon": 2.12931}], "Las Trojas": [{"Name": "Las Trojas", "Country Code": "MX", "Population": 1442.0, "Lat": 20.71111, "Lon": -100.78083}], "Las Trojes": [{"Name": "Las Trojes", "Country Code": "HN", "Population": 6253.0, "Lat": 14.06667, "Lon": -85.98333}], "Las Tunas": [{"Name": "Las Tunas", "Country Code": "CU", "Population": 203684.0, "Lat": 20.96167, "Lon": -76.95111}, {"Name": "Las Tunas", "Country Code": "MX", "Population": 1311.0, "Lat": 17.11972, "Lon": -100.48311}], "Las Uvas": [{"Name": "Las Uvas", "Country Code": "PA", "Population": 482.0, "Lat": 8.46132, "Lon": -79.99613}], "Las Varas": [{"Name": "Las Varas", "Country Code": "AR", "Population": 1017.0, "Lat": -31.8026, "Lon": -62.61655}, {"Name": "Las Varas", "Country Code": "MX", "Population": 14077.0, "Lat": 21.18021, "Lon": -105.13595}, {"Name": "Las Varas", "Country Code": "MX", "Population": 2410.0, "Lat": 28.15659, "Lon": -105.34058}], "Las Varas (Estacion Babicora)": [{"Name": "Las Varas (Estaci\u00f3n Bab\u00edcora)", "Country Code": "MX", "Population": 1417.0, "Lat": 29.48083, "Lon": -108.02556}], "Las Varillas": [{"Name": "Las Varillas", "Country Code": "AR", "Population": 14649.0, "Lat": -31.87208, "Lon": -62.71946}], "Las Vegas": [{"Name": "Las Vegas", "Country Code": "HN", "Population": 1308.0, "Lat": 15.01667, "Lon": -87.45}, {"Name": "Las Vegas", "Country Code": "US", "Population": 623747.0, "Lat": 36.17497, "Lon": -115.13722}, {"Name": "Las Vegas", "Country Code": "US", "Population": 13386.0, "Lat": 35.59393, "Lon": -105.2239}, {"Name": "Las Vegas", "Country Code": "VE", "Population": 20172.0, "Lat": 9.53724, "Lon": -68.63022}], "Las Vegas, Santa Barbara": [{"Name": "Las Vegas, Santa Barbara", "Country Code": "HN", "Population": 7487.0, "Lat": 14.87649, "Lon": -88.07473}], "Las Ventas de Retamosa": [{"Name": "Las Ventas de Retamosa", "Country Code": "ES", "Population": 1432.0, "Lat": 40.15526, "Lon": -4.11455}], "Las Veredas": [{"Name": "Las Veredas", "Country Code": "MX", "Population": 10478.0, "Lat": 23.15028, "Lon": -109.70611}], "Las Vigas": [{"Name": "Las Vigas", "Country Code": "MX", "Population": 4504.0, "Lat": 16.76144, "Lon": -99.22942}], "Las Vigas de Ramirez": [{"Name": "Las Vigas de Ram\u00edrez", "Country Code": "MX", "Population": 9684.0, "Lat": 19.63722, "Lon": -97.09821}], "Las Yaras": [{"Name": "Las Yaras", "Country Code": "PE", "Population": 585.0, "Lat": -17.8642, "Lon": -70.56117}], "Las Yerbitas [Aserradero]": [{"Name": "Las Yerbitas [Aserradero]", "Country Code": "MX", "Population": 1200.0, "Lat": 26.08025, "Lon": -106.77969}], "Las Zangueengas": [{"Name": "Las Zang\u00fcengas", "Country Code": "PA", "Population": 0.0, "Lat": 8.95811, "Lon": -79.86979}], "Lasa": [{"Name": "Lasa", "Country Code": "IT", "Population": 2032.0, "Lat": 46.61783, "Lon": 10.69777}], "Lasalgaon": [{"Name": "L\u0101salgaon", "Country Code": "IN", "Population": 13665.0, "Lat": 20.1427, "Lon": 74.23946}], "Lasalle": [{"Name": "Lasalle", "Country Code": "FR", "Population": 1115.0, "Lat": 44.04573, "Lon": 3.85244}], "Lasam": [{"Name": "Lasam", "Country Code": "PH", "Population": 6352.0, "Lat": 18.06519, "Lon": 121.60065}], "Lasang": [{"Name": "Lasang", "Country Code": "PH", "Population": 8318.0, "Lat": 7.26694, "Lon": 125.665}], "Lasara": [{"Name": "Lasara", "Country Code": "US", "Population": 1039.0, "Lat": 26.46479, "Lon": -97.91111}], "Lasarte": [{"Name": "Lasarte", "Country Code": "ES", "Population": 17782.0, "Lat": 43.26774, "Lon": -2.02169}], "Lasbek": [{"Name": "Lasbek", "Country Code": "DE", "Population": 1162.0, "Lat": 53.73333, "Lon": 10.36667}], "Lasby": [{"Name": "L\u00e5sby", "Country Code": "DK", "Population": 1989.0, "Lat": 56.15022, "Lon": 9.80683}], "Lascahobas": [{"Name": "Lascahobas", "Country Code": "HT", "Population": 7574.0, "Lat": 18.83047, "Lon": -71.93563}], "Lascano": [{"Name": "Lascano", "Country Code": "UY", "Population": 6976.0, "Lat": -33.67235, "Lon": -54.2065}], "Lascari": [{"Name": "Lascari", "Country Code": "IT", "Population": 2857.0, "Lat": 38.00067, "Lon": 13.94053}], "Lascuarre": [{"Name": "Lascuarre", "Country Code": "ES", "Population": 143.0, "Lat": 42.19611, "Lon": 0.5201}], "Lasehao": [{"Name": "Lasehao", "Country Code": "ID", "Population": 0.0, "Lat": -5.0068, "Lon": 122.4943}], "Lasek": [{"Name": "Lasek", "Country Code": "PL", "Population": 1086.0, "Lat": 49.50883, "Lon": 19.98078}], "Lasem": [{"Name": "Lasem", "Country Code": "ID", "Population": 28948.0, "Lat": -6.6922, "Lon": 111.4527}], "Lases": [{"Name": "Lases", "Country Code": "IT", "Population": 539.0, "Lat": 46.1456, "Lon": 11.21932}], "Lash": [{"Name": "L\u0101sh", "Country Code": "AF", "Population": 0.0, "Lat": 35.3782, "Lon": 64.77457}], "Lash-e Juwayn": [{"Name": "L\u0101sh-e Juwayn", "Country Code": "AF", "Population": 0.0, "Lat": 31.71382, "Lon": 61.62272}], "Lashibi": [{"Name": "Lashibi", "Country Code": "GH", "Population": 49223.0, "Lat": 5.68476, "Lon": -0.04011}], "Lashio": [{"Name": "Lashio", "Country Code": "MM", "Population": 131016.0, "Lat": 22.9359, "Lon": 97.7498}], "Lashkar Gah": [{"Name": "Lashkar G\u0101h", "Country Code": "AF", "Population": 43934.0, "Lat": 31.59382, "Lon": 64.37161}], "Lashkivka": [{"Name": "Lashkivka", "Country Code": "UA", "Population": 1643.0, "Lat": 48.41667, "Lon": 25.78333}], "Lashma": [{"Name": "Lashma", "Country Code": "RU", "Population": 1736.0, "Lat": 54.9321, "Lon": 41.14379}], "Lasin": [{"Name": "\u0141asin", "Country Code": "PL", "Population": 3285.0, "Lat": 53.51794, "Lon": 19.08832}], "Lasinja": [{"Name": "Lasinja", "Country Code": "HR", "Population": 542.0, "Lat": 45.52806, "Lon": 15.85911}], "Lasino": [{"Name": "Lasino", "Country Code": "IT", "Population": 688.0, "Lat": 46.0242, "Lon": 10.98357}], "Lask": [{"Name": "\u0141ask", "Country Code": "PL", "Population": 18577.0, "Lat": 51.59056, "Lon": 19.13278}], "Laskarzew": [{"Name": "\u0141askarzew", "Country Code": "PL", "Population": 4893.0, "Lat": 51.78993, "Lon": 21.59122}], "Lasko": [{"Name": "La\u0161ko", "Country Code": "SI", "Population": 3456.0, "Lat": 46.15463, "Lon": 15.23555}], "Laskowa": [{"Name": "Laskowa", "Country Code": "PL", "Population": 3133.0, "Lat": 49.76147, "Lon": 20.45045}], "Laslea": [{"Name": "Laslea", "Country Code": "RO", "Population": 3147.0, "Lat": 46.21667, "Lon": 24.65}], "Lasne-Chapelle-Saint-Lambert": [{"Name": "Lasne-Chapelle-Saint-Lambert", "Country Code": "BE", "Population": 4289.0, "Lat": 50.69298, "Lon": 4.50105}], "Lasnigo": [{"Name": "Lasnigo", "Country Code": "IT", "Population": 462.0, "Lat": 45.88198, "Lon": 9.26644}], "Lasoano": [{"Name": "Lasoano", "Country Code": "ET", "Population": 38000.0, "Lat": 6.25532, "Lon": 45.3853}], "Lasologo": [{"Name": "Lasologo", "Country Code": "CI", "Population": 5793.0, "Lat": 9.58605, "Lon": -5.10091}], "Laspaules": [{"Name": "Laspa\u00fales", "Country Code": "ES", "Population": 272.0, "Lat": 42.47136, "Lon": 0.59698}], "Laspuna": [{"Name": "Laspu\u00f1a", "Country Code": "ES", "Population": 270.0, "Lat": 42.50374, "Lon": 0.15441}], "Lassan": [{"Name": "Lassan", "Country Code": "DE", "Population": 1462.0, "Lat": 53.94874, "Lon": 13.85219}], "Lassay-les-Chateaux": [{"Name": "Lassay-les-Ch\u00e2teaux", "Country Code": "FR", "Population": 2650.0, "Lat": 48.43835, "Lon": -0.49758}], "Lassee": [{"Name": "Lassee", "Country Code": "AT", "Population": 2379.0, "Lat": 48.22479, "Lon": 16.8223}], "Lasseube": [{"Name": "Lasseube", "Country Code": "FR", "Population": 1635.0, "Lat": 43.22151, "Lon": -0.47922}], "Lassigny": [{"Name": "Lassigny", "Country Code": "FR", "Population": 1317.0, "Lat": 49.58828, "Lon": 2.84289}], "Lassing": [{"Name": "Lassing", "Country Code": "AT", "Population": 0.0, "Lat": 47.53374, "Lon": 14.25808}], "Lassnitzhoehe": [{"Name": "Lassnitzh\u00f6he", "Country Code": "AT", "Population": 2817.0, "Lat": 47.06667, "Lon": 15.58333}], "Lassolaz": [{"Name": "Lassolaz", "Country Code": "IT", "Population": 596.0, "Lat": 45.73851, "Lon": 7.58883}], "Lassy": [{"Name": "Lassy", "Country Code": "FR", "Population": 1297.0, "Lat": 47.9791, "Lon": -1.87054}], "Lastebasse": [{"Name": "Lastebasse", "Country Code": "IT", "Population": 136.0, "Lat": 45.9151, "Lon": 11.27389}], "Lastoursville": [{"Name": "Lastoursville", "Country Code": "GA", "Population": 14411.0, "Lat": -0.81742, "Lon": 12.70818}], "Lastovo": [{"Name": "Lastovo", "Country Code": "HR", "Population": 309.0, "Lat": 42.76757, "Lon": 16.89708}], "Lastra a Signa": [{"Name": "Lastra a Signa", "Country Code": "IT", "Population": 11504.0, "Lat": 43.76998, "Lon": 11.11271}], "Lastras de Cuellar": [{"Name": "Lastras de Cu\u00e9llar", "Country Code": "ES", "Population": 469.0, "Lat": 41.29762, "Lon": -4.1067}], "Lastras del Pozo": [{"Name": "Lastras del Pozo", "Country Code": "ES", "Population": 88.0, "Lat": 40.8792, "Lon": -4.34658}], "Lastrup": [{"Name": "Lastrup", "Country Code": "DE", "Population": 6684.0, "Lat": 52.79468, "Lon": 7.86715}], "Lasusua": [{"Name": "Lasusua", "Country Code": "ID", "Population": 0.0, "Lat": -3.5105, "Lon": 120.8844}], "Laszczow": [{"Name": "\u0141aszcz\u00f3w", "Country Code": "PL", "Population": 2341.0, "Lat": 50.53332, "Lon": 23.72562}], "Laszki": [{"Name": "Laszki", "Country Code": "PL", "Population": 1827.0, "Lat": 50.0202, "Lon": 22.89997}], "Lat Bua Luang": [{"Name": "Lat Bua Luang", "Country Code": "TH", "Population": 0.0, "Lat": 14.16572, "Lon": 100.30789}], "Lat Krabang": [{"Name": "Lat Krabang", "Country Code": "TH", "Population": 0.0, "Lat": 13.72341, "Lon": 100.78436}], "Lat Lum Kaeo": [{"Name": "Lat Lum Kaeo", "Country Code": "TH", "Population": 0.0, "Lat": 14.03728, "Lon": 100.40486}], "Lat Phrao": [{"Name": "Lat Phrao", "Country Code": "TH", "Population": 0.0, "Lat": 13.80349, "Lon": 100.60749}], "Lat Yao": [{"Name": "Lat Yao", "Country Code": "TH", "Population": 17506.0, "Lat": 15.751, "Lon": 99.78925}], "Lata": [{"Name": "Lata", "Country Code": "SB", "Population": 553.0, "Lat": -10.725, "Lon": 165.79722}], "Latacunga": [{"Name": "Latacunga", "Country Code": "EC", "Population": 205624.0, "Lat": -0.93521, "Lon": -78.61554}], "Lataha": [{"Name": "Lataha", "Country Code": "CI", "Population": 7379.0, "Lat": 9.56724, "Lon": -5.59098}], "Latakia": [{"Name": "Latakia", "Country Code": "SY", "Population": 709000.0, "Lat": 35.53168, "Lon": 35.79011}], "Latchingdon and Snoreham": [{"Name": "Latchingdon and Snoreham", "Country Code": "GB", "Population": 1182.0, "Lat": 51.6716, "Lon": 0.72578}], "Latehar": [{"Name": "L\u0101teh\u0101r", "Country Code": "IN", "Population": 20769.0, "Lat": 23.74423, "Lon": 84.49984}], "Latera": [{"Name": "Latera", "Country Code": "IT", "Population": 806.0, "Lat": 42.62922, "Lon": 11.82922}], "Laterina": [{"Name": "Laterina", "Country Code": "IT", "Population": 1320.0, "Lat": 43.50193, "Lon": 11.71737}], "Laterza": [{"Name": "Laterza", "Country Code": "IT", "Population": 13879.0, "Lat": 40.62881, "Lon": 16.79947}], "Latham": [{"Name": "Latham", "Country Code": "AU", "Population": 3574.0, "Lat": -35.21652, "Lon": 149.03144}, {"Name": "Latham", "Country Code": "US", "Population": 20736.0, "Lat": 42.74702, "Lon": -73.75901}], "Lathbury": [{"Name": "Lathbury", "Country Code": "GB", "Population": 0.0, "Lat": 52.09881, "Lon": -0.72132}], "Lathen": [{"Name": "Lathen", "Country Code": "DE", "Population": 5754.0, "Lat": 52.86667, "Lon": 7.31667}], "Lathi": [{"Name": "L\u0101thi", "Country Code": "IN", "Population": 22745.0, "Lat": 21.7231, "Lon": 71.38843}], "Lathlain": [{"Name": "Lathlain", "Country Code": "AU", "Population": 3287.0, "Lat": -31.96755, "Lon": 115.90631}], "Lathrop": [{"Name": "Lathrop", "Country Code": "US", "Population": 20866.0, "Lat": 37.8227, "Lon": -121.27661}, {"Name": "Lathrop", "Country Code": "US", "Population": 2049.0, "Lat": 39.54834, "Lon": -94.32995}], "Lathrup Village": [{"Name": "Lathrup Village", "Country Code": "US", "Population": 4135.0, "Lat": 42.49642, "Lon": -83.22271}], "Lathus-Saint-Remy": [{"Name": "Lathus-Saint-R\u00e9my", "Country Code": "FR", "Population": 1358.0, "Lat": 46.33444, "Lon": 0.95813}], "Latiano": [{"Name": "Latiano", "Country Code": "IT", "Population": 14662.0, "Lat": 40.55052, "Lon": 17.71856}], "Latille": [{"Name": "Latill\u00e9", "Country Code": "FR", "Population": 1452.0, "Lat": 46.61947, "Lon": 0.07489}], "Latimer": [{"Name": "Latimer", "Country Code": "US", "Population": 6079.0, "Lat": 30.53464, "Lon": -88.8667}], "Latina": [{"Name": "Latina", "Country Code": "ES", "Population": 256644.0, "Lat": 40.38897, "Lon": -3.74569}, {"Name": "Latina", "Country Code": "IT", "Population": 76305.0, "Lat": 41.46614, "Lon": 12.9043}], "Latina Scalo": [{"Name": "Latina Scalo", "Country Code": "IT", "Population": 6883.0, "Lat": 41.53157, "Lon": 12.94567}], "Latisana": [{"Name": "Latisana", "Country Code": "IT", "Population": 8896.0, "Lat": 45.76859, "Lon": 13.00618}], "Lativka": [{"Name": "Lativka", "Country Code": "UA", "Population": 2600.0, "Lat": 46.56555, "Lon": 30.71518}], "Latnaya": [{"Name": "Latnaya", "Country Code": "RU", "Population": 7232.0, "Lat": 51.65004, "Lon": 38.89916}], "Latokaha": [{"Name": "Latokaha", "Country Code": "CI", "Population": 7405.0, "Lat": 8.62257, "Lon": -5.38733}], "Laton": [{"Name": "Laton", "Country Code": "US", "Population": 1824.0, "Lat": 36.43328, "Lon": -119.6868}], "Latoumakaha": [{"Name": "Latoumakaha", "Country Code": "CI", "Population": 1420.0, "Lat": 9.21024, "Lon": -5.75541}], "Latour": [{"Name": "Latour", "Country Code": "BE", "Population": 1199.0, "Lat": 49.55736, "Lon": 5.57065}], "Latour-Bas-Elne": [{"Name": "Latour-Bas-Elne", "Country Code": "FR", "Population": 1973.0, "Lat": 42.60742, "Lon": 3.00153}], "Latowicz": [{"Name": "Latowicz", "Country Code": "PL", "Population": 1401.0, "Lat": 52.02636, "Lon": 21.80829}], "Latresne": [{"Name": "Latresne", "Country Code": "FR", "Population": 3571.0, "Lat": 44.78517, "Lon": -0.49663}], "Latri Kunda": [{"Name": "Latri Kunda", "Country Code": "GM", "Population": 23724.0, "Lat": 13.44861, "Lon": -16.68528}], "Latri Sabiji": [{"Name": "Latri Sabiji", "Country Code": "GM", "Population": 18747.0, "Lat": 13.41333, "Lon": -16.67889}], "Latrobe": [{"Name": "Latrobe", "Country Code": "AU", "Population": 4058.0, "Lat": -41.24641, "Lon": 146.42458}, {"Name": "Latrobe", "Country Code": "US", "Population": 8081.0, "Lat": 40.32118, "Lon": -79.37948}], "Latronico": [{"Name": "Latronico", "Country Code": "IT", "Population": 2063.0, "Lat": 40.08909, "Lon": 16.00947}], "Latsari": [{"Name": "Latsari", "Country Code": "ID", "Population": 0.0, "Lat": -6.8928, "Lon": 112.0461}], "Latta": [{"Name": "Latta", "Country Code": "US", "Population": 1351.0, "Lat": 34.3371, "Lon": -79.43116}], "Lattarico": [{"Name": "Lattarico", "Country Code": "IT", "Population": 1557.0, "Lat": 39.45105, "Lon": 16.127}], "Lattes": [{"Name": "Lattes", "Country Code": "FR", "Population": 17390.0, "Lat": 43.56775, "Lon": 3.90279}], "Lattingtown": [{"Name": "Lattingtown", "Country Code": "US", "Population": 1787.0, "Lat": 40.89538, "Lon": -73.60096}], "Latung": [{"Name": "Latung", "Country Code": "PH", "Population": 2964.0, "Lat": 5.5, "Lon": 120.88333}], "Latur": [{"Name": "Latur", "Country Code": "IN", "Population": 348967.0, "Lat": 18.39721, "Lon": 76.56784}], "Lau": [{"Name": "Lau", "Country Code": "NG", "Population": 12657.0, "Lat": 9.20827, "Lon": 11.27541}], "Lau Fau Shan": [{"Name": "Lau Fau Shan", "Country Code": "HK", "Population": 2230.0, "Lat": 22.28328, "Lon": 113.93416}], "Laubach": [{"Name": "Laubach", "Country Code": "DE", "Population": 1073.0, "Lat": 50.23277, "Lon": 7.07333}, {"Name": "Laubach", "Country Code": "DE", "Population": 10205.0, "Lat": 50.54196, "Lon": 8.99034}], "Lauben": [{"Name": "Lauben", "Country Code": "DE", "Population": 3274.0, "Lat": 47.78333, "Lon": 10.3}, {"Name": "Lauben", "Country Code": "DE", "Population": 1361.0, "Lat": 48.05928, "Lon": 10.29014}], "Laucha": [{"Name": "Laucha", "Country Code": "DE", "Population": 2517.0, "Lat": 51.22422, "Lon": 11.67988}], "Lauchhammer": [{"Name": "Lauchhammer", "Country Code": "DE", "Population": 18990.0, "Lat": 51.48813, "Lon": 13.76623}], "Lauchheim": [{"Name": "Lauchheim", "Country Code": "DE", "Population": 4609.0, "Lat": 48.87135, "Lon": 10.24222}], "Lauchringen": [{"Name": "Lauchringen", "Country Code": "DE", "Population": 7416.0, "Lat": 47.62699, "Lon": 8.31442}], "Lauchroeden": [{"Name": "Lauchr\u00f6den", "Country Code": "DE", "Population": 1028.0, "Lat": 50.99371, "Lon": 10.15694}], "Lauco": [{"Name": "Lauco", "Country Code": "IT", "Population": 290.0, "Lat": 46.42397, "Lon": 12.93222}], "Lauda-Konigshofen": [{"Name": "Lauda-K\u00f6nigshofen", "Country Code": "DE", "Population": 15278.0, "Lat": 49.56526, "Lon": 9.70816}], "Laudenbach": [{"Name": "Laudenbach", "Country Code": "DE", "Population": 1399.0, "Lat": 49.74583, "Lon": 9.17611}, {"Name": "Laudenbach", "Country Code": "DE", "Population": 6141.0, "Lat": 49.61333, "Lon": 8.65389}], "Lauder": [{"Name": "Lauder", "Country Code": "GB", "Population": 1610.0, "Lat": 55.71908, "Lon": -2.74755}], "Lauderdale": [{"Name": "Lauderdale", "Country Code": "AU", "Population": 2592.0, "Lat": -42.91364, "Lon": 147.48747}, {"Name": "Lauderdale", "Country Code": "US", "Population": 2506.0, "Lat": 44.99858, "Lon": -93.20578}], "Lauderdale Lakes": [{"Name": "Lauderdale Lakes", "Country Code": "US", "Population": 34796.0, "Lat": 26.16647, "Lon": -80.20838}], "Lauderdale-by-the-Sea": [{"Name": "Lauderdale-by-the-Sea", "Country Code": "US", "Population": 6460.0, "Lat": 26.19203, "Lon": -80.09643}], "Lauderhill": [{"Name": "Lauderhill", "Country Code": "US", "Population": 71579.0, "Lat": 26.14036, "Lon": -80.21338}], "Laudun-l'Ardoise": [{"Name": "Laudun-l'Ardoise", "Country Code": "FR", "Population": 5610.0, "Lat": 44.10482, "Lon": 4.65728}], "Lauenau": [{"Name": "Lauenau", "Country Code": "DE", "Population": 4198.0, "Lat": 52.27393, "Lon": 9.36928}], "Lauenbruck": [{"Name": "Lauenbr\u00fcck", "Country Code": "DE", "Population": 2152.0, "Lat": 53.2, "Lon": 9.56667}], "Lauenburg": [{"Name": "Lauenburg", "Country Code": "DE", "Population": 11814.0, "Lat": 53.37199, "Lon": 10.55654}], "Lauenhagen": [{"Name": "Lauenhagen", "Country Code": "DE", "Population": 1524.0, "Lat": 52.35547, "Lon": 9.20637}], "Lauf": [{"Name": "Lauf", "Country Code": "DE", "Population": 3973.0, "Lat": 48.65, "Lon": 8.13333}], "Lauf an der Pegnitz": [{"Name": "Lauf an der Pegnitz", "Country Code": "DE", "Population": 26403.0, "Lat": 49.51386, "Lon": 11.28247}], "Laufach": [{"Name": "Laufach", "Country Code": "DE", "Population": 5354.0, "Lat": 50.01667, "Lon": 9.3}], "Laufdorf": [{"Name": "Laufdorf", "Country Code": "DE", "Population": 1800.0, "Lat": 50.51605, "Lon": 8.45982}], "Laufelfingen": [{"Name": "L\u00e4ufelfingen", "Country Code": "CH", "Population": 1271.0, "Lat": 47.39457, "Lon": 7.85578}], "Laufen": [{"Name": "Laufen", "Country Code": "CH", "Population": 5210.0, "Lat": 47.42193, "Lon": 7.49946}, {"Name": "Laufen", "Country Code": "DE", "Population": 6869.0, "Lat": 47.93568, "Lon": 12.92856}], "Laufenburg": [{"Name": "Laufenburg", "Country Code": "CH", "Population": 2000.0, "Lat": 47.55985, "Lon": 8.06225}, {"Name": "Laufenburg", "Country Code": "DE", "Population": 8515.0, "Lat": 47.56512, "Lon": 8.06045}], "Lauffen am Neckar": [{"Name": "Lauffen am Neckar", "Country Code": "DE", "Population": 11068.0, "Lat": 49.0734, "Lon": 9.14567}], "Lauffohr (Brugg)": [{"Name": "Lauffohr (Brugg)", "Country Code": "CH", "Population": 2000.0, "Lat": 47.50154, "Lon": 8.23122}], "Laug": [{"Name": "Laug", "Country Code": "PH", "Population": 3157.0, "Lat": 15.04659, "Lon": 120.75149}], "Laugar": [{"Name": "Laugar", "Country Code": "IS", "Population": 1001.0, "Lat": 65.72159, "Lon": -17.37352}], "Laughlin": [{"Name": "Laughlin", "Country Code": "US", "Population": 7323.0, "Lat": 35.16778, "Lon": -114.57302}], "Laughlin Air Force Base": [{"Name": "Laughlin Air Force Base", "Country Code": "US", "Population": 1569.0, "Lat": 29.35663, "Lon": -100.78353}], "Laugna": [{"Name": "Laugna", "Country Code": "DE", "Population": 1583.0, "Lat": 48.53333, "Lon": 10.7}], "Lauingen": [{"Name": "Lauingen", "Country Code": "DE", "Population": 11068.0, "Lat": 48.56775, "Lon": 10.42706}], "Laujar de Andarax": [{"Name": "Laujar de Andarax", "Country Code": "ES", "Population": 1538.0, "Lat": 36.99516, "Lon": -2.89033}], "Laukaa": [{"Name": "Laukaa", "Country Code": "FI", "Population": 17093.0, "Lat": 62.41407, "Lon": 25.95194}], "Lauke": [{"Name": "Lauke", "Country Code": "ID", "Population": 0.0, "Lat": 2.584, "Lon": 96.04142}], "Launac": [{"Name": "Launac", "Country Code": "FR", "Population": 1163.0, "Lat": 43.74357, "Lon": 1.18172}], "Launaguet": [{"Name": "Launaguet", "Country Code": "FR", "Population": 5699.0, "Lat": 43.67818, "Lon": 1.45603}], "Launceston": [{"Name": "Launceston", "Country Code": "AU", "Population": 87345.0, "Lat": -41.43876, "Lon": 147.13467}, {"Name": "Launceston", "Country Code": "GB", "Population": 8910.0, "Lat": 50.63699, "Lon": -4.36006}], "Launceston city centre": [{"Name": "Launceston city centre", "Country Code": "AU", "Population": 3796.0, "Lat": -41.43352, "Lon": 147.1378}], "Launching Place": [{"Name": "Launching Place", "Country Code": "AU", "Population": 2319.0, "Lat": -37.78058, "Lon": 145.56834}], "Laungowal": [{"Name": "Laungow\u0101l", "Country Code": "IN", "Population": 21880.0, "Lat": 30.19393, "Lon": 75.68089}], "Launsdorf": [{"Name": "Launsdorf", "Country Code": "AT", "Population": 1207.0, "Lat": 46.77056, "Lon": 14.45194}], "Laupen": [{"Name": "Laupen", "Country Code": "CH", "Population": 2774.0, "Lat": 46.90214, "Lon": 7.23973}], "Laupersdorf": [{"Name": "Laupersdorf", "Country Code": "CH", "Population": 1670.0, "Lat": 47.3126, "Lon": 7.65465}], "Lauperswil": [{"Name": "Lauperswil", "Country Code": "CH", "Population": 2700.0, "Lat": 46.96564, "Lon": 7.74214}], "Laupheim": [{"Name": "Laupheim", "Country Code": "DE", "Population": 19012.0, "Lat": 48.22786, "Lon": 9.87874}], "Laur": [{"Name": "Laur", "Country Code": "PH", "Population": 19206.0, "Lat": 15.5865, "Lon": 121.1834}], "Laura": [{"Name": "Laura", "Country Code": "IT", "Population": 1624.0, "Lat": 40.4322, "Lon": 14.98886}], "Lauradorp": [{"Name": "Lauradorp", "Country Code": "NL", "Population": 3170.0, "Lat": 50.91229, "Lon": 6.04591}], "Laure-Minervois": [{"Name": "Laure-Minervois", "Country Code": "FR", "Population": 1172.0, "Lat": 43.27136, "Lon": 2.52008}], "Laureana Cilento": [{"Name": "Laureana Cilento", "Country Code": "IT", "Population": 177.0, "Lat": 40.3011, "Lon": 15.03876}], "Laureana di Borrello": [{"Name": "Laureana di Borrello", "Country Code": "IT", "Population": 4852.0, "Lat": 38.49215, "Lon": 16.08429}], "Lauregno": [{"Name": "Lauregno", "Country Code": "IT", "Population": 77.0, "Lat": 46.45431, "Lon": 11.06177}], "Laurel": [{"Name": "Laurel", "Country Code": "CA", "Population": 1606.0, "Lat": 53.44667, "Lon": -113.38197}, {"Name": "Laurel", "Country Code": "PH", "Population": 9720.0, "Lat": 14.05542, "Lon": 120.91932}, {"Name": "Laurel", "Country Code": "US", "Population": 18837.0, "Lat": 31.69405, "Lon": -89.13061}, {"Name": "Laurel", "Country Code": "US", "Population": 4075.0, "Lat": 38.5565, "Lon": -75.57131}, {"Name": "Laurel", "Country Code": "US", "Population": 16713.0, "Lat": 37.64292, "Lon": -77.50887}, {"Name": "Laurel", "Country Code": "US", "Population": 1394.0, "Lat": 40.96954, "Lon": -72.56203}, {"Name": "Laurel", "Country Code": "US", "Population": 6943.0, "Lat": 45.66912, "Lon": -108.77153}, {"Name": "Laurel", "Country Code": "US", "Population": 8171.0, "Lat": 27.14378, "Lon": -82.46158}, {"Name": "Laurel", "Country Code": "US", "Population": 26215.0, "Lat": 39.09928, "Lon": -76.84831}], "Laurel Bay": [{"Name": "Laurel Bay", "Country Code": "US", "Population": 5891.0, "Lat": 32.45019, "Lon": -80.78483}], "Laurel Hill": [{"Name": "Laurel Hill", "Country Code": "US", "Population": 1254.0, "Lat": 34.80905, "Lon": -79.54783}, {"Name": "Laurel Hill", "Country Code": "US", "Population": 6855.0, "Lat": 38.71663, "Lon": -77.23686}], "Laurel Hollow": [{"Name": "Laurel Hollow", "Country Code": "US", "Population": 2036.0, "Lat": 40.85677, "Lon": -73.46957}], "Laurel Lake": [{"Name": "Laurel Lake", "Country Code": "US", "Population": 2989.0, "Lat": 39.33956, "Lon": -75.0299}], "Laurel Park": [{"Name": "Laurel Park", "Country Code": "US", "Population": 2314.0, "Lat": 35.31373, "Lon": -82.49345}], "Laurel Springs": [{"Name": "Laurel Springs", "Country Code": "US", "Population": 1884.0, "Lat": 39.82011, "Lon": -75.00628}], "Laureldale": [{"Name": "Laureldale", "Country Code": "US", "Population": 3883.0, "Lat": 40.38815, "Lon": -75.91798}], "Laureles": [{"Name": "Laureles", "Country Code": "CO", "Population": 1910.0, "Lat": 4.25917, "Lon": -75.3225}, {"Name": "Laureles", "Country Code": "US", "Population": 3692.0, "Lat": 26.10924, "Lon": -97.49415}], "Laurelton": [{"Name": "Laurelton", "Country Code": "US", "Population": 21053.0, "Lat": 40.67019, "Lon": -73.74659}], "Laurence Harbor": [{"Name": "Laurence Harbor", "Country Code": "US", "Population": 6536.0, "Lat": 40.45677, "Lon": -74.24653}], "Laurencekirk": [{"Name": "Laurencekirk", "Country Code": "GB", "Population": 2920.0, "Lat": 56.83338, "Lon": -2.4654}], "Laurens": [{"Name": "Laurens", "Country Code": "FR", "Population": 1048.0, "Lat": 43.52263, "Lon": 3.19654}, {"Name": "Laurens", "Country Code": "US", "Population": 9166.0, "Lat": 34.49901, "Lon": -82.01426}, {"Name": "Laurens", "Country Code": "US", "Population": 1180.0, "Lat": 42.84664, "Lon": -94.85193}], "Laurentides": [{"Name": "Laurentides", "Country Code": "CA", "Population": 12710.0, "Lat": 47.13336, "Lon": -72.28239}], "Laurenzana": [{"Name": "Laurenzana", "Country Code": "IT", "Population": 1865.0, "Lat": 40.45908, "Lon": 15.97075}], "Lauria": [{"Name": "Lauria", "Country Code": "IT", "Population": 4660.0, "Lat": 40.04702, "Lon": 15.83812}], "Lauriano": [{"Name": "Lauriano", "Country Code": "IT", "Population": 888.0, "Lat": 45.15989, "Lon": 7.99474}], "Laurieston": [{"Name": "Laurieston", "Country Code": "GB", "Population": 2670.0, "Lat": 55.99562, "Lon": -3.74801}], "Laurignano": [{"Name": "Laurignano", "Country Code": "IT", "Population": 2051.0, "Lat": 39.27915, "Lon": 16.24232}], "Laurinburg": [{"Name": "Laurinburg", "Country Code": "US", "Population": 15507.0, "Lat": 34.77405, "Lon": -79.46282}], "Laurino": [{"Name": "Laurino", "Country Code": "IT", "Population": 1056.0, "Lat": 40.33915, "Lon": 15.3381}], "Lauris": [{"Name": "Lauris", "Country Code": "FR", "Population": 3313.0, "Lat": 43.74716, "Lon": 5.31346}], "Laurito": [{"Name": "Laurito", "Country Code": "IT", "Population": 744.0, "Lat": 40.16915, "Lon": 15.40741}], "Laurium": [{"Name": "Laurium", "Country Code": "US", "Population": 1941.0, "Lat": 47.23743, "Lon": -88.44317}], "Lauro": [{"Name": "Lauro", "Country Code": "IT", "Population": 2830.0, "Lat": 40.87972, "Lon": 14.63013}, {"Name": "Lauro", "Country Code": "IT", "Population": 1435.0, "Lat": 41.26365, "Lon": 13.89059}], "Lauro Muller": [{"Name": "Lauro Muller", "Country Code": "BR", "Population": 10035.0, "Lat": -28.39278, "Lon": -49.39667}], "Lauro de Freitas": [{"Name": "Lauro de Freitas", "Country Code": "BR", "Population": 141280.0, "Lat": -12.89444, "Lon": -38.32722}], "Laurys Station": [{"Name": "Laurys Station", "Country Code": "US", "Population": 1243.0, "Lat": 40.72315, "Lon": -75.53018}], "Lausanne": [{"Name": "Lausanne", "Country Code": "CH", "Population": 139111.0, "Lat": 46.516, "Lon": 6.63282}], "Lauscha": [{"Name": "Lauscha", "Country Code": "DE", "Population": 4104.0, "Lat": 50.47687, "Lon": 11.15962}], "Lausen": [{"Name": "Lausen", "Country Code": "CH", "Population": 4892.0, "Lat": 47.47139, "Lon": 7.7603}], "Laussa": [{"Name": "Laussa", "Country Code": "AT", "Population": 1227.0, "Lat": 47.95, "Lon": 14.45}], "Laussig": [{"Name": "Lau\u00dfig", "Country Code": "DE", "Population": 2082.0, "Lat": 51.54676, "Lon": 12.6293}], "Laussnitz": [{"Name": "Lau\u00dfnitz", "Country Code": "DE", "Population": 2102.0, "Lat": 51.25, "Lon": 13.88333}], "Laussonne": [{"Name": "Laussonne", "Country Code": "FR", "Population": 1042.0, "Lat": 44.9699, "Lon": 4.05204}], "Lautaro": [{"Name": "Lautaro", "Country Code": "CL", "Population": 21579.0, "Lat": -38.53066, "Lon": -72.43652}], "Lautenbach": [{"Name": "Lautenbach", "Country Code": "DE", "Population": 1945.0, "Lat": 48.48185, "Lon": 8.02732}, {"Name": "Lautenbach", "Country Code": "FR", "Population": 1653.0, "Lat": 47.94055, "Lon": 7.15768}], "Lautenbachzell": [{"Name": "Lautenbachzell", "Country Code": "FR", "Population": 1017.0, "Lat": 47.94124, "Lon": 7.14643}], "Lauter": [{"Name": "Lauter", "Country Code": "DE", "Population": 1141.0, "Lat": 49.97317, "Lon": 10.78842}, {"Name": "Lauter", "Country Code": "DE", "Population": 5028.0, "Lat": 50.56264, "Lon": 12.73513}], "Lauterach": [{"Name": "Lauterach", "Country Code": "AT", "Population": 10267.0, "Lat": 47.47572, "Lon": 9.72941}], "Lauterbach": [{"Name": "Lauterbach", "Country Code": "DE", "Population": 14487.0, "Lat": 50.63558, "Lon": 9.39777}], "Lauterbach/Schwarzwald": [{"Name": "Lauterbach/Schwarzwald", "Country Code": "DE", "Population": 3193.0, "Lat": 48.22999, "Lon": 8.3424}], "Lauterbourg": [{"Name": "Lauterbourg", "Country Code": "FR", "Population": 2266.0, "Lat": 48.97515, "Lon": 8.17846}], "Lauterbrunnen": [{"Name": "Lauterbrunnen", "Country Code": "CH", "Population": 2646.0, "Lat": 46.59307, "Lon": 7.90938}], "Lauterecken": [{"Name": "Lauterecken", "Country Code": "DE", "Population": 2292.0, "Lat": 49.64993, "Lon": 7.59265}], "Lauterhofen": [{"Name": "Lauterhofen", "Country Code": "DE", "Population": 3773.0, "Lat": 49.3684, "Lon": 11.60294}], "Lautertal": [{"Name": "Lautertal", "Country Code": "DE", "Population": 4150.0, "Lat": 50.33333, "Lon": 10.96667}, {"Name": "Lautertal", "Country Code": "DE", "Population": 2638.0, "Lat": 50.58333, "Lon": 9.28333}], "Lautoka": [{"Name": "Lautoka", "Country Code": "FJ", "Population": 52500.0, "Lat": -17.61686, "Lon": 177.45049}], "Lautrach": [{"Name": "Lautrach", "Country Code": "DE", "Population": 1198.0, "Lat": 47.89805, "Lon": 10.11806}], "Lautrec": [{"Name": "Lautrec", "Country Code": "FR", "Population": 1640.0, "Lat": 43.7062, "Lon": 2.13834}], "Lauttasaari": [{"Name": "Lauttasaari", "Country Code": "FI", "Population": 20000.0, "Lat": 60.15896, "Lon": 24.86797}], "Lauvsnes": [{"Name": "Lauvsnes", "Country Code": "NO", "Population": 467.0, "Lat": 64.50061, "Lon": 10.89396}], "Lauw": [{"Name": "Lauw", "Country Code": "BE", "Population": 1031.0, "Lat": 50.73881, "Lon": 5.41333}], "Lauwe": [{"Name": "Lauwe", "Country Code": "BE", "Population": 8392.0, "Lat": 50.79479, "Lon": 3.1869}], "Lauwin-Planque": [{"Name": "Lauwin-Planque", "Country Code": "FR", "Population": 1944.0, "Lat": 50.39024, "Lon": 3.0451}], "Lauzacco": [{"Name": "Lauzacco", "Country Code": "IT", "Population": 1122.0, "Lat": 45.98134, "Lon": 13.28024}], "Lauzerte": [{"Name": "Lauzerte", "Country Code": "FR", "Population": 1592.0, "Lat": 44.25577, "Lon": 1.1378}], "Lauzoua": [{"Name": "Lauzoua", "Country Code": "CI", "Population": 4705.0, "Lat": 5.20327, "Lon": -5.31013}], "Lavaca": [{"Name": "Lavaca", "Country Code": "US", "Population": 2404.0, "Lat": 35.3362, "Lon": -94.17326}], "Lavagna": [{"Name": "Lavagna", "Country Code": "IT", "Population": 11455.0, "Lat": 44.3062, "Lon": 9.35383}], "Lavagno": [{"Name": "Lavagno", "Country Code": "IT", "Population": 5964.0, "Lat": 45.43869, "Lon": 11.13409}], "Laval": [{"Name": "Laval", "Country Code": "CA", "Population": 422993.0, "Lat": 45.56995, "Lon": -73.692}, {"Name": "Laval", "Country Code": "FR", "Population": 50489.0, "Lat": 48.07247, "Lon": -0.77019}], "Laval-Pradel": [{"Name": "Laval-Pradel", "Country Code": "FR", "Population": 1075.0, "Lat": 44.20665, "Lon": 4.06591}], "Laval-en-Belledonne": [{"Name": "Laval-en-Belledonne", "Country Code": "FR", "Population": 1021.0, "Lat": 45.25292, "Lon": 5.93318}], "Lavalette": [{"Name": "Lavalette", "Country Code": "FR", "Population": 1153.0, "Lat": 43.18428, "Lon": 2.26825}, {"Name": "Lavalette", "Country Code": "US", "Population": 1073.0, "Lat": 38.32286, "Lon": -82.44682}], "Lavallette": [{"Name": "Lavallette", "Country Code": "US", "Population": 1807.0, "Lat": 39.9704, "Lon": -74.06875}], "Lavaltrie": [{"Name": "Lavaltrie", "Country Code": "CA", "Population": 8762.0, "Lat": 45.88338, "Lon": -73.28245}], "Lavamuend": [{"Name": "Lavam\u00fcnd", "Country Code": "AT", "Population": 328.0, "Lat": 46.64019, "Lon": 14.94733}], "Lavans-les-Saint-Claude": [{"Name": "Lavans-l\u00e8s-Saint-Claude", "Country Code": "FR", "Population": 1990.0, "Lat": 46.38484, "Lon": 5.78172}], "Lavant": [{"Name": "Lavant", "Country Code": "AT", "Population": 320.0, "Lat": 46.79889, "Lon": 12.83806}], "Lavara": [{"Name": "L\u00e1vara", "Country Code": "GR", "Population": 1447.0, "Lat": 41.26957, "Lon": 26.38522}], "Lavardac": [{"Name": "Lavardac", "Country Code": "FR", "Population": 2384.0, "Lat": 44.17952, "Lon": 0.29829}], "Lavault-Sainte-Anne": [{"Name": "Lavault-Sainte-Anne", "Country Code": "FR", "Population": 1200.0, "Lat": 46.30999, "Lon": 2.60027}], "Lavaur": [{"Name": "Lavaur", "Country Code": "FR", "Population": 10148.0, "Lat": 43.69886, "Lon": 1.81211}], "Laveen": [{"Name": "Laveen", "Country Code": "US", "Population": 5930.0, "Lat": 33.36282, "Lon": -112.16932}], "Lavelanet": [{"Name": "Lavelanet", "Country Code": "FR", "Population": 7382.0, "Lat": 42.93267, "Lon": 1.84844}], "Lavello": [{"Name": "Lavello", "Country Code": "IT", "Population": 13086.0, "Lat": 41.04769, "Lon": 15.78915}], "Lavena Ponte Tresa": [{"Name": "Lavena Ponte Tresa", "Country Code": "IT", "Population": 5268.0, "Lat": 45.9671, "Lon": 8.85725}], "Lavendon": [{"Name": "Lavendon", "Country Code": "GB", "Population": 1303.0, "Lat": 52.17279, "Lon": -0.66109}], "Lavenham": [{"Name": "Lavenham", "Country Code": "GB", "Population": 1413.0, "Lat": 52.10861, "Lon": 0.79617}], "Laveno": [{"Name": "Laveno", "Country Code": "IT", "Population": 8130.0, "Lat": 45.90888, "Lon": 8.62036}], "Lavenone": [{"Name": "Lavenone", "Country Code": "IT", "Population": 506.0, "Lat": 45.73853, "Lon": 10.4393}], "Laventie": [{"Name": "Laventie", "Country Code": "FR", "Population": 4494.0, "Lat": 50.62818, "Lon": 2.77076}], "Laventille": [{"Name": "Laventille", "Country Code": "TT", "Population": 21000.0, "Lat": 10.64917, "Lon": -61.49889}], "Laventure": [{"Name": "Laventure", "Country Code": "MU", "Population": 6171.0, "Lat": -20.14583, "Lon": 57.67667}], "Laverne": [{"Name": "Laverne", "Country Code": "US", "Population": 1365.0, "Lat": 36.70975, "Lon": -99.89346}], "Lavernose-Lacasse": [{"Name": "Lavernose-Lacasse", "Country Code": "FR", "Population": 2673.0, "Lat": 43.397, "Lon": 1.26205}], "Lavertezzo": [{"Name": "Lavertezzo", "Country Code": "CH", "Population": 1168.0, "Lat": 46.25893, "Lon": 8.83756}], "Laverton": [{"Name": "Laverton", "Country Code": "AU", "Population": 5001.0, "Lat": -37.86201, "Lon": 144.76979}, {"Name": "Laverton", "Country Code": "AU", "Population": 2121.0, "Lat": -28.62531, "Lon": 122.3994}], "Laverune": [{"Name": "Lav\u00e9rune", "Country Code": "FR", "Population": 2760.0, "Lat": 43.58639, "Lon": 3.80611}], "Lavezares": [{"Name": "Lavezares", "Country Code": "PH", "Population": 4082.0, "Lat": 12.5336, "Lon": 124.3305}], "Lavezzola": [{"Name": "Lavezzola", "Country Code": "IT", "Population": 3017.0, "Lat": 44.56099, "Lon": 11.87557}], "Lavia": [{"Name": "Lavia", "Country Code": "FI", "Population": 2109.0, "Lat": 61.6, "Lon": 22.6}], "Laviano": [{"Name": "Laviano", "Country Code": "IT", "Population": 1199.0, "Lat": 40.78619, "Lon": 15.30791}], "Lavilledieu": [{"Name": "Lavilledieu", "Country Code": "FR", "Population": 1525.0, "Lat": 44.57545, "Lon": 4.45314}], "Lavinaio-Monterosso": [{"Name": "Lavinaio-Monterosso", "Country Code": "IT", "Population": 1398.0, "Lat": 37.64097, "Lon": 15.10462}], "Lavington": [{"Name": "Lavington", "Country Code": "AU", "Population": 12334.0, "Lat": -36.03976, "Lon": 146.93958}], "Lavinio": [{"Name": "Lavinio", "Country Code": "IT", "Population": 10000.0, "Lat": 41.5035, "Lon": 12.58973}], "Lavis": [{"Name": "Lavis", "Country Code": "IT", "Population": 6404.0, "Lat": 46.14131, "Lon": 11.10931}], "Lavit": [{"Name": "Lavit", "Country Code": "FR", "Population": 1668.0, "Lat": 43.95674, "Lon": 0.9201}], "Lavon": [{"Name": "Lavon", "Country Code": "US", "Population": 2889.0, "Lat": 33.02762, "Lon": -96.43415}], "Lavonia": [{"Name": "Lavonia", "Country Code": "US", "Population": 2165.0, "Lat": 34.43594, "Lon": -83.10682}], "Lavos": [{"Name": "Lavos", "Country Code": "PT", "Population": 4164.0, "Lat": 40.09363, "Lon": -8.82826}], "Lavoux": [{"Name": "Lavoux", "Country Code": "FR", "Population": 1069.0, "Lat": 46.59635, "Lon": 0.5297}], "Lavra": [{"Name": "Lavra", "Country Code": "PT", "Population": 9633.0, "Lat": 41.25935, "Lon": -8.71849}], "Lavradio": [{"Name": "Lavradio", "Country Code": "PT", "Population": 21877.0, "Lat": 38.66808, "Lon": -9.05204}], "Lavras": [{"Name": "Lavras", "Country Code": "BR", "Population": 81472.0, "Lat": -21.24528, "Lon": -44.99972}], "Lavras da Mangabeira": [{"Name": "Lavras da Mangabeira", "Country Code": "BR", "Population": 17221.0, "Lat": -6.75333, "Lon": -38.96444}], "Lavrentiya": [{"Name": "Lavrentiya", "Country Code": "RU", "Population": 1242.0, "Lat": 65.58604, "Lon": -171.02082}], "Lavrica": [{"Name": "Lavrica", "Country Code": "SI", "Population": 2438.0, "Lat": 46.00002, "Lon": 14.5573}], "Lavrio": [{"Name": "L\u00e1vrio", "Country Code": "GR", "Population": 7078.0, "Lat": 37.71445, "Lon": 24.05647}], "Lavumisa": [{"Name": "Lavumisa", "Country Code": "SZ", "Population": 2000.0, "Lat": -27.31005, "Lon": 31.89198}], "Law": [{"Name": "Law", "Country Code": "GB", "Population": 3250.0, "Lat": 55.75, "Lon": -3.88333}], "Lawa-an": [{"Name": "Lawa-an", "Country Code": "PH", "Population": 0.0, "Lat": 11.14028, "Lon": 125.30139}, {"Name": "Lawa-an", "Country Code": "PH", "Population": 0.0, "Lat": 11.15, "Lon": 122.03333}], "Lawai": [{"Name": "Lawai", "Country Code": "US", "Population": 2363.0, "Lat": 21.92159, "Lon": -159.50376}], "Lawalde": [{"Name": "Lawalde", "Country Code": "DE", "Population": 2131.0, "Lat": 51.08333, "Lon": 14.6}], "Lawang": [{"Name": "Lawang", "Country Code": "ID", "Population": 159380.0, "Lat": -7.8353, "Lon": 112.6947}], "Lawang Kupang": [{"Name": "Lawang Kupang", "Country Code": "PH", "Population": 2616.0, "Lat": 15.34807, "Lon": 120.85752}], "Lawar Khas": [{"Name": "L\u0101war Kh\u0101s", "Country Code": "IN", "Population": 19556.0, "Lat": 29.11091, "Lon": 77.77767}], "Lawas": [{"Name": "Lawas", "Country Code": "MY", "Population": 38385.0, "Lat": 4.8604, "Lon": 115.409}], "Lawdar": [{"Name": "Lawdar", "Country Code": "YE", "Population": 0.0, "Lat": 13.88282, "Lon": 45.86859}], "Lawepakam": [{"Name": "Lawepakam", "Country Code": "ID", "Population": 0.0, "Lat": 3.30436, "Lon": 97.96793}], "Lawesigalagala Timur": [{"Name": "Lawesigalagala Timur", "Country Code": "ID", "Population": 0.0, "Lat": 3.33222, "Lon": 97.94212}], "Laweueng": [{"Name": "Laweueng", "Country Code": "ID", "Population": 0.0, "Lat": 5.5151, "Lon": 95.8465}], "Lawigan": [{"Name": "Lawigan", "Country Code": "PH", "Population": 2571.0, "Lat": 10.48562, "Lon": 122.04442}], "Lawndale": [{"Name": "Lawndale", "Country Code": "US", "Population": 33430.0, "Lat": 33.88724, "Lon": -118.35257}], "Lawnside": [{"Name": "Lawnside", "Country Code": "US", "Population": 2919.0, "Lat": 39.8665, "Lon": -75.02823}], "Lawnton": [{"Name": "Lawnton", "Country Code": "AU", "Population": 5560.0, "Lat": -27.28333, "Lon": 152.98333}, {"Name": "Lawnton", "Country Code": "US", "Population": 3813.0, "Lat": 40.25842, "Lon": -76.80386}], "Laworo": [{"Name": "Laworo", "Country Code": "ID", "Population": 0.0, "Lat": -4.78333, "Lon": 122.52472}], "Lawrence": [{"Name": "Lawrence", "Country Code": "AU", "Population": 1014.0, "Lat": -29.4921, "Lon": 153.09689}, {"Name": "Lawrence", "Country Code": "US", "Population": 80231.0, "Lat": 42.70704, "Lon": -71.16311}, {"Name": "Lawrence", "Country Code": "US", "Population": 93917.0, "Lat": 38.97167, "Lon": -95.23525}, {"Name": "Lawrence", "Country Code": "US", "Population": 6559.0, "Lat": 40.61566, "Lon": -73.72958}, {"Name": "Lawrence", "Country Code": "US", "Population": 47809.0, "Lat": 39.83865, "Lon": -86.02526}], "Lawrence Park": [{"Name": "Lawrence Park", "Country Code": "US", "Population": 3915.0, "Lat": 40.34564, "Lon": -76.8008}, {"Name": "Lawrence Park", "Country Code": "US", "Population": 3982.0, "Lat": 42.15228, "Lon": -80.02311}], "Lawrence Park North": [{"Name": "Lawrence Park North", "Country Code": "CA", "Population": 14607.0, "Lat": 43.73006, "Lon": -79.40398}], "Lawrence Park South": [{"Name": "Lawrence Park South", "Country Code": "CA", "Population": 15179.0, "Lat": 43.71721, "Lon": -79.40604}], "Lawrenceburg": [{"Name": "Lawrenceburg", "Country Code": "US", "Population": 11103.0, "Lat": 38.0373, "Lon": -84.89662}, {"Name": "Lawrenceburg", "Country Code": "US", "Population": 10569.0, "Lat": 35.2423, "Lon": -87.33474}, {"Name": "Lawrenceburg", "Country Code": "US", "Population": 4960.0, "Lat": 39.09089, "Lon": -84.84995}], "Lawrenceville": [{"Name": "Lawrenceville", "Country Code": "US", "Population": 3887.0, "Lat": 40.29733, "Lon": -74.7296}, {"Name": "Lawrenceville", "Country Code": "US", "Population": 1078.0, "Lat": 36.75765, "Lon": -77.84694}, {"Name": "Lawrenceville", "Country Code": "US", "Population": 4427.0, "Lat": 38.72921, "Lon": -87.68169}, {"Name": "Lawrenceville", "Country Code": "US", "Population": 30493.0, "Lat": 33.95621, "Lon": -83.98796}], "Lawson": [{"Name": "Lawson", "Country Code": "AU", "Population": 2537.0, "Lat": -33.72064, "Lon": 150.42975}, {"Name": "Lawson", "Country Code": "US", "Population": 2409.0, "Lat": 39.43834, "Lon": -94.20411}], "Lawson Heights": [{"Name": "Lawson Heights", "Country Code": "US", "Population": 2194.0, "Lat": 40.29174, "Lon": -79.3892}], "Lawtell": [{"Name": "Lawtell", "Country Code": "US", "Population": 1198.0, "Lat": 30.51853, "Lon": -92.18485}], "Lawton": [{"Name": "Lawton", "Country Code": "US", "Population": 1866.0, "Lat": 42.16726, "Lon": -85.84695}, {"Name": "Lawton", "Country Code": "US", "Population": 96655.0, "Lat": 34.60869, "Lon": -98.39033}], "Laxa": [{"Name": "Lax\u00e5", "Country Code": "SE", "Population": 3125.0, "Lat": 58.9863, "Lon": 14.61904}], "Laxe": [{"Name": "Laxe", "Country Code": "ES", "Population": 0.0, "Lat": 43.22019, "Lon": -9.0063}], "Laxenburg": [{"Name": "Laxenburg", "Country Code": "AT", "Population": 2828.0, "Lat": 48.06833, "Lon": 16.35607}], "Laxey": [{"Name": "Laxey", "Country Code": "IM", "Population": 1768.0, "Lat": 54.23017, "Lon": -4.39985}], "Laxi": [{"Name": "Laxi", "Country Code": "CN", "Population": 0.0, "Lat": 31.92125, "Lon": 94.04757}], "Laxolo": [{"Name": "Laxolo", "Country Code": "IT", "Population": 1032.0, "Lat": 45.80871, "Lon": 9.59983}], "Laxou": [{"Name": "Laxou", "Country Code": "FR", "Population": 16323.0, "Lat": 48.68372, "Lon": 6.14929}], "Laxton": [{"Name": "Laxton", "Country Code": "GB", "Population": 0.0, "Lat": 53.72005, "Lon": -0.80329}], "Lay-Saint-Christophe": [{"Name": "Lay-Saint-Christophe", "Country Code": "FR", "Population": 2681.0, "Lat": 48.74926, "Lon": 6.19735}], "Laya": [{"Name": "Laya", "Country Code": "BT", "Population": 2000.0, "Lat": 28.0613, "Lon": 89.6826}, {"Name": "Laya", "Country Code": "PH", "Population": 3787.0, "Lat": 17.4726, "Lon": 121.4678}], "Layana": [{"Name": "Layana", "Country Code": "ES", "Population": 115.0, "Lat": 42.29546, "Lon": -1.24483}], "Laye": [{"Name": "Laye", "Country Code": "BF", "Population": 0.0, "Lat": 12.53118, "Lon": -1.77684}], "Layer de la Haye": [{"Name": "Layer de la Haye", "Country Code": "GB", "Population": 1656.0, "Lat": 51.84593, "Lon": 0.85745}], "Layhill": [{"Name": "Layhill", "Country Code": "US", "Population": 5169.0, "Lat": 39.09233, "Lon": -77.04442}], "Layka": [{"Name": "Layka", "Country Code": "CN", "Population": 29032.0, "Lat": 37.07694, "Lon": 79.73167}], "Laylay": [{"Name": "Laylay", "Country Code": "PH", "Population": 2718.0, "Lat": 13.4391, "Lon": 121.8202}], "Laymantown": [{"Name": "Laymantown", "Country Code": "US", "Population": 1979.0, "Lat": 37.36569, "Lon": -79.85754}], "Layo": [{"Name": "Layo", "Country Code": "CI", "Population": 1062.0, "Lat": 5.32682, "Lon": -4.31581}, {"Name": "Layo", "Country Code": "PE", "Population": 3978.0, "Lat": -14.49361, "Lon": -71.155}], "Layog": [{"Name": "Layog", "Country Code": "PH", "Population": 2588.0, "Lat": 7.07667, "Lon": 124.73056}], "Layos": [{"Name": "Layos", "Country Code": "ES", "Population": 365.0, "Lat": 39.77703, "Lon": -4.06448}], "Layou": [{"Name": "Layou", "Country Code": "VC", "Population": 140.0, "Lat": 13.20175, "Lon": -61.27014}], "Layrac": [{"Name": "Layrac", "Country Code": "FR", "Population": 3400.0, "Lat": 44.13353, "Lon": 0.66026}], "Layton": [{"Name": "Layton", "Country Code": "US", "Population": 74143.0, "Lat": 41.06022, "Lon": -111.97105}], "Laytonville": [{"Name": "Laytonville", "Country Code": "US", "Population": 1227.0, "Lat": 39.68821, "Lon": -123.48279}], "Laytown": [{"Name": "Laytown", "Country Code": "IE", "Population": 10889.0, "Lat": 53.68194, "Lon": -6.23917}], "Layyah": [{"Name": "Layyah", "Country Code": "PK", "Population": 78954.0, "Lat": 30.96128, "Lon": 70.93904}], "Laza": [{"Name": "Laza", "Country Code": "ES", "Population": 1771.0, "Lat": 42.06136, "Lon": -7.462}, {"Name": "Laza", "Country Code": "RO", "Population": 6694.0, "Lat": 46.65, "Lon": 27.58333}], "Lazagurria": [{"Name": "Lazagurr\u00eda", "Country Code": "ES", "Population": 205.0, "Lat": 42.49286, "Lon": -2.24018}], "Lazani": [{"Name": "La\u017eani", "Country Code": "MK", "Population": 1954.0, "Lat": 41.44222, "Lon": 21.31583}], "Lazany": [{"Name": "Lazany", "Country Code": "SK", "Population": 1760.0, "Lat": 48.82076, "Lon": 18.61946}], "Lazarat": [{"Name": "Lazarat", "Country Code": "AL", "Population": 0.0, "Lat": 40.04667, "Lon": 20.1475}], "Lazarea": [{"Name": "L\u0103zarea", "Country Code": "RO", "Population": 3555.0, "Lat": 46.75, "Lon": 25.53333}], "Lazareni": [{"Name": "L\u0103z\u0103reni", "Country Code": "RO", "Population": 2982.0, "Lat": 46.86667, "Lon": 22.06667}], "Lazaresti": [{"Name": "L\u0103z\u0103re\u0219ti", "Country Code": "RO", "Population": 2067.0, "Lat": 45.15659, "Lon": 24.9954}], "Lazarev": [{"Name": "Lazarev", "Country Code": "RU", "Population": 1906.0, "Lat": 52.22307, "Lon": 141.51265}], "Lazarevac": [{"Name": "Lazarevac", "Country Code": "RS", "Population": 23551.0, "Lat": 44.38534, "Lon": 20.2557}], "Lazarevo": [{"Name": "Lazarevo", "Country Code": "RS", "Population": 3480.0, "Lat": 45.38893, "Lon": 20.53999}], "Lazarevskoye": [{"Name": "Lazarevskoye", "Country Code": "RU", "Population": 30000.0, "Lat": 43.90886, "Lon": 39.33137}], "Lazaro Cardenas": [{"Name": "L\u00e1zaro C\u00e1rdenas", "Country Code": "MX", "Population": 1151.0, "Lat": 17.19788, "Lon": -92.38107}, {"Name": "L\u00e1zaro C\u00e1rdenas", "Country Code": "MX", "Population": 1361.0, "Lat": 19.88927, "Lon": -102.83219}, {"Name": "L\u00e1zaro C\u00e1rdenas", "Country Code": "MX", "Population": 1172.0, "Lat": 16.28815, "Lon": -93.97752}, {"Name": "L\u00e1zaro C\u00e1rdenas", "Country Code": "MX", "Population": 8704.0, "Lat": 28.39051, "Lon": -105.62346}, {"Name": "L\u00e1zaro C\u00e1rdenas", "Country Code": "MX", "Population": 1186.0, "Lat": 19.14306, "Lon": -97.40056}, {"Name": "L\u00e1zaro C\u00e1rdenas", "Country Code": "MX", "Population": 1583.0, "Lat": 22.17137, "Lon": -102.02704}, {"Name": "L\u00e1zaro C\u00e1rdenas", "Country Code": "MX", "Population": 1965.0, "Lat": 19.48977, "Lon": -100.4859}, {"Name": "L\u00e1zaro C\u00e1rdenas", "Country Code": "MX", "Population": 1373.0, "Lat": 20.94556, "Lon": -103.02222}, {"Name": "L\u00e1zaro C\u00e1rdenas", "Country Code": "MX", "Population": 2381.0, "Lat": 19.64032, "Lon": -98.47166}, {"Name": "L\u00e1zaro C\u00e1rdenas", "Country Code": "MX", "Population": 1544.0, "Lat": 20.70182, "Lon": -99.32749}, {"Name": "L\u00e1zaro C\u00e1rdenas", "Country Code": "MX", "Population": 3002.0, "Lat": 16.60417, "Lon": -93.79139}, {"Name": "L\u00e1zaro C\u00e1rdenas", "Country Code": "MX", "Population": 2215.0, "Lat": 26.04918, "Lon": -108.79858}, {"Name": "L\u00e1zaro C\u00e1rdenas", "Country Code": "MX", "Population": 1894.0, "Lat": 20.22489, "Lon": -99.09509}, {"Name": "L\u00e1zaro C\u00e1rdenas", "Country Code": "MX", "Population": 1075.0, "Lat": 22.9709, "Lon": -100.05357}, {"Name": "L\u00e1zaro C\u00e1rdenas", "Country Code": "MX", "Population": 2389.0, "Lat": 19.5375, "Lon": -97.98222}, {"Name": "L\u00e1zaro C\u00e1rdenas", "Country Code": "MX", "Population": 1375.0, "Lat": 16.72818, "Lon": -94.85981}, {"Name": "L\u00e1zaro C\u00e1rdenas", "Country Code": "MX", "Population": 16294.0, "Lat": 30.52815, "Lon": -115.92617}, {"Name": "L\u00e1zaro C\u00e1rdenas", "Country Code": "MX", "Population": 1531.0, "Lat": 15.17355, "Lon": -92.55257}, {"Name": "L\u00e1zaro C\u00e1rdenas", "Country Code": "MX", "Population": 1242.0, "Lat": 19.35879, "Lon": -97.9876}, {"Name": "L\u00e1zaro C\u00e1rdenas", "Country Code": "MX", "Population": 1321.0, "Lat": 15.7168, "Lon": -92.25458}, {"Name": "L\u00e1zaro C\u00e1rdenas", "Country Code": "MX", "Population": 3699.0, "Lat": 16.1165, "Lon": -91.83352}], "Lazaro Cardenas (Chilil)": [{"Name": "L\u00e1zaro C\u00e1rdenas (Chilil)", "Country Code": "MX", "Population": 1177.0, "Lat": 16.67611, "Lon": -92.48917}], "Lazaro Cardenas (El Empalme)": [{"Name": "L\u00e1zaro C\u00e1rdenas (El Empalme)", "Country Code": "MX", "Population": 1507.0, "Lat": 18.93222, "Lon": -99.02528}], "Lazaro Cardenas (La Purisima)": [{"Name": "L\u00e1zaro C\u00e1rdenas (La Pur\u00edsima)", "Country Code": "MX", "Population": 1348.0, "Lat": 19.86972, "Lon": -101.02306}], "Lazaro Cardenas (Rancho Grande)": [{"Name": "L\u00e1zaro C\u00e1rdenas (Rancho Grande)", "Country Code": "MX", "Population": 3857.0, "Lat": 23.45056, "Lon": -102.9625}], "Lazaro Cardenas (Santana)": [{"Name": "L\u00e1zaro C\u00e1rdenas (Santana)", "Country Code": "MX", "Population": 1433.0, "Lat": 20.225, "Lon": -97.59306}], "Lazcano": [{"Name": "Lazkao", "Country Code": "ES", "Population": 0.0, "Lat": 43.03239, "Lon": -2.18616}], "Lazdijai": [{"Name": "Lazdijai", "Country Code": "LT", "Population": 3629.0, "Lat": 54.23326, "Lon": 23.51466}], "Lazdynai": [{"Name": "Lazdynai", "Country Code": "LT", "Population": 31097.0, "Lat": 54.66815, "Lon": 25.20684}], "Lazeshchyna": [{"Name": "Lazeshchyna", "Country Code": "UA", "Population": 4008.0, "Lat": 48.2744, "Lon": 24.41559}], "Lazi": [{"Name": "Lazi", "Country Code": "PH", "Population": 3429.0, "Lat": 9.1287, "Lon": 123.6356}, {"Name": "Lazi", "Country Code": "UA", "Population": 3660.0, "Lat": 48.06667, "Lon": 24.23333}], "Lazikou": [{"Name": "Lazikou", "Country Code": "CN", "Population": 3331.0, "Lat": 34.06634, "Lon": 103.89402}], "Lazise": [{"Name": "Lazise", "Country Code": "IT", "Population": 3049.0, "Lat": 45.50499, "Lon": 10.73923}], "Laziska": [{"Name": "\u0141aziska", "Country Code": "PL", "Population": 1689.0, "Lat": 49.9357, "Lon": 18.44707}, {"Name": "\u0141aziska", "Country Code": "PL", "Population": 519.0, "Lat": 51.14226, "Lon": 21.87919}], "Laziska Gorne": [{"Name": "\u0141aziska G\u00f3rne", "Country Code": "PL", "Population": 21983.0, "Lat": 50.14952, "Lon": 18.84215}], "Lazne Belohrad": [{"Name": "L\u00e1zn\u011b B\u011blohrad", "Country Code": "CZ", "Population": 3744.0, "Lat": 50.42874, "Lon": 15.58269}], "Lazne Bohdanec": [{"Name": "L\u00e1zn\u011b Bohdane\u010d", "Country Code": "CZ", "Population": 3274.0, "Lat": 50.0756, "Lon": 15.67978}], "Lazne Kynzvart": [{"Name": "L\u00e1zn\u011b Kyn\u017evart", "Country Code": "CZ", "Population": 1647.0, "Lat": 50.01058, "Lon": 12.62474}], "Lazo": [{"Name": "Lazo", "Country Code": "RU", "Population": 3551.0, "Lat": 43.38563, "Lon": 133.9061}, {"Name": "Lazo", "Country Code": "RU", "Population": 3240.0, "Lat": 45.87052, "Lon": 133.65021}], "Lazuri": [{"Name": "Lazuri", "Country Code": "RO", "Population": 5237.0, "Lat": 47.85, "Lon": 22.86667}, {"Name": "Lazuri", "Country Code": "RO", "Population": 1931.0, "Lat": 44.87859, "Lon": 25.54964}], "Lazuri de Beius": [{"Name": "Lazuri de Beiu\u015f", "Country Code": "RO", "Population": 1840.0, "Lat": 46.58333, "Lon": 22.4}], "Lazurne": [{"Name": "Lazurne", "Country Code": "UA", "Population": 3119.0, "Lat": 46.0829, "Lon": 32.52559}], "Lazy": [{"Name": "\u0141azy", "Country Code": "PL", "Population": 7166.0, "Lat": 50.42769, "Lon": 19.39465}], "Lazy Mountain": [{"Name": "Lazy Mountain", "Country Code": "US", "Population": 1479.0, "Lat": 61.62611, "Lon": -148.94556}], "Lazzaro": [{"Name": "Lazzaro", "Country Code": "IT", "Population": 3041.0, "Lat": 37.97276, "Lon": 15.66511}], "Lazzate": [{"Name": "Lazzate", "Country Code": "IT", "Population": 7560.0, "Lat": 45.67207, "Lon": 9.08424}], "Lazzeretto": [{"Name": "Lazzeretto", "Country Code": "IT", "Population": 1010.0, "Lat": 43.78305, "Lon": 10.86054}], "Lchap": [{"Name": "Lchap", "Country Code": "AM", "Population": 1032.0, "Lat": 40.45569, "Lon": 45.07507}], "Lchashen": [{"Name": "Lchashen", "Country Code": "AM", "Population": 4182.0, "Lat": 40.51947, "Lon": 44.93048}], "Le Ban Saint-Martin": [{"Name": "Le Ban Saint-Martin", "Country Code": "FR", "Population": 4332.0, "Lat": 49.1225, "Lon": 6.15111}], "Le Bar-sur-Loup": [{"Name": "Le Bar-sur-Loup", "Country Code": "FR", "Population": 2805.0, "Lat": 43.7, "Lon": 6.98333}], "Le Barcares": [{"Name": "Le Barcar\u00e8s", "Country Code": "FR", "Population": 3831.0, "Lat": 42.78773, "Lon": 3.03656}], "Le Barp": [{"Name": "Le Barp", "Country Code": "FR", "Population": 4230.0, "Lat": 44.60784, "Lon": -0.77318}], "Le Beausset": [{"Name": "Le Beausset", "Country Code": "FR", "Population": 8568.0, "Lat": 43.19822, "Lon": 5.80267}], "Le Bic": [{"Name": "Le Bic", "Country Code": "CA", "Population": 1115.0, "Lat": 48.37549, "Lon": -68.69415}], "Le Bignon": [{"Name": "Le Bignon", "Country Code": "FR", "Population": 2793.0, "Lat": 47.09854, "Lon": -1.49103}], "Le Blanc": [{"Name": "Le Blanc", "Country Code": "FR", "Population": 7026.0, "Lat": 46.63371, "Lon": 1.06272}], "Le Blanc-Mesnil": [{"Name": "Le Blanc-Mesnil", "Country Code": "FR", "Population": 48077.0, "Lat": 48.93872, "Lon": 2.46138}], "Le Bois-Plage-en-Re": [{"Name": "Le Bois-Plage-en-R\u00e9", "Country Code": "FR", "Population": 2401.0, "Lat": 46.18622, "Lon": -1.39238}], "Le Bois-d'Oingt": [{"Name": "Le Bois-d'Oingt", "Country Code": "FR", "Population": 2161.0, "Lat": 45.91718, "Lon": 4.58259}], "Le Bosc-Roger-en-Roumois": [{"Name": "Le Bosc-Roger-en-Roumois", "Country Code": "FR", "Population": 3151.0, "Lat": 49.28333, "Lon": 0.93333}], "Le Boulou": [{"Name": "Le Boulou", "Country Code": "FR", "Population": 4952.0, "Lat": 42.52424, "Lon": 2.83336}], "Le Boupere": [{"Name": "Le Boup\u00e8re", "Country Code": "FR", "Population": 2985.0, "Lat": 46.7957, "Lon": -0.92641}], "Le Bourg-d'Oisans": [{"Name": "Le Bourg-d'Oisans", "Country Code": "FR", "Population": 3352.0, "Lat": 45.05483, "Lon": 6.03366}], "Le Bourget": [{"Name": "Le Bourget", "Country Code": "FR", "Population": 12690.0, "Lat": 48.93405, "Lon": 2.43584}], "Le Bourget-du-Lac": [{"Name": "Le Bourget-du-Lac", "Country Code": "FR", "Population": 4263.0, "Lat": 45.65362, "Lon": 5.8549}], "Le Bourgneuf-la-Foret": [{"Name": "Le Bourgneuf-la-For\u00eat", "Country Code": "FR", "Population": 1650.0, "Lat": 48.16418, "Lon": -0.97064}], "Le Bouscat": [{"Name": "Le Bouscat", "Country Code": "FR", "Population": 24232.0, "Lat": 44.86488, "Lon": -0.59864}], "Le Bousquet-d'Orb": [{"Name": "Le Bousquet-d'Orb", "Country Code": "FR", "Population": 1601.0, "Lat": 43.6925, "Lon": 3.16595}], "Le Breil-sur-Merize": [{"Name": "Le Breil-sur-M\u00e9rize", "Country Code": "FR", "Population": 1181.0, "Lat": 48.00778, "Lon": 0.47669}], "Le Breuil": [{"Name": "Le Breuil", "Country Code": "FR", "Population": 3529.0, "Lat": 46.80654, "Lon": 4.46953}], "Le Breuil-sur-Couze": [{"Name": "Le Breuil-sur-Couze", "Country Code": "FR", "Population": 1020.0, "Lat": 45.4686, "Lon": 3.2631}], "Le Broc": [{"Name": "Le Broc", "Country Code": "FR", "Population": 1063.0, "Lat": 43.80878, "Lon": 7.16882}], "Le Brusquet": [{"Name": "Le Brusquet", "Country Code": "FR", "Population": 1003.0, "Lat": 44.16126, "Lon": 6.30925}], "Le Bugue": [{"Name": "Le Bugue", "Country Code": "FR", "Population": 2928.0, "Lat": 44.91847, "Lon": 0.92714}], "Le Buisson-de-Cadouin": [{"Name": "Le Buisson-de-Cadouin", "Country Code": "FR", "Population": 2143.0, "Lat": 44.85, "Lon": 0.91667}], "Le Cabot": [{"Name": "Le Cabot", "Country Code": "FR", "Population": 10942.0, "Lat": 43.25884, "Lon": 5.41729}], "Le Cailar": [{"Name": "Le Cailar", "Country Code": "FR", "Population": 2517.0, "Lat": 43.6759, "Lon": 4.23616}], "Le Camas": [{"Name": "Le Camas", "Country Code": "FR", "Population": 16585.0, "Lat": 43.29469, "Lon": 5.39415}], "Le Canet": [{"Name": "Le Canet", "Country Code": "FR", "Population": 7431.0, "Lat": 43.32611, "Lon": 5.3723}], "Le Cannet": [{"Name": "Le Cannet", "Country Code": "FR", "Population": 43353.0, "Lat": 43.57662, "Lon": 7.01912}], "Le Cannet-des-Maures": [{"Name": "Le Cannet-des-Maures", "Country Code": "FR", "Population": 3980.0, "Lat": 43.39236, "Lon": 6.33966}], "Le Cap d'Agde": [{"Name": "Le Cap d'Agde", "Country Code": "FR", "Population": 4600.0, "Lat": 43.27796, "Lon": 3.51357}], "Le Casine-Perignano-Spinelli": [{"Name": "Le Casine-Perignano-Spinelli", "Country Code": "IT", "Population": 3263.0, "Lat": 43.6, "Lon": 10.58333}], "Le Castella": [{"Name": "Le Castella", "Country Code": "IT", "Population": 1102.0, "Lat": 38.9101, "Lon": 17.02216}], "Le Castellet": [{"Name": "Le Castellet", "Country Code": "FR", "Population": 4114.0, "Lat": 43.20291, "Lon": 5.77657}], "Le Cellier": [{"Name": "Le Cellier", "Country Code": "FR", "Population": 3596.0, "Lat": 47.31964, "Lon": -1.34716}], "Le Cendre": [{"Name": "Le Cendre", "Country Code": "FR", "Population": 5072.0, "Lat": 45.7224, "Lon": 3.18711}], "Le Center": [{"Name": "Le Center", "Country Code": "US", "Population": 2459.0, "Lat": 44.38941, "Lon": -93.73023}], "Le Chambon-Feugerolles": [{"Name": "Le Chambon-Feugerolles", "Country Code": "FR", "Population": 13371.0, "Lat": 45.39145, "Lon": 4.32149}], "Le Chambon-sur-Lignon": [{"Name": "Le Chambon-sur-Lignon", "Country Code": "FR", "Population": 2923.0, "Lat": 45.06097, "Lon": 4.30241}], "Le Champ-Saint-Pere": [{"Name": "Le Champ-Saint-P\u00e8re", "Country Code": "FR", "Population": 1404.0, "Lat": 46.50835, "Lon": -1.34633}], "Le Champ-pres-Froges": [{"Name": "Le Champ-pr\u00e8s-Froges", "Country Code": "FR", "Population": 1242.0, "Lat": 45.28045, "Lon": 5.93977}], "Le Chapitre": [{"Name": "Le Chapitre", "Country Code": "FR", "Population": 7080.0, "Lat": 43.30053, "Lon": 5.38433}], "Le Chatelet": [{"Name": "Le Ch\u00e2telet", "Country Code": "FR", "Population": 1147.0, "Lat": 46.64247, "Lon": 2.28229}], "Le Chatelet-en-Brie": [{"Name": "Le Ch\u00e2telet-en-Brie", "Country Code": "FR", "Population": 4968.0, "Lat": 48.50695, "Lon": 2.79163}], "Le Chenit": [{"Name": "Le Chenit", "Country Code": "CH", "Population": 4062.0, "Lat": 46.60688, "Lon": 6.23062}], "Le Chesnay": [{"Name": "Le Chesnay", "Country Code": "FR", "Population": 29154.0, "Lat": 48.8222, "Lon": 2.12213}], "Le Cheylard": [{"Name": "Le Cheylard", "Country Code": "FR", "Population": 3774.0, "Lat": 44.90623, "Lon": 4.42406}], "Le Cheylas": [{"Name": "Le Cheylas", "Country Code": "FR", "Population": 2276.0, "Lat": 45.37064, "Lon": 5.99277}], "Le Claire": [{"Name": "Le Claire", "Country Code": "US", "Population": 3982.0, "Lat": 41.59864, "Lon": -90.34346}], "Le Conquet": [{"Name": "Le Conquet", "Country Code": "FR", "Population": 2516.0, "Lat": 48.36053, "Lon": -4.77086}], "Le Coteau": [{"Name": "Le Coteau", "Country Code": "FR", "Population": 7571.0, "Lat": 46.01919, "Lon": 4.0923}], "Le Coudray": [{"Name": "Le Coudray", "Country Code": "FR", "Population": 3045.0, "Lat": 48.42115, "Lon": 1.50057}], "Le Coudray-Montceaux": [{"Name": "Le Coudray-Montceaux", "Country Code": "FR", "Population": 2956.0, "Lat": 48.56376, "Lon": 2.50013}], "Le Cres": [{"Name": "Le Cr\u00e8s", "Country Code": "FR", "Population": 7621.0, "Lat": 43.64763, "Lon": 3.9388}], "Le Crest": [{"Name": "Le Crest", "Country Code": "FR", "Population": 1178.0, "Lat": 45.68666, "Lon": 3.12735}], "Le Creusot": [{"Name": "Le Creusot", "Country Code": "FR", "Population": 25590.0, "Lat": 46.80714, "Lon": 4.41632}], "Le Croisic": [{"Name": "Le Croisic", "Country Code": "FR", "Population": 4593.0, "Lat": 47.29276, "Lon": -2.51797}], "Le Crotoy": [{"Name": "Le Crotoy", "Country Code": "FR", "Population": 2481.0, "Lat": 50.216, "Lon": 1.625}], "Le Donjon": [{"Name": "Le Donjon", "Country Code": "FR", "Population": 1191.0, "Lat": 46.35058, "Lon": 3.79269}], "Le Dorat": [{"Name": "Le Dorat", "Country Code": "FR", "Population": 2134.0, "Lat": 46.21451, "Lon": 1.0816}], "Le Doulieu": [{"Name": "Le Doulieu", "Country Code": "FR", "Population": 1267.0, "Lat": 50.68194, "Lon": 2.71741}], "Le Drennec": [{"Name": "Le Drennec", "Country Code": "FR", "Population": 1614.0, "Lat": 48.5344, "Lon": -4.37243}], "Le Faou": [{"Name": "Le Faou", "Country Code": "FR", "Population": 1703.0, "Lat": 48.29456, "Lon": -4.17927}], "Le Faouet": [{"Name": "Le Faou\u00ebt", "Country Code": "FR", "Population": 3032.0, "Lat": 48.03299, "Lon": -3.49048}], "Le Fauga": [{"Name": "Le Fauga", "Country Code": "FR", "Population": 1472.0, "Lat": 43.39666, "Lon": 1.29413}], "Le Fenouiller": [{"Name": "Le Fenouiller", "Country Code": "FR", "Population": 3430.0, "Lat": 46.71949, "Lon": -1.90037}], "Le Fief-Sauvin": [{"Name": "Le Fief-Sauvin", "Country Code": "FR", "Population": 1407.0, "Lat": 47.22143, "Lon": -1.04214}], "Le Fleix": [{"Name": "Le Fleix", "Country Code": "FR", "Population": 1480.0, "Lat": 44.87499, "Lon": 0.25122}], "Le Foeil": [{"Name": "Le F\u0153il", "Country Code": "FR", "Population": 1186.0, "Lat": 48.42825, "Lon": -2.91506}], "Le Folgoet": [{"Name": "Le Folgo\u00ebt", "Country Code": "FR", "Population": 3286.0, "Lat": 48.56381, "Lon": -4.33829}], "Le Forna": [{"Name": "Le Forna", "Country Code": "IT", "Population": 1268.0, "Lat": 40.92475, "Lon": 12.96896}], "Le Fousseret": [{"Name": "Le Fousseret", "Country Code": "FR", "Population": 1640.0, "Lat": 43.2818, "Lon": 1.06585}], "Le Francois": [{"Name": "Le Fran\u00e7ois", "Country Code": "MQ", "Population": 19682.0, "Lat": 14.61513, "Lon": -60.90311}], "Le Fuilet": [{"Name": "Le Fuilet", "Country Code": "FR", "Population": 1925.0, "Lat": 47.28345, "Lon": -1.1131}], "Le Garric": [{"Name": "Le Garric", "Country Code": "FR", "Population": 1188.0, "Lat": 44.0097, "Lon": 2.16243}], "Le Gavre": [{"Name": "Le G\u00e2vre", "Country Code": "FR", "Population": 1026.0, "Lat": 47.52061, "Lon": -1.74815}], "Le Gosier": [{"Name": "Le Gosier", "Country Code": "GP", "Population": 28698.0, "Lat": 16.20618, "Lon": -61.49306}], "Le Grand": [{"Name": "Le Grand", "Country Code": "US", "Population": 1659.0, "Lat": 37.22855, "Lon": -120.24823}], "Le Grand-Bornand": [{"Name": "Le Grand-Bornand", "Country Code": "FR", "Population": 2331.0, "Lat": 45.94211, "Lon": 6.43077}], "Le Grand-Bourg": [{"Name": "Le Grand-Bourg", "Country Code": "FR", "Population": 1312.0, "Lat": 46.16021, "Lon": 1.64493}], "Le Grand-Lemps": [{"Name": "Le Grand-Lemps", "Country Code": "FR", "Population": 2566.0, "Lat": 45.39646, "Lon": 5.4201}], "Le Grand-Luce": [{"Name": "Le Grand-Luc\u00e9", "Country Code": "FR", "Population": 2023.0, "Lat": 47.86523, "Lon": 0.4688}], "Le Grand-Pressigny": [{"Name": "Le Grand-Pressigny", "Country Code": "FR", "Population": 1080.0, "Lat": 46.92017, "Lon": 0.8038}], "Le Grand-Quevilly": [{"Name": "Le Grand-Quevilly", "Country Code": "FR", "Population": 26522.0, "Lat": 49.40076, "Lon": 1.04582}], "Le Grand-Saconnex": [{"Name": "Le Grand-Saconnex", "Country Code": "CH", "Population": 9781.0, "Lat": 46.23188, "Lon": 6.12091}], "Le Grau-du-Roi": [{"Name": "Le Grau-du-Roi", "Country Code": "FR", "Population": 6368.0, "Lat": 43.53881, "Lon": 4.13559}], "Le Grazie": [{"Name": "Le Grazie", "Country Code": "IT", "Population": 1628.0, "Lat": 44.06699, "Lon": 9.83392}], "Le Grazie di Ancona": [{"Name": "Le Grazie di Ancona", "Country Code": "IT", "Population": 6385.0, "Lat": 43.60081, "Lon": 13.51529}], "Le Gros-Morne": [{"Name": "Le Gros-Morne", "Country Code": "MQ", "Population": 11025.0, "Lat": 14.7, "Lon": -61.0}], "Le Gua": [{"Name": "Le Gua", "Country Code": "FR", "Population": 1839.0, "Lat": 45.01667, "Lon": 5.61667}, {"Name": "Le Gua", "Country Code": "FR", "Population": 1936.0, "Lat": 45.72628, "Lon": -0.944}], "Le Haillan": [{"Name": "Le Haillan", "Country Code": "FR", "Population": 8880.0, "Lat": 44.87161, "Lon": -0.67691}], "Le Havre": [{"Name": "Le Havre", "Country Code": "FR", "Population": 185972.0, "Lat": 49.49346, "Lon": 0.10785}], "Le Hochet": [{"Name": "Le Hochet", "Country Code": "MU", "Population": 15662.0, "Lat": -20.13859, "Lon": 57.53013}], "Le Hocq": [{"Name": "Le Hocq", "Country Code": "JE", "Population": 0.0, "Lat": 49.16823, "Lon": -2.06178}], "Le Houga": [{"Name": "Le Houga", "Country Code": "FR", "Population": 1200.0, "Lat": 43.77487, "Lon": -0.18061}], "Le Houlme": [{"Name": "Le Houlme", "Country Code": "FR", "Population": 4468.0, "Lat": 49.50972, "Lon": 1.03537}], "Le Kremlin-Bicetre": [{"Name": "Le Kremlin-Bic\u00eatre", "Country Code": "FR", "Population": 27867.0, "Lat": 48.81471, "Lon": 2.36073}], "Le Krib": [{"Name": "Le Krib", "Country Code": "TN", "Population": 7691.0, "Lat": 36.32802, "Lon": 9.13613}], "Le Lamentin": [{"Name": "Le Lamentin", "Country Code": "MQ", "Population": 40581.0, "Lat": 14.61341, "Lon": -60.99964}], "Le Landeron": [{"Name": "Le Landeron", "Country Code": "CH", "Population": 4278.0, "Lat": 47.05702, "Lon": 7.07052}], "Le Landreau": [{"Name": "Le Landreau", "Country Code": "FR", "Population": 2674.0, "Lat": 47.20443, "Lon": -1.30546}], "Le Langon": [{"Name": "Le Langon", "Country Code": "FR", "Population": 1090.0, "Lat": 46.43792, "Lon": -0.95005}], "Le Lardin-Saint-Lazare": [{"Name": "Le Lardin-Saint-Lazare", "Country Code": "FR", "Population": 1900.0, "Lat": 45.13333, "Lon": 1.21667}], "Le Lavandou": [{"Name": "Le Lavandou", "Country Code": "FR", "Population": 5902.0, "Lat": 43.137, "Lon": 6.366}], "Le Locle": [{"Name": "Le Locle", "Country Code": "CH", "Population": 10279.0, "Lat": 47.05619, "Lon": 6.74913}], "Le Longeron": [{"Name": "Le Longeron", "Country Code": "FR", "Population": 2004.0, "Lat": 47.01845, "Lon": -1.05763}], "Le Loroux-Bottereau": [{"Name": "Le Loroux-Bottereau", "Country Code": "FR", "Population": 5326.0, "Lat": 47.23797, "Lon": -1.34963}], "Le Lorrain": [{"Name": "Le Lorrain", "Country Code": "MQ", "Population": 8341.0, "Lat": 14.83257, "Lon": -61.05553}], "Le Louroux Beconnais": [{"Name": "Le Louroux B\u00e9connais", "Country Code": "FR", "Population": 2225.0, "Lat": 47.52148, "Lon": -0.88559}], "Le Luart": [{"Name": "Le Luart", "Country Code": "FR", "Population": 1093.0, "Lat": 48.06969, "Lon": 0.58661}], "Le Luc": [{"Name": "Le Luc", "Country Code": "FR", "Population": 7953.0, "Lat": 43.39453, "Lon": 6.31253}], "Le Lude": [{"Name": "Le Lude", "Country Code": "FR", "Population": 4465.0, "Lat": 47.64648, "Lon": 0.15664}], "Le Malzieu-Ville": [{"Name": "Le Malzieu-Ville", "Country Code": "FR", "Population": 1023.0, "Lat": 44.8556, "Lon": 3.33013}], "Le Manoir": [{"Name": "Le Manoir", "Country Code": "FR", "Population": 1051.0, "Lat": 49.31355, "Lon": 1.20455}], "Le Mans": [{"Name": "Le Mans", "Country Code": "FR", "Population": 144515.0, "Lat": 48.0021, "Lon": 0.20251}], "Le Marin": [{"Name": "Le Marin", "Country Code": "MQ", "Population": 7943.0, "Lat": 14.47158, "Lon": -60.86989}], "Le Mars": [{"Name": "Le Mars", "Country Code": "US", "Population": 9761.0, "Lat": 42.79416, "Lon": -96.16558}], "Le Mas-d'Agenais": [{"Name": "Le Mas-d'Agenais", "Country Code": "FR", "Population": 1431.0, "Lat": 44.41108, "Lon": 0.21739}], "Le May-sur-Evre": [{"Name": "Le May-sur-\u00c8vre", "Country Code": "FR", "Population": 4125.0, "Lat": 47.13653, "Lon": -0.89273}], "Le Mayet-de-Montagne": [{"Name": "Le Mayet-de-Montagne", "Country Code": "FR", "Population": 1457.0, "Lat": 46.07091, "Lon": 3.66665}], "Le Mee-sur-Seine": [{"Name": "Le M\u00e9e-sur-Seine", "Country Code": "FR", "Population": 22058.0, "Lat": 48.53157, "Lon": 2.62829}], "Le Menil": [{"Name": "Le M\u00e9nil", "Country Code": "FR", "Population": 1142.0, "Lat": 47.90477, "Lon": 6.78209}], "Le Merlan": [{"Name": "Le Merlan", "Country Code": "FR", "Population": 9112.0, "Lat": 43.33875, "Lon": 5.40773}], "Le Mesnil-Esnard": [{"Name": "Le Mesnil-Esnard", "Country Code": "FR", "Population": 6380.0, "Lat": 49.41319, "Lon": 1.14521}], "Le Mesnil-Saint-Denis": [{"Name": "Le Mesnil-Saint-Denis", "Country Code": "FR", "Population": 6915.0, "Lat": 48.74485, "Lon": 1.95594}], "Le Mesnil-en-Thelle": [{"Name": "Le Mesnil-en-Thelle", "Country Code": "FR", "Population": 2170.0, "Lat": 49.1783, "Lon": 2.28573}], "Le Mesnil-en-Vallee": [{"Name": "Le Mesnil-en-Vall\u00e9e", "Country Code": "FR", "Population": 1364.0, "Lat": 47.36551, "Lon": -0.93485}], "Le Mesnil-le-Roi": [{"Name": "Le Mesnil-le-Roi", "Country Code": "FR", "Population": 6515.0, "Lat": 48.93825, "Lon": 2.12554}], "Le Mesnil-sur-Oger": [{"Name": "Le Mesnil-sur-Oger", "Country Code": "FR", "Population": 1094.0, "Lat": 48.94708, "Lon": 4.02263}], "Le Meux": [{"Name": "Le Meux", "Country Code": "FR", "Population": 1860.0, "Lat": 49.36718, "Lon": 2.74374}], "Le Minihic-sur-Rance": [{"Name": "Le Minihic-sur-Rance", "Country Code": "FR", "Population": 1303.0, "Lat": 48.57659, "Lon": -2.01221}], "Le Molay-Littry": [{"Name": "Le Molay-Littry", "Country Code": "FR", "Population": 2790.0, "Lat": 49.24265, "Lon": -0.87238}], "Le Monastere": [{"Name": "Le Monast\u00e8re", "Country Code": "FR", "Population": 1900.0, "Lat": 44.34165, "Lon": 2.57956}], "Le Monastier-sur-Gazeille": [{"Name": "Le Monastier-sur-Gazeille", "Country Code": "FR", "Population": 1835.0, "Lat": 44.93333, "Lon": 4.0}], "Le Monetier-les-Bains": [{"Name": "Le Mon\u00eatier-les-Bains", "Country Code": "FR", "Population": 1101.0, "Lat": 44.97604, "Lon": 6.50898}], "Le Mont-sur-Lausanne": [{"Name": "Le Mont-sur-Lausanne", "Country Code": "CH", "Population": 5270.0, "Lat": 46.55815, "Lon": 6.63145}], "Le Morne-Rouge": [{"Name": "Le Morne-Rouge", "Country Code": "MQ", "Population": 5469.0, "Lat": 14.7761, "Lon": -61.13564}], "Le Moule": [{"Name": "Le Moule", "Country Code": "GP", "Population": 22692.0, "Lat": 16.33164, "Lon": -61.34656}], "Le Muy": [{"Name": "Le Muy", "Country Code": "FR", "Population": 8474.0, "Lat": 43.4728, "Lon": 6.56637}], "Le Neubourg": [{"Name": "Le Neubourg", "Country Code": "FR", "Population": 3947.0, "Lat": 49.15048, "Lon": 0.9102}], "Le Noirmont": [{"Name": "Le Noirmont", "Country Code": "CH", "Population": 1617.0, "Lat": 47.22464, "Lon": 6.95784}], "Le Nouvion-en-Thierache": [{"Name": "Le Nouvion-en-Thi\u00e9rache", "Country Code": "FR", "Population": 2951.0, "Lat": 50.01625, "Lon": 3.78509}], "Le Palais": [{"Name": "Le Palais", "Country Code": "FR", "Population": 2645.0, "Lat": 47.3463, "Lon": -3.15583}], "Le Palais-sur-Vienne": [{"Name": "Le Palais-sur-Vienne", "Country Code": "FR", "Population": 5944.0, "Lat": 45.8639, "Lon": 1.32313}], "Le Pallet": [{"Name": "Le Pallet", "Country Code": "FR", "Population": 2574.0, "Lat": 47.13842, "Lon": -1.33609}], "Le Passage": [{"Name": "Le Passage", "Country Code": "FR", "Population": 9434.0, "Lat": 44.2014, "Lon": 0.60347}], "Le Peage-de-Roussillon": [{"Name": "Le P\u00e9age-de-Roussillon", "Country Code": "FR", "Population": 6869.0, "Lat": 45.3738, "Lon": 4.79727}], "Le Pechereau": [{"Name": "Le P\u00eachereau", "Country Code": "FR", "Population": 1906.0, "Lat": 46.57677, "Lon": 1.54743}], "Le Pecq": [{"Name": "Le Pecq", "Country Code": "FR", "Population": 16534.0, "Lat": 48.89317, "Lon": 2.10371}], "Le Pellerin": [{"Name": "Le Pellerin", "Country Code": "FR", "Population": 4147.0, "Lat": 47.19863, "Lon": -1.75466}], "Le Perray-en-Yvelines": [{"Name": "Le Perray-en-Yvelines", "Country Code": "FR", "Population": 6206.0, "Lat": 48.69441, "Lon": 1.85643}], "Le Perreon": [{"Name": "Le Perr\u00e9on", "Country Code": "FR", "Population": 1085.0, "Lat": 46.06316, "Lon": 4.60045}], "Le Perreux-sur-Marne": [{"Name": "Le Perreux-sur-Marne", "Country Code": "FR", "Population": 32015.0, "Lat": 48.85, "Lon": 2.5}], "Le Perrier": [{"Name": "Le Perrier", "Country Code": "FR", "Population": 1625.0, "Lat": 46.82002, "Lon": -1.99338}], "Le Pertre": [{"Name": "Le Pertre", "Country Code": "FR", "Population": 1374.0, "Lat": 48.03373, "Lon": -1.03735}], "Le Petit-Quevilly": [{"Name": "Le Petit-Quevilly", "Country Code": "FR", "Population": 22691.0, "Lat": 49.41338, "Lon": 1.06155}], "Le Pharo": [{"Name": "Le Pharo", "Country Code": "FR", "Population": 6153.0, "Lat": 43.2914, "Lon": 5.35829}], "Le Pian-Medoc": [{"Name": "Le Pian-M\u00e9doc", "Country Code": "FR", "Population": 5897.0, "Lat": 44.95519, "Lon": -0.67017}], "Le Pin": [{"Name": "Le Pin", "Country Code": "FR", "Population": 1066.0, "Lat": 46.86281, "Lon": -0.6551}, {"Name": "Le Pin", "Country Code": "FR", "Population": 1137.0, "Lat": 48.91523, "Lon": 2.62841},