{"Amir Timur": [{"Name": "Amir Timur", "Country Code": "UZ", "Population": 0.0, "Lat": 41.01944, "Lon": 68.94083}], "Amirabad": [{"Name": "Amirabad", "Country Code": "PK", "Population": 3000.0, "Lat": 34.18729, "Lon": 73.09078}], "Amirdzhan": [{"Name": "Amirdzhan", "Country Code": "AZ", "Population": 26798.0, "Lat": 40.42639, "Lon": 49.98361}], "Amite": [{"Name": "Amite", "Country Code": "US", "Population": 4640.0, "Lat": 30.72657, "Lon": -90.50898}], "Amity": [{"Name": "Amity", "Country Code": "US", "Population": 1641.0, "Lat": 45.11567, "Lon": -123.20733}], "Amity Gardens": [{"Name": "Amity Gardens", "Country Code": "US", "Population": 3402.0, "Lat": 40.27426, "Lon": -75.73519}], "Amityville": [{"Name": "Amityville", "Country Code": "US", "Population": 9486.0, "Lat": 40.67899, "Lon": -73.41707}], "Amixtlan": [{"Name": "Amixtl\u00e1n", "Country Code": "MX", "Population": 2518.0, "Lat": 20.04778, "Lon": -97.79918}], "Amizmiz": [{"Name": "Amizmiz", "Country Code": "MA", "Population": 15685.0, "Lat": 31.21673, "Lon": -8.23184}], "Amizour": [{"Name": "Amizour", "Country Code": "DZ", "Population": 25825.0, "Lat": 36.64022, "Lon": 4.90131}], "Amla": [{"Name": "Amla", "Country Code": "IN", "Population": 29995.0, "Lat": 21.92485, "Lon": 78.12786}], "Amlach": [{"Name": "Amlach", "Country Code": "AT", "Population": 489.0, "Lat": 46.81639, "Lon": 12.76361}], "Amlagora": [{"Name": "\u0100ml\u0101gora", "Country Code": "IN", "Population": 19038.0, "Lat": 22.84616, "Lon": 87.33559}], "Amlame": [{"Name": "Amlam\u00e9", "Country Code": "TG", "Population": 9870.0, "Lat": 7.46667, "Lon": 0.9}], "Amlapura": [{"Name": "Amlapura", "Country Code": "ID", "Population": 31869.0, "Lat": -8.45, "Lon": 115.61667}], "Amlapura city": [{"Name": "Amlapura city", "Country Code": "ID", "Population": 31869.0, "Lat": -8.44869, "Lon": 115.60621}], "Amlash": [{"Name": "Amlash", "Country Code": "IR", "Population": 0.0, "Lat": 37.0966, "Lon": 50.18709}], "Amli": [{"Name": "\u0100mli", "Country Code": "IN", "Population": 33369.0, "Lat": 20.28333, "Lon": 73.01667}, {"Name": "\u00c5mli", "Country Code": "NO", "Population": 572.0, "Lat": 58.76566, "Lon": 8.48392}], "Amlimay": [{"Name": "Amlimay", "Country Code": "PH", "Population": 2405.0, "Lat": 16.69377, "Lon": 120.83704}], "Amloh": [{"Name": "Amloh", "Country Code": "IN", "Population": 13859.0, "Lat": 30.60837, "Lon": 76.23199}], "Amlwch": [{"Name": "Amlwch", "Country Code": "GB", "Population": 3211.0, "Lat": 53.40986, "Lon": -4.34712}], "Amman": [{"Name": "Amman", "Country Code": "JO", "Population": 1275857.0, "Lat": 31.95522, "Lon": 35.94503}], "Ammanford": [{"Name": "Ammanford", "Country Code": "GB", "Population": 23709.0, "Lat": 51.79279, "Lon": -3.98833}], "Ammapettai": [{"Name": "Amm\u0101pettai", "Country Code": "IN", "Population": 8552.0, "Lat": 11.61975, "Lon": 77.74264}, {"Name": "Amm\u0101pettai", "Country Code": "IN", "Population": 14528.0, "Lat": 10.79476, "Lon": 79.31986}], "Ammerndorf": [{"Name": "Ammerndorf", "Country Code": "DE", "Population": 2099.0, "Lat": 49.42335, "Lon": 10.85011}], "Ammerschwihr": [{"Name": "Ammerschwihr", "Country Code": "FR", "Population": 2009.0, "Lat": 48.12548, "Lon": 7.28282}], "Ammerstol": [{"Name": "Ammerstol", "Country Code": "NL", "Population": 1580.0, "Lat": 51.9275, "Lon": 4.80833}], "Ammerthal": [{"Name": "Ammerthal", "Country Code": "DE", "Population": 2017.0, "Lat": 49.44123, "Lon": 11.76181}], "Ammerzoden": [{"Name": "Ammerzoden", "Country Code": "NL", "Population": 3040.0, "Lat": 51.74917, "Lon": 5.22083}], "Ammi Moussa": [{"Name": "Ammi Moussa", "Country Code": "DZ", "Population": 27530.0, "Lat": 35.86781, "Lon": 1.11143}], "Amminadav": [{"Name": "\u2018Amminadav", "Country Code": "IL", "Population": 1086.0, "Lat": 31.75212, "Lon": 35.14733}], "Ammochori": [{"Name": "Ammoch\u00f3ri", "Country Code": "GR", "Population": 1250.0, "Lat": 40.78203, "Lon": 21.48458}], "Ammon": [{"Name": "Ammon", "Country Code": "US", "Population": 14960.0, "Lat": 43.46964, "Lon": -111.96664}], "Amnat Charoen": [{"Name": "Amnat Charoen", "Country Code": "TH", "Population": 34769.0, "Lat": 15.85851, "Lon": 104.62883}], "Amneville": [{"Name": "Amn\u00e9ville", "Country Code": "FR", "Population": 10162.0, "Lat": 49.25671, "Lon": 6.13414}], "Amod": [{"Name": "Amod", "Country Code": "IN", "Population": 18742.0, "Lat": 21.99317, "Lon": 72.87047}], "Amodi": [{"Name": "Amodi", "Country Code": "CI", "Population": 1337.0, "Lat": 8.13484, "Lon": -3.0707}], "Amodio-Massariola": [{"Name": "Amodio-Massariola", "Country Code": "IT", "Population": 2024.0, "Lat": 40.88872, "Lon": 14.09091}], "Amoeiro": [{"Name": "Amoeiro", "Country Code": "ES", "Population": 2354.0, "Lat": 42.41667, "Lon": -7.95}], "Amoeneburg": [{"Name": "Am\u00f6neburg", "Country Code": "DE", "Population": 5390.0, "Lat": 50.79595, "Lon": 8.9233}], "Amol": [{"Name": "\u0100mol", "Country Code": "IR", "Population": 199382.0, "Lat": 36.46961, "Lon": 52.35072}], "Amolatar": [{"Name": "Amolatar", "Country Code": "UG", "Population": 0.0, "Lat": 1.61556, "Lon": 32.83972}], "Amonkro": [{"Name": "Amonkro", "Country Code": "CI", "Population": 1661.0, "Lat": 7.08498, "Lon": -5.03104}, {"Name": "Amonkro", "Country Code": "CI", "Population": 1152.0, "Lat": 6.96964, "Lon": -5.42841}], "Amontada": [{"Name": "Amontada", "Country Code": "BR", "Population": 13520.0, "Lat": -3.36167, "Lon": -39.83167}], "Amor": [{"Name": "Amor", "Country Code": "PT", "Population": 4870.0, "Lat": 39.80404, "Lon": -8.85984}], "Amora": [{"Name": "Amora", "Country Code": "PT", "Population": 52577.0, "Lat": 38.62961, "Lon": -9.11557}], "Amoragui": [{"Name": "Amoragui", "Country Code": "CI", "Population": 1826.0, "Lat": 5.40195, "Lon": -6.65143}], "Amorebieta": [{"Name": "Amorebieta", "Country Code": "ES", "Population": 17842.0, "Lat": 43.21667, "Lon": -2.73333}], "Amorgos": [{"Name": "Amorg\u00f3s", "Country Code": "GR", "Population": 397.0, "Lat": 36.83175, "Lon": 25.89821}], "Amoriakro": [{"Name": "Amoriakro", "Country Code": "CI", "Population": 9203.0, "Lat": 7.09941, "Lon": -3.52821}], "Amoriki": [{"Name": "Amoriki", "Country Code": "CI", "Population": 6420.0, "Lat": 7.08793, "Lon": -4.16155}], "Amorim": [{"Name": "Amorim", "Country Code": "PT", "Population": 2856.0, "Lat": 41.40503, "Lon": -8.75046}], "Amorofikroum": [{"Name": "Amorofikroum", "Country Code": "CI", "Population": 1616.0, "Lat": 7.60106, "Lon": -3.14964}], "Amorosi": [{"Name": "Amorosi", "Country Code": "IT", "Population": 2218.0, "Lat": 41.20273, "Lon": 14.46598}], "Amoroto": [{"Name": "Amoroto", "Country Code": "ES", "Population": 364.0, "Lat": 43.32634, "Lon": -2.51349}], "Amory": [{"Name": "Amory", "Country Code": "US", "Population": 7067.0, "Lat": 33.98428, "Lon": -88.4881}], "Amos": [{"Name": "Amos", "Country Code": "CA", "Population": 17918.0, "Lat": 48.56688, "Lon": -78.11624}], "Amot": [{"Name": "\u00c5mot", "Country Code": "NO", "Population": 0.0, "Lat": 59.56974, "Lon": 7.98871}], "Amotape": [{"Name": "Amotape", "Country Code": "PE", "Population": 0.0, "Lat": -4.88167, "Lon": -81.01556}], "Amotfors": [{"Name": "\u00c5motfors", "Country Code": "SE", "Population": 1347.0, "Lat": 59.76191, "Lon": 12.36211}], "Amou": [{"Name": "Amou", "Country Code": "FR", "Population": 1587.0, "Lat": 43.59292, "Lon": -0.74714}], "Amougies": [{"Name": "Amougies", "Country Code": "BE", "Population": 1132.0, "Lat": 50.74446, "Lon": 3.50675}], "Amouguer": [{"Name": "Amouguer", "Country Code": "MA", "Population": 0.0, "Lat": 32.27491, "Lon": -4.93535}], "Amoukoukro": [{"Name": "Amoukoukro", "Country Code": "CI", "Population": 2829.0, "Lat": 7.11557, "Lon": -3.62834}], "Amourj": [{"Name": "Amourj", "Country Code": "MR", "Population": 5509.0, "Lat": 16.1098, "Lon": -7.2185}], "Amozoc de Mota": [{"Name": "Amozoc de Mota", "Country Code": "MX", "Population": 77106.0, "Lat": 19.04611, "Lon": -98.045}], "Ampahana": [{"Name": "Ampahana", "Country Code": "MG", "Population": 25000.0, "Lat": -14.75, "Lon": 50.21667}], "Ampana": [{"Name": "Ampana", "Country Code": "ID", "Population": 0.0, "Lat": -0.86901, "Lon": 121.58367}], "Ampang": [{"Name": "Ampang", "Country Code": "MY", "Population": 126285.0, "Lat": 3.15, "Lon": 101.76667}], "Ampanihy": [{"Name": "Ampanihy", "Country Code": "MG", "Population": 40244.0, "Lat": -24.6937, "Lon": 44.74581}], "Ampara": [{"Name": "Ampara", "Country Code": "LK", "Population": 43720.0, "Lat": 7.29754, "Lon": 81.68202}], "Amparafaravola": [{"Name": "Amparafaravola", "Country Code": "MG", "Population": 35266.0, "Lat": -17.5876, "Lon": 48.22391}], "Amparita": [{"Name": "Amparita", "Country Code": "ID", "Population": 0.0, "Lat": -3.9937, "Lon": 119.8122}], "Amparo": [{"Name": "Amparo", "Country Code": "BR", "Population": 72677.0, "Lat": -22.70111, "Lon": -46.76444}], "Ampasimanolotra": [{"Name": "Ampasimanolotra", "Country Code": "MG", "Population": 21000.0, "Lat": -18.81667, "Lon": 49.06667}], "Ampass": [{"Name": "Ampass", "Country Code": "AT", "Population": 1827.0, "Lat": 47.26251, "Lon": 11.46226}], "Ampati": [{"Name": "Ampati", "Country Code": "IN", "Population": 0.0, "Lat": 25.4623, "Lon": 89.93325}], "Ampatuan": [{"Name": "Ampatuan", "Country Code": "PH", "Population": 3962.0, "Lat": 6.86667, "Lon": 124.46667}], "Ampelakia": [{"Name": "Ampel\u00e1kia", "Country Code": "GR", "Population": 4710.0, "Lat": 37.95055, "Lon": 23.52803}], "Ampeleies": [{"Name": "Ampele\u00edes", "Country Code": "GR", "Population": 1070.0, "Lat": 40.83417, "Lon": 22.38767}], "Ampelokipoi": [{"Name": "Ampel\u00f3kipoi", "Country Code": "GR", "Population": 0.0, "Lat": 40.65304, "Lon": 22.92624}], "Ampelona": [{"Name": "Ampel\u00f3na", "Country Code": "GR", "Population": 5961.0, "Lat": 39.74481, "Lon": 22.36575}], "Amper": [{"Name": "Amper", "Country Code": "NG", "Population": 12212.0, "Lat": 9.35509, "Lon": 9.70121}], "Ampere": [{"Name": "Amp\u00e9re", "Country Code": "BR", "Population": 14274.0, "Lat": -25.915, "Lon": -53.47278}], "Ampezzo": [{"Name": "Ampezzo", "Country Code": "IT", "Population": 813.0, "Lat": 46.41459, "Lon": 12.79634}], "Ampfing": [{"Name": "Ampfing", "Country Code": "DE", "Population": 6188.0, "Lat": 48.254, "Lon": 12.41515}], "Ampflwang": [{"Name": "Ampflwang", "Country Code": "AT", "Population": 1187.0, "Lat": 48.08333, "Lon": 13.56667}], "Amphawa": [{"Name": "Amphawa", "Country Code": "TH", "Population": 0.0, "Lat": 13.42436, "Lon": 99.95688}], "Amphoe Sikhiu": [{"Name": "Amphoe Sikhiu", "Country Code": "TH", "Population": 28681.0, "Lat": 14.89944, "Lon": 101.70833}], "Amplepuis": [{"Name": "Amplepuis", "Country Code": "FR", "Population": 5261.0, "Lat": 45.9726, "Lon": 4.3303}], "Ampliacion Colonia Lazaro Cardenas": [{"Name": "Ampliaci\u00f3n Colonia L\u00e1zaro C\u00e1rdenas", "Country Code": "MX", "Population": 8161.0, "Lat": 28.38333, "Lon": -105.61667}], "Ampliacion San Mateo": [{"Name": "Ampliaci\u00f3n San Mateo", "Country Code": "MX", "Population": 16250.0, "Lat": 19.61639, "Lon": -99.14722}], "Ampliacion Tezoyuca": [{"Name": "Ampliaci\u00f3n Tezoyuca", "Country Code": "MX", "Population": 1100.0, "Lat": 19.58057, "Lon": -98.92053}], "Ampliacion la Hincada": [{"Name": "Ampliaci\u00f3n la Hincada", "Country Code": "MX", "Population": 1850.0, "Lat": 22.21528, "Lon": -99.23611}], "Amposta": [{"Name": "Amposta", "Country Code": "ES", "Population": 21240.0, "Lat": 40.70995, "Lon": 0.57856}], "Ampsin": [{"Name": "Ampsin", "Country Code": "BE", "Population": 3576.0, "Lat": 50.54153, "Lon": 5.2779}], "Ampthill": [{"Name": "Ampthill", "Country Code": "GB", "Population": 20026.0, "Lat": 52.02694, "Lon": -0.49567}], "Ampudia": [{"Name": "Ampudia", "Country Code": "ES", "Population": 677.0, "Lat": 41.91608, "Lon": -4.78033}], "Ampuero": [{"Name": "Ampuero", "Country Code": "ES", "Population": 3713.0, "Lat": 43.34268, "Lon": -3.41667}], "Ampuis": [{"Name": "Ampuis", "Country Code": "FR", "Population": 2311.0, "Lat": 45.48925, "Lon": 4.81001}], "Ampusungan": [{"Name": "Ampusungan", "Country Code": "PH", "Population": 2077.0, "Lat": 16.7804, "Lon": 120.7247}], "Amqui": [{"Name": "Amqui", "Country Code": "CA", "Population": 6261.0, "Lat": 48.46382, "Lon": -67.43134}], "Amran": [{"Name": "\u2018Amr\u0101n", "Country Code": "YE", "Population": 90792.0, "Lat": 15.6594, "Lon": 43.94385}], "Amras": [{"Name": "Amras", "Country Code": "AT", "Population": 5771.0, "Lat": 47.25, "Lon": 11.41667}], "Amravati": [{"Name": "Amr\u0101vati", "Country Code": "IN", "Population": 603837.0, "Lat": 20.93333, "Lon": 77.75}], "Amreli": [{"Name": "Amreli", "Country Code": "IN", "Population": 99742.0, "Lat": 21.59983, "Lon": 71.21169}], "Amriswil": [{"Name": "Amriswil", "Country Code": "CH", "Population": 11351.0, "Lat": 47.54699, "Lon": 9.29586}], "Amritsar": [{"Name": "Amritsar", "Country Code": "IN", "Population": 1092450.0, "Lat": 31.62234, "Lon": 74.87534}], "Amroha": [{"Name": "Amroha", "Country Code": "IN", "Population": 176253.0, "Lat": 28.90314, "Lon": 78.46984}], "Amroli": [{"Name": "Amroli", "Country Code": "IN", "Population": 17082.0, "Lat": 21.25084, "Lon": 72.83878}], "Amstelveen": [{"Name": "Amstelveen", "Country Code": "NL", "Population": 79639.0, "Lat": 52.30083, "Lon": 4.86389}], "Amstenrade": [{"Name": "Amstenrade", "Country Code": "NL", "Population": 1740.0, "Lat": 50.93917, "Lon": 5.92361}], "Amsterdam": [{"Name": "Amsterdam", "Country Code": "NL", "Population": 741636.0, "Lat": 52.37403, "Lon": 4.88969}, {"Name": "Amsterdam", "Country Code": "US", "Population": 18008.0, "Lat": 42.93869, "Lon": -74.18819}], "Amsterdam-Zuidoost": [{"Name": "Amsterdam-Zuidoost", "Country Code": "NL", "Population": 84811.0, "Lat": 52.3075, "Lon": 4.97222}], "Amstetten": [{"Name": "Amstetten", "Country Code": "AT", "Population": 15559.0, "Lat": 48.1229, "Lon": 14.87206}, {"Name": "Amstetten", "Country Code": "DE", "Population": 3999.0, "Lat": 48.57876, "Lon": 9.87388}], "Amta": [{"Name": "\u0100mta", "Country Code": "IN", "Population": 16753.0, "Lat": 22.58344, "Lon": 88.01039}], "Amtzell": [{"Name": "Amtzell", "Country Code": "DE", "Population": 3530.0, "Lat": 47.7, "Lon": 9.75}], "Amucao": [{"Name": "Amucao", "Country Code": "PH", "Population": 2478.0, "Lat": 15.46405, "Lon": 120.68643}], "Amuco de la Reforma": [{"Name": "Amuco de la Reforma", "Country Code": "MX", "Population": 2703.0, "Lat": 18.29361, "Lon": -100.63972}], "Amuda": [{"Name": "\u2018\u0100m\u016bd\u0101", "Country Code": "SY", "Population": 26821.0, "Lat": 37.10417, "Lon": 40.93}], "Amudalavalasa": [{"Name": "Amud\u0101lavalasa", "Country Code": "IN", "Population": 39124.0, "Lat": 18.41025, "Lon": 83.90295}], "Amudat": [{"Name": "Amudat", "Country Code": "UG", "Population": 1873.0, "Lat": 1.95, "Lon": 34.95}], "Amulung": [{"Name": "Amulung", "Country Code": "PH", "Population": 2354.0, "Lat": 17.8357, "Lon": 121.72375}], "Amungan": [{"Name": "Amu\u00f1gan", "Country Code": "PH", "Population": 12357.0, "Lat": 15.3652, "Lon": 119.9582}], "Amuntai": [{"Name": "Amuntai", "Country Code": "ID", "Population": 55560.0, "Lat": -2.41773, "Lon": 115.24941}], "Amuquhu": [{"Name": "Amuquhu", "Country Code": "CN", "Population": 12623.0, "Lat": 34.81145, "Lon": 102.68685}], "Amuria": [{"Name": "Amuria", "Country Code": "UG", "Population": 0.0, "Lat": 2.00361, "Lon": 33.65111}], "Amurrio": [{"Name": "Amurrio", "Country Code": "ES", "Population": 10089.0, "Lat": 43.05, "Lon": -3.0}], "Amursk": [{"Name": "Amursk", "Country Code": "RU", "Population": 46993.0, "Lat": 50.23685, "Lon": 136.88136}], "Amurskoye": [{"Name": "Amurskoye", "Country Code": "UA", "Population": 2687.0, "Lat": 45.27822, "Lon": 34.12823}], "Amuru": [{"Name": "Amuru", "Country Code": "UG", "Population": 0.0, "Lat": 2.81388, "Lon": 31.93868}], "Amurzet": [{"Name": "Amurzet", "Country Code": "RU", "Population": 5213.0, "Lat": 47.69541, "Lon": 131.09493}], "Amusco": [{"Name": "Amusco", "Country Code": "ES", "Population": 494.0, "Lat": 42.17306, "Lon": -4.47018}], "Amusquillo": [{"Name": "Amusquillo", "Country Code": "ES", "Population": 162.0, "Lat": 41.74853, "Lon": -4.30117}], "Amvrosiivka": [{"Name": "Amvrosiivka", "Country Code": "UA", "Population": 17998.0, "Lat": 47.79348, "Lon": 38.47768}], "Amygdaleonas": [{"Name": "Amygdale\u00f3nas", "Country Code": "GR", "Population": 2724.0, "Lat": 40.96346, "Lon": 24.36007}], "Amyntaio": [{"Name": "Am\u00fdntaio", "Country Code": "GR", "Population": 3671.0, "Lat": 40.68967, "Lon": 21.67974}], "Amzacea": [{"Name": "Amzacea", "Country Code": "RO", "Population": 2647.0, "Lat": 43.95, "Lon": 28.4}], "Amzya": [{"Name": "Amzya", "Country Code": "RU", "Population": 4843.0, "Lat": 56.2346, "Lon": 54.385}], "An Bien": [{"Name": "An Bi\u00ean", "Country Code": "VN", "Population": 0.0, "Lat": 9.81532, "Lon": 105.06366}], "An Chau": [{"Name": "An Ch\u00e2u", "Country Code": "VN", "Population": 0.0, "Lat": 21.33465, "Lon": 106.84934}, {"Name": "An Ch\u00e2u", "Country Code": "VN", "Population": 0.0, "Lat": 10.44559, "Lon": 105.38622}], "An Duong": [{"Name": "An D\u01b0\u01a1ng", "Country Code": "VN", "Population": 0.0, "Lat": 20.86382, "Lon": 106.6133}], "An Hoa": [{"Name": "An H\u00f2a", "Country Code": "VN", "Population": 0.0, "Lat": 10.29693, "Lon": 105.74435}], "An Lao": [{"Name": "An L\u00e3o", "Country Code": "VN", "Population": 0.0, "Lat": 14.61241, "Lon": 108.8899}, {"Name": "An L\u00e3o", "Country Code": "VN", "Population": 0.0, "Lat": 20.82294, "Lon": 106.55575}], "An Muileann gCearr": [{"Name": "An Muileann gCearr", "Country Code": "IE", "Population": 17262.0, "Lat": 53.52466, "Lon": -7.3385}], "An Nabi Ilyas": [{"Name": "An Nab\u012b Ily\u0101s", "Country Code": "PS", "Population": 1157.0, "Lat": 32.18482, "Lon": 35.0176}], "An Nabk": [{"Name": "An Nabk", "Country Code": "SY", "Population": 49372.0, "Lat": 34.02403, "Lon": 36.72848}], "An Nadirah": [{"Name": "An N\u0101dirah", "Country Code": "YE", "Population": 0.0, "Lat": 14.09628, "Lon": 44.47559}], "An Najd": [{"Name": "An Najd", "Country Code": "YE", "Population": 0.0, "Lat": 14.42152, "Lon": 45.29596}], "An Naqurah": [{"Name": "An N\u0101q\u016brah", "Country Code": "PS", "Population": 1528.0, "Lat": 32.26506, "Lon": 35.20135}], "An Nashabiyah": [{"Name": "An Nash\u0101b\u012byah", "Country Code": "SY", "Population": 0.0, "Lat": 33.51051, "Lon": 36.48569}], "An Nasirah": [{"Name": "An N\u0101\u015firah", "Country Code": "SY", "Population": 0.0, "Lat": 34.78769, "Lon": 36.28559}, {"Name": "An N\u0101\u015firah", "Country Code": "YE", "Population": 0.0, "Lat": 15.77277, "Lon": 43.80902}], "An Nasiriyah": [{"Name": "An N\u0101\u015fir\u012byah", "Country Code": "EG", "Population": 22435.0, "Lat": 27.20583, "Lon": 31.19639}, {"Name": "An N\u0101\u015fir\u012byah", "Country Code": "LY", "Population": 20687.0, "Lat": 32.63278, "Lon": 12.87361}], "An Nasr": [{"Name": "An Na\u015fr", "Country Code": "PS", "Population": 6211.0, "Lat": 31.28137, "Lon": 34.30253}], "An Nassariyah": [{"Name": "An Na\u015f\u015f\u0101r\u012byah", "Country Code": "PS", "Population": 1568.0, "Lat": 32.23647, "Lon": 35.38711}], "An Nazir": [{"Name": "An Naz\u0327\u012br", "Country Code": "YE", "Population": 0.0, "Lat": 16.90916, "Lon": 43.26226}], "An Nazlah ash Sharqiyah": [{"Name": "An Nazlah ash Sharq\u012byah", "Country Code": "PS", "Population": 1500.0, "Lat": 32.41072, "Lon": 35.10916}], "An Nhon": [{"Name": "An Nh\u01a1n", "Country Code": "VN", "Population": 0.0, "Lat": 13.88579, "Lon": 109.10823}], "An Nimas": [{"Name": "An Nimas", "Country Code": "SA", "Population": 24153.0, "Lat": 19.14547, "Lon": 42.12009}], "An Nu'maniyah": [{"Name": "An Nu\u2018m\u0101n\u012byah", "Country Code": "IQ", "Population": 110000.0, "Lat": 32.55621, "Lon": 45.41293}], "An Nubariyah": [{"Name": "An N\u016bb\u0101r\u012byah", "Country Code": "EG", "Population": 23282.0, "Lat": 30.6687, "Lon": 30.07391}], "An Nuhud": [{"Name": "An Nuh\u016bd", "Country Code": "SD", "Population": 108008.0, "Lat": 12.7, "Lon": 28.43333}], "An Nusayrat": [{"Name": "An Nu\u015fayr\u0101t", "Country Code": "PS", "Population": 36123.0, "Lat": 31.44861, "Lon": 34.3925}], "An Nuway'imah": [{"Name": "An Nuway\u2018imah", "Country Code": "PS", "Population": 1229.0, "Lat": 31.89212, "Lon": 35.43549}], "An Phu": [{"Name": "An Ph\u00fa", "Country Code": "VN", "Population": 0.0, "Lat": 10.81591, "Lon": 105.09038}], "An Ros": [{"Name": "An Ros", "Country Code": "IE", "Population": 9231.0, "Lat": 53.52424, "Lon": -6.10497}], "An Thi": [{"Name": "\u00c2n Thi", "Country Code": "VN", "Population": 0.0, "Lat": 20.81835, "Lon": 106.09118}], "An-Najaylah": [{"Name": "An-Najaylah", "Country Code": "EG", "Population": 19768.0, "Lat": 31.4071, "Lon": 26.5832}], "Anabar": [{"Name": "Anabar", "Country Code": "NR", "Population": 378.0, "Lat": -0.50845, "Lon": 166.95326}], "Anabta": [{"Name": "\u2018Anabt\u0101", "Country Code": "PS", "Population": 7106.0, "Lat": 32.30792, "Lon": 35.11693}], "Anacapri": [{"Name": "Anacapri", "Country Code": "IT", "Population": 6403.0, "Lat": 40.5517, "Lon": 14.21225}], "Anacleto Canabal 2da. Seccion": [{"Name": "Anacleto Canabal 2da. Secci\u00f3n", "Country Code": "MX", "Population": 5153.0, "Lat": 17.97556, "Lon": -93.02417}], "Anacleto Canabal 3ra. Seccion": [{"Name": "Anacleto Canabal 3ra. Secci\u00f3n", "Country Code": "MX", "Population": 2589.0, "Lat": 18.0183, "Lon": -92.98992}], "Anaco": [{"Name": "Anaco", "Country Code": "VE", "Population": 139397.0, "Lat": 9.42958, "Lon": -64.46428}], "Anaconda": [{"Name": "Anaconda", "Country Code": "US", "Population": 9417.0, "Lat": 46.12854, "Lon": -112.94226}], "Anacortes": [{"Name": "Anacortes", "Country Code": "US", "Population": 16403.0, "Lat": 48.5126, "Lon": -122.61267}], "Anadarko": [{"Name": "Anadarko", "Country Code": "US", "Population": 6717.0, "Lat": 35.07256, "Lon": -98.24366}], "Anadia": [{"Name": "Anadia", "Country Code": "BR", "Population": 9574.0, "Lat": -9.68444, "Lon": -36.30417}, {"Name": "Anadia", "Country Code": "PT", "Population": 0.0, "Lat": 40.43841, "Lon": -8.43352}], "Anadon": [{"Name": "Anad\u00f3n", "Country Code": "ES", "Population": 19.0, "Lat": 40.98225, "Lon": -0.98367}], "Anadyr": [{"Name": "Anadyr", "Country Code": "RU", "Population": 15604.0, "Lat": 64.73424, "Lon": 177.5103}], "Anafi": [{"Name": "An\u00e1fi", "Country Code": "GR", "Population": 0.0, "Lat": 36.35, "Lon": 25.76667}], "Anage": [{"Name": "Anag\u00e9", "Country Code": "BR", "Population": 3758.0, "Lat": -14.61222, "Lon": -41.13556}], "Anagni": [{"Name": "Anagni", "Country Code": "IT", "Population": 9206.0, "Lat": 41.7435, "Lon": 13.15542}], "Anah": [{"Name": "\u2018Anah", "Country Code": "IQ", "Population": 27000.0, "Lat": 34.36857, "Lon": 41.98194}], "Anahawan": [{"Name": "Anahawan", "Country Code": "PH", "Population": 2640.0, "Lat": 10.3429, "Lon": 124.8782}, {"Name": "Anahawan", "Country Code": "PH", "Population": 0.0, "Lat": 10.27722, "Lon": 125.2625}], "Anaheim": [{"Name": "Anaheim", "Country Code": "US", "Population": 350742.0, "Lat": 33.83529, "Lon": -117.9145}], "Anahola": [{"Name": "Anahola", "Country Code": "US", "Population": 2223.0, "Lat": 22.14226, "Lon": -159.31388}], "Anahuac": [{"Name": "An\u00e1huac", "Country Code": "MX", "Population": 16628.0, "Lat": 27.24457, "Lon": -100.13229}, {"Name": "An\u00e1huac", "Country Code": "MX", "Population": 9952.0, "Lat": 28.48396, "Lon": -106.7472}, {"Name": "Anahuac", "Country Code": "MX", "Population": 14116.0, "Lat": 22.20275, "Lon": -97.85506}, {"Name": "An\u00e1huac", "Country Code": "MX", "Population": 3642.0, "Lat": 25.77638, "Lon": -97.77413}, {"Name": "Anahuac", "Country Code": "US", "Population": 2324.0, "Lat": 29.773, "Lon": -94.6827}], "Anaime": [{"Name": "Anaime", "Country Code": "CO", "Population": 25715.0, "Lat": 4.39639, "Lon": -75.445}], "Anajatuba": [{"Name": "Anajatuba", "Country Code": "BR", "Population": 5627.0, "Lat": -3.26444, "Lon": -44.61972}], "Anak": [{"Name": "Anak", "Country Code": "KP", "Population": 19995.0, "Lat": 38.51083, "Lon": 125.49417}], "Anakan": [{"Name": "Anakan", "Country Code": "PH", "Population": 3825.0, "Lat": 8.84778, "Lon": 125.15139}], "Anakao": [{"Name": "Anakao", "Country Code": "MG", "Population": 3000.0, "Lat": -23.66667, "Lon": 43.65}], "Anakapalle": [{"Name": "Anak\u0101palle", "Country Code": "IN", "Population": 84357.0, "Lat": 17.69134, "Lon": 83.00395}], "Anakasia": [{"Name": "Anakasi\u00e1", "Country Code": "GR", "Population": 1012.0, "Lat": 39.38112, "Lon": 22.97484}], "Anakikro": [{"Name": "Anakikro", "Country Code": "CI", "Population": 1354.0, "Lat": 7.56667, "Lon": -3.33333}], "Anaklia": [{"Name": "Anaklia", "Country Code": "GE", "Population": 1300.0, "Lat": 42.39302, "Lon": 41.56227}], "Anaku": [{"Name": "Anaku", "Country Code": "NG", "Population": 0.0, "Lat": 6.46875, "Lon": 6.92893}], "Analco de Ponciano Arriaga (Santa Cruz Analco)": [{"Name": "Analco de Ponciano Arriaga (Santa Cruz Analco)", "Country Code": "MX", "Population": 2521.0, "Lat": 19.26444, "Lon": -98.50028}], "Anamakro": [{"Name": "Anamakro", "Country Code": "CI", "Population": 1237.0, "Lat": 7.35949, "Lon": -4.00119}], "Anamalais": [{"Name": "Anamalais", "Country Code": "IN", "Population": 16131.0, "Lat": 10.58303, "Lon": 76.93441}], "Anamas": [{"Name": "Anamas", "Country Code": "TR", "Population": 2960.0, "Lat": 37.76667, "Lon": 30.8}], "Anambongan": [{"Name": "Anambongan", "Country Code": "PH", "Population": 2504.0, "Lat": 15.86634, "Lon": 120.38858}], "Anamizu": [{"Name": "Anamizu", "Country Code": "JP", "Population": 17840.0, "Lat": 37.23333, "Lon": 136.9}], "Anamoros": [{"Name": "Anamor\u00f3s", "Country Code": "SV", "Population": 2655.0, "Lat": 13.74056, "Lon": -87.87361}], "Anamosa": [{"Name": "Anamosa", "Country Code": "US", "Population": 5469.0, "Lat": 42.10834, "Lon": -91.28516}], "Anamur": [{"Name": "Anamur", "Country Code": "TR", "Population": 57128.0, "Lat": 36.07508, "Lon": 32.83691}], "Anan": [{"Name": "Anan", "Country Code": "JP", "Population": 70285.0, "Lat": 33.91667, "Lon": 134.65}], "Anand": [{"Name": "Anand", "Country Code": "IN", "Population": 138009.0, "Lat": 22.55251, "Lon": 72.9552}], "Ananda": [{"Name": "Ananda", "Country Code": "CI", "Population": 3781.0, "Lat": 7.28333, "Lon": -4.26667}], "Anandnagar": [{"Name": "Anandnagar", "Country Code": "IN", "Population": 11220.0, "Lat": 27.10062, "Lon": 83.27156}], "Anandpur": [{"Name": "Anandpur", "Country Code": "IN", "Population": 15229.0, "Lat": 31.23926, "Lon": 76.50253}], "Anandravy": [{"Name": "Anandravy", "Country Code": "MG", "Population": 4000.0, "Lat": -22.9, "Lon": 47.36667}], "Ananea": [{"Name": "Ananea", "Country Code": "PE", "Population": 0.0, "Lat": -14.7, "Lon": -69.55}], "Ananguie": [{"Name": "Anangui\u00e9", "Country Code": "CI", "Population": 12979.0, "Lat": 6.22299, "Lon": -3.77333}], "Ananindeua": [{"Name": "Ananindeua", "Country Code": "BR", "Population": 433956.0, "Lat": -1.36556, "Lon": -48.37222}], "Anantapur": [{"Name": "Anantapur", "Country Code": "IN", "Population": 240442.0, "Lat": 14.67784, "Lon": 77.60813}], "Anantnag": [{"Name": "Anantnag", "Country Code": "IN", "Population": 79821.0, "Lat": 33.73068, "Lon": 75.15418}], "Ananyiv": [{"Name": "Ananyiv", "Country Code": "UA", "Population": 7789.0, "Lat": 47.71975, "Lon": 29.95711}], "Anao": [{"Name": "Anao", "Country Code": "PH", "Population": 0.0, "Lat": 15.7291, "Lon": 120.6253}, {"Name": "Anao", "Country Code": "PH", "Population": 4669.0, "Lat": 15.1415, "Lon": 120.69136}], "Anapa": [{"Name": "Anapa", "Country Code": "RU", "Population": 53600.0, "Lat": 44.89497, "Lon": 37.31623}], "Anapoima": [{"Name": "Anapoima", "Country Code": "CO", "Population": 4953.0, "Lat": 4.55099, "Lon": -74.53517}], "Anapolis": [{"Name": "An\u00e1polis", "Country Code": "BR", "Population": 319587.0, "Lat": -16.32667, "Lon": -48.95278}], "Anapskaya": [{"Name": "Anapskaya", "Country Code": "RU", "Population": 13965.0, "Lat": 44.89671, "Lon": 37.386}], "Anar": [{"Name": "An\u0101r", "Country Code": "IR", "Population": 0.0, "Lat": 30.87066, "Lon": 55.27025}], "Anar Darah": [{"Name": "An\u0101r Darah", "Country Code": "AF", "Population": 10023.0, "Lat": 32.7587, "Lon": 61.65397}], "Anarachi": [{"Name": "Anar\u00e1chi", "Country Code": "GR", "Population": 1147.0, "Lat": 40.49234, "Lon": 21.57279}], "Anarcs": [{"Name": "Anarcs", "Country Code": "HU", "Population": 2021.0, "Lat": 48.17642, "Lon": 22.11167}], "Anasco": [{"Name": "A\u00f1asco", "Country Code": "PR", "Population": 6136.0, "Lat": 18.28273, "Lon": -67.13962}], "Anastacio": [{"Name": "Anast\u00e1cio", "Country Code": "BR", "Population": 18817.0, "Lat": -20.48361, "Lon": -55.80694}], "Anastasiyevka": [{"Name": "Anastasiyevka", "Country Code": "RU", "Population": 1684.0, "Lat": 47.56072, "Lon": 38.52837}], "Anastasiyevskaya": [{"Name": "Anastasiyevskaya", "Country Code": "RU", "Population": 11204.0, "Lat": 45.21576, "Lon": 37.89258}], "Anat al Qadimah": [{"Name": "\u2018Anat al Qad\u012bmah", "Country Code": "IQ", "Population": 19719.0, "Lat": 34.46934, "Lon": 41.94223}], "Anata": [{"Name": "\u2018An\u0101t\u0101", "Country Code": "PS", "Population": 11946.0, "Lat": 31.80924, "Lon": 35.25902}], "Anatoli": [{"Name": "Anatol\u00ed", "Country Code": "GR", "Population": 9798.0, "Lat": 39.63531, "Lon": 20.86578}], "Anatoliko": [{"Name": "Anatolik\u00f3", "Country Code": "GR", "Population": 2589.0, "Lat": 40.66152, "Lon": 22.7119}], "Anatuya": [{"Name": "A\u00f1atuya", "Country Code": "AR", "Population": 20261.0, "Lat": -28.4602, "Lon": -62.83354}], "Anau": [{"Name": "Anau", "Country Code": "PF", "Population": 1412.0, "Lat": -16.50148, "Lon": -151.72135}], "Anavra": [{"Name": "An\u00e1vra", "Country Code": "GR", "Population": 1145.0, "Lat": 39.18996, "Lon": 22.09308}], "Anavyssos": [{"Name": "An\u00e1vyssos", "Country Code": "GR", "Population": 6202.0, "Lat": 37.73414, "Lon": 23.94389}], "Anaya": [{"Name": "Anaya", "Country Code": "ES", "Population": 137.0, "Lat": 40.99184, "Lon": -4.3095}], "Anaya de Alba": [{"Name": "Anaya de Alba", "Country Code": "ES", "Population": 277.0, "Lat": 40.72828, "Lon": -5.49266}], "Anayazi": [{"Name": "Anayaz\u0131", "Country Code": "TR", "Population": 2365.0, "Lat": 36.32107, "Lon": 36.19061}], "Anbu": [{"Name": "Anbu", "Country Code": "CN", "Population": 162964.0, "Lat": 23.44895, "Lon": 116.68092}], "Anbyon-up": [{"Name": "Anby\u014fn-\u016dp", "Country Code": "KP", "Population": 31845.0, "Lat": 39.0425, "Lon": 127.52389}], "Anca": [{"Name": "An\u00e7\u00e3", "Country Code": "PT", "Population": 2625.0, "Lat": 40.27161, "Lon": -8.5209}], "Ancahuasi": [{"Name": "Ancahuasi", "Country Code": "PE", "Population": 0.0, "Lat": -13.4425, "Lon": -72.31083}], "Ancarano": [{"Name": "Ancarano", "Country Code": "IT", "Population": 946.0, "Lat": 42.83767, "Lon": 13.74662}], "Ancaster": [{"Name": "Ancaster", "Country Code": "CA", "Population": 40557.0, "Lat": 43.21806, "Lon": -79.98716}, {"Name": "Ancaster", "Country Code": "GB", "Population": 1294.0, "Lat": 52.98276, "Lon": -0.53593}], "Ancasti": [{"Name": "Ancasti", "Country Code": "AR", "Population": 3082.0, "Lat": -28.81264, "Lon": -65.50069}], "Ancenis": [{"Name": "Ancenis", "Country Code": "FR", "Population": 7840.0, "Lat": 47.36667, "Lon": -1.16667}], "Ancerville": [{"Name": "Ancerville", "Country Code": "FR", "Population": 2771.0, "Lat": 48.63574, "Lon": 5.02091}], "Anchau": [{"Name": "Anchau", "Country Code": "NG", "Population": 15538.0, "Lat": 10.96245, "Lon": 8.39233}], "Anchione": [{"Name": "Anchione", "Country Code": "IT", "Population": 1223.0, "Lat": 43.82612, "Lon": 10.75844}], "Anchonga": [{"Name": "Anchonga", "Country Code": "PE", "Population": 280.0, "Lat": -12.88333, "Lon": -74.7}], "Anchor Point": [{"Name": "Anchor Point", "Country Code": "US", "Population": 1930.0, "Lat": 59.77667, "Lon": -151.83139}], "Anchorage": [{"Name": "Anchorage", "Country Code": "US", "Population": 2420.0, "Lat": 38.26674, "Lon": -85.53302}, {"Name": "Anchorage", "Country Code": "US", "Population": 291247.0, "Lat": 61.21806, "Lon": -149.90028}], "Anchovy": [{"Name": "Anchovy", "Country Code": "JM", "Population": 4161.0, "Lat": 18.4103, "Lon": -77.93166}], "Anchuelo": [{"Name": "Anchuelo", "Country Code": "ES", "Population": 540.0, "Lat": 40.46527, "Lon": -3.26838}], "Anchuras": [{"Name": "Anchuras", "Country Code": "ES", "Population": 0.0, "Lat": 39.48059, "Lon": -4.83381}], "Anci": [{"Name": "Anci", "Country Code": "CN", "Population": 0.0, "Lat": 39.4918, "Lon": 116.70358}], "Ancien-Prozi": [{"Name": "Ancien-Prozi", "Country Code": "CI", "Population": 31245.0, "Lat": 7.66885, "Lon": -6.96881}], "Ancient Oaks": [{"Name": "Ancient Oaks", "Country Code": "US", "Population": 6661.0, "Lat": 40.54732, "Lon": -75.58935}], "Ancin": [{"Name": "Anc\u00edn", "Country Code": "ES", "Population": 396.0, "Lat": 42.66047, "Lon": -2.18885}], "Ancon": [{"Name": "Anc\u00f3n", "Country Code": "PA", "Population": 20706.0, "Lat": 8.96015, "Lon": -79.5514}], "Ancona": [{"Name": "Ancona", "Country Code": "IT", "Population": 89994.0, "Lat": 43.5942, "Lon": 13.50337}], "Ancone": [{"Name": "Anc\u00f4ne", "Country Code": "FR", "Population": 1042.0, "Lat": 44.58107, "Lon": 4.72711}], "Ancroft": [{"Name": "Ancroft", "Country Code": "GB", "Population": 0.0, "Lat": 55.7, "Lon": -2.0}], "Ancud": [{"Name": "Ancud", "Country Code": "CL", "Population": 28020.0, "Lat": -41.8707, "Lon": -73.81622}], "Ancuya": [{"Name": "Ancuya", "Country Code": "CO", "Population": 5852.0, "Lat": 1.2633, "Lon": -77.51376}], "Ancy-le-Franc": [{"Name": "Ancy-le-Franc", "Country Code": "FR", "Population": 1089.0, "Lat": 47.77586, "Lon": 4.16361}], "Ancy-sur-Moselle": [{"Name": "Ancy-sur-Moselle", "Country Code": "FR", "Population": 1455.0, "Lat": 49.05689, "Lon": 6.05775}], "Anda": [{"Name": "Anda", "Country Code": "CN", "Population": 181271.0, "Lat": 46.44867, "Lon": 125.30161}, {"Name": "Anda", "Country Code": "PH", "Population": 0.0, "Lat": 9.746, "Lon": 124.5767}, {"Name": "Anda", "Country Code": "PH", "Population": 3160.0, "Lat": 16.2892, "Lon": 119.95}], "Andac": [{"Name": "Anda\u00e7", "Country Code": "TR", "Population": 2165.0, "Lat": 37.35537, "Lon": 43.26243}], "Andacollo": [{"Name": "Andacollo", "Country Code": "AR", "Population": 2627.0, "Lat": -37.17974, "Lon": -70.66996}], "Andahuaylas": [{"Name": "Andahuaylas", "Country Code": "PE", "Population": 17444.0, "Lat": -13.65556, "Lon": -73.38722}], "Andahuaylillas": [{"Name": "Andahuaylillas", "Country Code": "PE", "Population": 0.0, "Lat": -13.6725, "Lon": -71.67944}], "Andajes": [{"Name": "Andajes", "Country Code": "PE", "Population": 621.0, "Lat": -10.79254, "Lon": -76.90888}], "Andalan": [{"Name": "Andalan", "Country Code": "PH", "Population": 2644.0, "Lat": 5.95944, "Lon": 121.39028}], "Andalen": [{"Name": "Andalen", "Country Code": "SE", "Population": 1897.0, "Lat": 57.70039, "Lon": 11.76136}], "Andalgala": [{"Name": "Andalgal\u00e1", "Country Code": "AR", "Population": 14068.0, "Lat": -27.58185, "Lon": -66.31626}], "Andali": [{"Name": "Andali", "Country Code": "IT", "Population": 754.0, "Lat": 39.01281, "Lon": 16.76926}], "Andalo": [{"Name": "Andalo", "Country Code": "IT", "Population": 1005.0, "Lat": 46.16649, "Lon": 11.00432}], "Andalo Valtellino": [{"Name": "Andalo Valtellino", "Country Code": "IT", "Population": 552.0, "Lat": 46.13599, "Lon": 9.47384}], "Andalsnes": [{"Name": "\u00c5ndalsnes", "Country Code": "NO", "Population": 2403.0, "Lat": 62.56749, "Lon": 7.68709}], "Andalucia": [{"Name": "Andaluc\u00eda", "Country Code": "CO", "Population": 18132.0, "Lat": 4.17061, "Lon": -76.16641}], "Andalusia": [{"Name": "Andalusia", "Country Code": "US", "Population": 1182.0, "Lat": 41.4392, "Lon": -90.71764}, {"Name": "Andalusia", "Country Code": "US", "Population": 9063.0, "Lat": 31.30808, "Lon": -86.48243}], "Andamarca": [{"Name": "Andamarca", "Country Code": "BO", "Population": 0.0, "Lat": -18.77934, "Lon": -67.50753}, {"Name": "Andamarca", "Country Code": "PE", "Population": 0.0, "Lat": -14.38722, "Lon": -73.96083}, {"Name": "Andamarca", "Country Code": "PE", "Population": 395.0, "Lat": -11.73194, "Lon": -74.80278}], "Andance": [{"Name": "Andance", "Country Code": "FR", "Population": 1036.0, "Lat": 45.24059, "Lon": 4.79916}], "Andancette": [{"Name": "Andancette", "Country Code": "FR", "Population": 1229.0, "Lat": 45.24858, "Lon": 4.8086}], "Andapa": [{"Name": "Andapa", "Country Code": "MG", "Population": 36660.0, "Lat": -14.65, "Lon": 49.65}], "Andarak": [{"Name": "Andarak", "Country Code": "KG", "Population": 8001.0, "Lat": 39.76849, "Lon": 69.46398}], "Andarapa": [{"Name": "Andarapa", "Country Code": "PE", "Population": 427.0, "Lat": -13.52611, "Lon": -73.36611}], "Andaray": [{"Name": "Andaray", "Country Code": "PE", "Population": 351.0, "Lat": -15.79667, "Lon": -72.86056}], "Andard": [{"Name": "Andard", "Country Code": "FR", "Population": 2302.0, "Lat": 47.45659, "Lon": -0.39752}], "Andau": [{"Name": "Andau", "Country Code": "AT", "Population": 2285.0, "Lat": 47.77441, "Lon": 17.03293}], "Ande": [{"Name": "And\u00e9", "Country Code": "CI", "Population": 16341.0, "Lat": 6.78176, "Lon": -4.08517}, {"Name": "And\u00e9", "Country Code": "CI", "Population": 3104.0, "Lat": 6.04172, "Lon": -3.95376}, {"Name": "And\u00e9", "Country Code": "FR", "Population": 1043.0, "Lat": 49.23163, "Lon": 1.24088}], "Andechs": [{"Name": "Andechs", "Country Code": "DE", "Population": 3181.0, "Lat": 47.97464, "Lon": 11.18279}], "Andel": [{"Name": "Andel", "Country Code": "NL", "Population": 2535.0, "Lat": 51.78333, "Lon": 5.05833}], "Andelfingen": [{"Name": "Andelfingen", "Country Code": "CH", "Population": 1328.0, "Lat": 47.59447, "Lon": 8.67826}], "Andelnans": [{"Name": "Andelnans", "Country Code": "FR", "Population": 1250.0, "Lat": 47.60267, "Lon": 6.86621}], "Andelsbuch": [{"Name": "Andelsbuch", "Country Code": "AT", "Population": 2565.0, "Lat": 47.41167, "Lon": 9.89326}], "Andelst": [{"Name": "Andelst", "Country Code": "NL", "Population": 2990.0, "Lat": 51.90833, "Lon": 5.72917}], "Andenes": [{"Name": "Andenes", "Country Code": "NO", "Population": 2694.0, "Lat": 69.31428, "Lon": 16.11939}], "Andenne": [{"Name": "Andenne", "Country Code": "BE", "Population": 24055.0, "Lat": 50.48941, "Lon": 5.09513}], "Andergrove": [{"Name": "Andergrove", "Country Code": "AU", "Population": 9097.0, "Lat": -21.08333, "Lon": 149.18333}], "Anderlecht": [{"Name": "Anderlecht", "Country Code": "BE", "Population": 160553.0, "Lat": 50.83619, "Lon": 4.31454}], "Anderlues": [{"Name": "Anderlues", "Country Code": "BE", "Population": 11597.0, "Lat": 50.40704, "Lon": 4.27136}], "Andermatt": [{"Name": "Andermatt", "Country Code": "CH", "Population": 1258.0, "Lat": 46.63565, "Lon": 8.59388}], "Andernach": [{"Name": "Andernach", "Country Code": "DE", "Population": 29599.0, "Lat": 50.43109, "Lon": 7.40425}], "Andernos-les-Bains": [{"Name": "Andernos-les-Bains", "Country Code": "FR", "Population": 10236.0, "Lat": 44.74572, "Lon": -1.10355}], "Andersloev": [{"Name": "Andersl\u00f6v", "Country Code": "SE", "Population": 1963.0, "Lat": 55.43836, "Lon": 13.31966}], "Anderson": [{"Name": "Anderson", "Country Code": "US", "Population": 10217.0, "Lat": 40.44821, "Lon": -122.29778}, {"Name": "Anderson", "Country Code": "US", "Population": 55305.0, "Lat": 40.10532, "Lon": -85.68025}, {"Name": "Anderson", "Country Code": "US", "Population": 229.0, "Lat": 30.48715, "Lon": -95.9869}, {"Name": "Anderson", "Country Code": "US", "Population": 1982.0, "Lat": 36.65063, "Lon": -94.44355}, {"Name": "Anderson", "Country Code": "US", "Population": 27335.0, "Lat": 34.50344, "Lon": -82.65013}], "Anderson Mill": [{"Name": "Anderson Mill", "Country Code": "US", "Population": 8744.0, "Lat": 30.45492, "Lon": -97.80584}], "Andersons Bay": [{"Name": "Andersons Bay", "Country Code": "NZ", "Population": 2470.0, "Lat": -45.88838, "Lon": 170.5201}], "Anderstorp": [{"Name": "Anderstorp", "Country Code": "SE", "Population": 4987.0, "Lat": 58.88333, "Lon": 14.28333}, {"Name": "Anderstorp", "Country Code": "SE", "Population": 5076.0, "Lat": 57.28333, "Lon": 13.63333}], "Andes": [{"Name": "Andes", "Country Code": "CO", "Population": 16419.0, "Lat": 5.6561, "Lon": -75.87877}], "Andeville": [{"Name": "Andeville", "Country Code": "FR", "Population": 3113.0, "Lat": 49.26078, "Lon": 2.16427}], "Andezeno": [{"Name": "Andezeno", "Country Code": "IT", "Population": 1744.0, "Lat": 45.03376, "Lon": 7.86607}], "Andi": [{"Name": "Andi", "Country Code": "RU", "Population": 5318.0, "Lat": 42.78359, "Lon": 46.26171}], "Andianou": [{"Name": "Andianou", "Country Code": "CI", "Population": 1145.0, "Lat": 7.02067, "Lon": -4.47278}], "Andijon": [{"Name": "Andijon", "Country Code": "UZ", "Population": 447800.0, "Lat": 40.78206, "Lon": 72.34424}], "Andilamena": [{"Name": "Andilamena", "Country Code": "MG", "Population": 39428.0, "Lat": -17.01009, "Lon": 48.57313}], "Andili": [{"Name": "Andili", "Country Code": "PH", "Population": 4400.0, "Lat": 7.462, "Lon": 125.9701}], "Andilla": [{"Name": "Andilla", "Country Code": "ES", "Population": 384.0, "Lat": 39.83333, "Lon": -0.8}], "Andilly": [{"Name": "Andilly", "Country Code": "FR", "Population": 2138.0, "Lat": 49.00935, "Lon": 2.3024}, {"Name": "Andilly", "Country Code": "FR", "Population": 1838.0, "Lat": 46.2533, "Lon": -1.02736}], "Andimeshk": [{"Name": "And\u012bmeshk", "Country Code": "IR", "Population": 0.0, "Lat": 32.4615, "Lon": 48.35368}], "Andippatti": [{"Name": "\u0100ndippatti", "Country Code": "IN", "Population": 24448.0, "Lat": 9.99797, "Lon": 77.62097}], "Andirin": [{"Name": "And\u0131r\u0131n", "Country Code": "TR", "Population": 8660.0, "Lat": 37.57757, "Lon": 36.35492}], "Andkhoy": [{"Name": "Andkh\u014dy", "Country Code": "AF", "Population": 29208.0, "Lat": 36.95293, "Lon": 65.12376}], "Andlau": [{"Name": "Andlau", "Country Code": "FR", "Population": 1819.0, "Lat": 48.38607, "Lon": 7.41697}], "Andlersdorf": [{"Name": "Andlersdorf", "Country Code": "AT", "Population": 137.0, "Lat": 48.18333, "Lon": 16.66667}], "Ando-Zume": [{"Name": "Ando-Zum\u00e9", "Country Code": "CI", "Population": 1501.0, "Lat": 7.27319, "Lon": -5.3474}], "Andoain": [{"Name": "Andoain", "Country Code": "ES", "Population": 14679.0, "Lat": 43.21658, "Lon": -2.0253}], "Andobo": [{"Name": "Andobo", "Country Code": "CI", "Population": 1463.0, "Lat": 7.40299, "Lon": -5.29987}], "Andol": [{"Name": "Andol", "Country Code": "IN", "Population": 24645.0, "Lat": 17.81458, "Lon": 78.07713}], "Andolsheim": [{"Name": "Andolsheim", "Country Code": "FR", "Population": 2107.0, "Lat": 48.06179, "Lon": 7.41637}], "Andong": [{"Name": "Andong", "Country Code": "KR", "Population": 158765.0, "Lat": 36.56636, "Lon": 128.72275}], "Andongwei": [{"Name": "Andongwei", "Country Code": "CN", "Population": 0.0, "Lat": 35.1294, "Lon": 119.276}], "Andoolo": [{"Name": "Andoolo", "Country Code": "ID", "Population": 0.0, "Lat": -4.3273, "Lon": 122.2522}], "Andop": [{"Name": "Andop", "Country Code": "PH", "Population": 9095.0, "Lat": 7.86111, "Lon": 125.75389}], "Andora": [{"Name": "Andora", "Country Code": "IT", "Population": 6767.0, "Lat": 43.95514, "Lon": 8.14121}], "Andorf": [{"Name": "Andorf", "Country Code": "AT", "Population": 2851.0, "Lat": 48.3713, "Lon": 13.57412}], "Andornaktalya": [{"Name": "Andornakt\u00e1lya", "Country Code": "HU", "Population": 2604.0, "Lat": 47.85, "Lon": 20.41667}], "Andorno Cacciorna": [{"Name": "Andorno Cacciorna", "Country Code": "IT", "Population": 3024.0, "Lat": 45.61054, "Lon": 8.05589}], "Andorra": [{"Name": "Andorra", "Country Code": "ES", "Population": 7890.0, "Lat": 40.97655, "Lon": -0.44721}], "Andorra la Vella": [{"Name": "Andorra la Vella", "Country Code": "AD", "Population": 20430.0, "Lat": 42.50779, "Lon": 1.52109}], "Andosilla": [{"Name": "Andosilla", "Country Code": "ES", "Population": 0.0, "Lat": 42.37729, "Lon": -1.94267}, {"Name": "Andosilla", "Country Code": "ES", "Population": 2715.0, "Lat": 42.38144, "Lon": -1.67305}], "Andou Mbatto": [{"Name": "Andou Mbatto", "Country Code": "CI", "Population": 2596.0, "Lat": 5.40489, "Lon": -3.657}], "Andoufoue": [{"Name": "Andoufou\u00e9", "Country Code": "CI", "Population": 1450.0, "Lat": 7.38172, "Lon": -5.23963}], "Andouille": [{"Name": "Andouill\u00e9", "Country Code": "FR", "Population": 2177.0, "Lat": 48.17686, "Lon": -0.78434}], "Andoung Meas": [{"Name": "Andoung Meas", "Country Code": "KH", "Population": 0.0, "Lat": 13.86724, "Lon": 107.29682}], "Andover": [{"Name": "Andover", "Country Code": "GB", "Population": 42276.0, "Lat": 51.21135, "Lon": -1.49393}, {"Name": "Andover", "Country Code": "US", "Population": 1008.0, "Lat": 42.15646, "Lon": -77.79555}, {"Name": "Andover", "Country Code": "US", "Population": 9877.0, "Lat": 25.96843, "Lon": -80.21283}, {"Name": "Andover", "Country Code": "US", "Population": 12745.0, "Lat": 37.7139, "Lon": -97.13643}, {"Name": "Andover", "Country Code": "US", "Population": 1119.0, "Lat": 41.60672, "Lon": -80.5723}, {"Name": "Andover", "Country Code": "US", "Population": 32213.0, "Lat": 45.2333, "Lon": -93.29134}, {"Name": "Andover", "Country Code": "US", "Population": 2246.0, "Lat": 43.43702, "Lon": -71.82341}, {"Name": "Andover", "Country Code": "US", "Population": 8762.0, "Lat": 42.65843, "Lon": -71.137}], "Andovoranto": [{"Name": "Andovoranto", "Country Code": "MG", "Population": 10429.0, "Lat": -18.95443, "Lon": 49.1094}], "Andra": [{"Name": "Andra", "Country Code": "RU", "Population": 2013.0, "Lat": 62.51472, "Lon": 65.88778}], "Andradas": [{"Name": "Andradas", "Country Code": "BR", "Population": 26772.0, "Lat": -22.06806, "Lon": -46.56917}], "Andradina": [{"Name": "Andradina", "Country Code": "BR", "Population": 52406.0, "Lat": -20.89611, "Lon": -51.37944}], "Andramasina": [{"Name": "Andramasina", "Country Code": "MG", "Population": 0.0, "Lat": -19.18785, "Lon": 47.59016}], "Andrano": [{"Name": "Andrano", "Country Code": "IT", "Population": 3339.0, "Lat": 39.98546, "Lon": 18.38232}], "Andrasesti": [{"Name": "Andr\u0103\u015fe\u015fti", "Country Code": "RO", "Population": 2272.0, "Lat": 44.56667, "Lon": 27.13333}], "Andrate": [{"Name": "Andrate", "Country Code": "IT", "Population": 388.0, "Lat": 45.52633, "Lon": 7.88145}], "Andratx": [{"Name": "Andratx", "Country Code": "ES", "Population": 11685.0, "Lat": 39.57553, "Lon": 2.42017}], "Andravida": [{"Name": "Andrav\u00edda", "Country Code": "GR", "Population": 3626.0, "Lat": 37.90588, "Lon": 21.26936}], "Andreapol'": [{"Name": "Andreapol\u2019", "Country Code": "RU", "Population": 9209.0, "Lat": 56.65087, "Lon": 32.264}], "Andreas": [{"Name": "Andreas", "Country Code": "IM", "Population": 0.0, "Lat": 54.36667, "Lon": -4.43333}], "Andreesti": [{"Name": "Andree\u0219ti", "Country Code": "RO", "Population": 972.0, "Lat": 44.78948, "Lon": 23.55099}], "Andrei Saguna": [{"Name": "Andrei \u0218aguna", "Country Code": "RO", "Population": 1824.0, "Lat": 46.2881, "Lon": 21.39175}], "Andreiasu de Jos": [{"Name": "Andreia\u015fu de Jos", "Country Code": "RO", "Population": 2000.0, "Lat": 45.75, "Lon": 26.83333}], "Andreis": [{"Name": "Andreis", "Country Code": "IT", "Population": 201.0, "Lat": 46.20146, "Lon": 12.61448}], "Andrelandia": [{"Name": "Andrel\u00e2ndia", "Country Code": "BR", "Population": 10079.0, "Lat": -21.73972, "Lon": -44.30917}], "Andreotta": [{"Name": "Andreotta", "Country Code": "IT", "Population": 6763.0, "Lat": 39.3075, "Lon": 16.2177}], "Andres": [{"Name": "Andres", "Country Code": "FR", "Population": 1476.0, "Lat": 50.86556, "Lon": 1.92094}], "Andres Bonifacio": [{"Name": "Andres Bonifacio", "Country Code": "PH", "Population": 6494.0, "Lat": 10.91667, "Lon": 123.25}], "Andres Quintana Roo": [{"Name": "Andr\u00e9s Quintana Roo", "Country Code": "MX", "Population": 1066.0, "Lat": 17.70771, "Lon": -93.01077}], "Andrespol": [{"Name": "Andrespol", "Country Code": "PL", "Population": 3773.0, "Lat": 51.72783, "Lon": 19.64175}], "Andrest": [{"Name": "Andrest", "Country Code": "FR", "Population": 1284.0, "Lat": 43.31683, "Lon": 0.0612}], "Andresy": [{"Name": "Andr\u00e9sy", "Country Code": "FR", "Population": 12929.0, "Lat": 48.98235, "Lon": 2.05687}], "Andretta-Mattinella": [{"Name": "Andretta-Mattinella", "Country Code": "IT", "Population": 1435.0, "Lat": 40.93742, "Lon": 15.32485}], "Andrews": [{"Name": "Andrews", "Country Code": "US", "Population": 13816.0, "Lat": 32.31872, "Lon": -102.54572}, {"Name": "Andrews", "Country Code": "US", "Population": 2888.0, "Lat": 33.45128, "Lon": -79.5609}, {"Name": "Andrews", "Country Code": "US", "Population": 1752.0, "Lat": 35.20175, "Lon": -83.82407}, {"Name": "Andrews", "Country Code": "US", "Population": 1133.0, "Lat": 40.86254, "Lon": -85.60165}], "Andrews AFB": [{"Name": "Andrews AFB", "Country Code": "US", "Population": 2973.0, "Lat": 38.80531, "Lon": -76.8746}], "Andrews Farm": [{"Name": "Andrews Farm", "Country Code": "AU", "Population": 7957.0, "Lat": -34.67632, "Lon": 138.66197}], "Andreyevka": [{"Name": "Andreyevka", "Country Code": "RU", "Population": 8395.0, "Lat": 55.98028, "Lon": 37.135}, {"Name": "Andreyevka", "Country Code": "UA", "Population": 1498.0, "Lat": 44.81663, "Lon": 33.56313}], "Andreyevo": [{"Name": "Andreyevo", "Country Code": "RU", "Population": 5204.0, "Lat": 55.9465, "Lon": 41.1505}], "Andreyevskoye": [{"Name": "Andreyevskoye", "Country Code": "RU", "Population": 20000.0, "Lat": 55.55487, "Lon": 37.92566}], "Andreze": [{"Name": "Andrez\u00e9", "Country Code": "FR", "Population": 1905.0, "Lat": 47.17155, "Lon": -0.95239}], "Andrezieux-Boutheon": [{"Name": "Andr\u00e9zieux-Bouth\u00e9on", "Country Code": "FR", "Population": 9452.0, "Lat": 45.52625, "Lon": 4.26021}], "Andria": [{"Name": "Andria", "Country Code": "IT", "Population": 99784.0, "Lat": 41.23117, "Lon": 16.29797}], "Andriano": [{"Name": "Andriano", "Country Code": "IT", "Population": 916.0, "Lat": 46.51762, "Lon": 11.23137}], "Andrid": [{"Name": "Andrid", "Country Code": "RO", "Population": 2627.0, "Lat": 47.51667, "Lon": 22.35}], "Andrieseni": [{"Name": "Andrie\u015feni", "Country Code": "RO", "Population": 4501.0, "Lat": 47.53333, "Lon": 27.28333}], "Andriivka": [{"Name": "Andriivka", "Country Code": "UA", "Population": 1203.0, "Lat": 46.22099, "Lon": 30.08481}], "Andrijasevci": [{"Name": "Andrija\u0161evci", "Country Code": "HR", "Population": 1749.0, "Lat": 45.22472, "Lon": 18.73806}], "Andrijevica": [{"Name": "Andrijevica", "Country Code": "ME", "Population": 1073.0, "Lat": 42.73389, "Lon": 19.79194}], "Andrimont": [{"Name": "Andrimont", "Country Code": "BE", "Population": 7064.0, "Lat": 50.61298, "Lon": 5.88294}], "Andritz": [{"Name": "Andritz", "Country Code": "AT", "Population": 19020.0, "Lat": 47.11387, "Lon": 15.42348}], "Andriyevo-Ivanivka": [{"Name": "Andriyevo-Ivanivka", "Country Code": "UA", "Population": 1692.0, "Lat": 47.50322, "Lon": 30.46247}], "Andriyivka": [{"Name": "Andriyivka", "Country Code": "UA", "Population": 2755.0, "Lat": 47.09351, "Lon": 36.58949}], "Andros": [{"Name": "Andros", "Country Code": "GR", "Population": 1428.0, "Lat": 37.8367, "Lon": 24.9367}], "Andros Town": [{"Name": "Andros Town", "Country Code": "BS", "Population": 2455.0, "Lat": 24.70502, "Lon": -77.76912}], "Andrott": [{"Name": "Andrott", "Country Code": "IN", "Population": 11191.0, "Lat": 10.81186, "Lon": 73.67408}], "Andrushivka": [{"Name": "Andrushivka", "Country Code": "UA", "Population": 8458.0, "Lat": 50.02288, "Lon": 29.02023}], "Andrushky": [{"Name": "Andrushky", "Country Code": "UA", "Population": 0.0, "Lat": 49.88195, "Lon": 29.34349}], "Andrychow": [{"Name": "Andrych\u00f3w", "Country Code": "PL", "Population": 21954.0, "Lat": 49.85497, "Lon": 19.33834}], "Anduins": [{"Name": "Anduins", "Country Code": "IT", "Population": 229.0, "Lat": 46.23311, "Lon": 12.95829}], "Andujar": [{"Name": "And\u00fajar", "Country Code": "ES", "Population": 39111.0, "Lat": 38.03922, "Lon": -4.05077}], "Andulo": [{"Name": "Andulo", "Country Code": "AO", "Population": 50000.0, "Lat": -11.48676, "Lon": 16.69663}], "Anduze": [{"Name": "Anduze", "Country Code": "FR", "Population": 3295.0, "Lat": 44.055, "Lon": 3.98495}], "Andwil": [{"Name": "Andwil", "Country Code": "CH", "Population": 1737.0, "Lat": 47.43855, "Lon": 9.27436}], "Andzhiyevskiy": [{"Name": "Andzhiyevskiy", "Country Code": "RU", "Population": 6755.0, "Lat": 44.23889, "Lon": 43.08556}], "Ane": [{"Name": "A\u00f1e", "Country Code": "ES", "Population": 124.0, "Lat": 41.03702, "Lon": -4.29462}], "Aneby": [{"Name": "\u00c5neby", "Country Code": "NO", "Population": 1373.0, "Lat": 60.08926, "Lon": 10.86998}, {"Name": "Aneby", "Country Code": "SE", "Population": 3496.0, "Lat": 57.83895, "Lon": 14.81016}], "Aneho": [{"Name": "An\u00e9ho", "Country Code": "TG", "Population": 47579.0, "Lat": 6.22798, "Lon": 1.5919}], "Anekal": [{"Name": "Anekal", "Country Code": "IN", "Population": 36693.0, "Lat": 12.7111, "Lon": 77.69557}], "Anekouadiokro": [{"Name": "An\u00e9kouadiokro", "Country Code": "CI", "Population": 2972.0, "Lat": 6.6415, "Lon": -3.71434}], "Anela": [{"Name": "Anela", "Country Code": "IT", "Population": 652.0, "Lat": 40.44176, "Lon": 9.05743}], "Anelo": [{"Name": "A\u00f1elo", "Country Code": "AR", "Population": 1742.0, "Lat": -38.35426, "Lon": -68.78754}], "Anenecuilco": [{"Name": "Anenecuilco", "Country Code": "MX", "Population": 10773.0, "Lat": 18.77738, "Lon": -98.98907}], "Anenii Noi": [{"Name": "Anenii Noi", "Country Code": "MD", "Population": 8250.0, "Lat": 46.87839, "Lon": 29.23483}], "Anento": [{"Name": "Anento", "Country Code": "ES", "Population": 200.0, "Lat": 41.06958, "Lon": -1.33375}], "Anergui": [{"Name": "Anergui", "Country Code": "MA", "Population": 0.0, "Lat": 32.06914, "Lon": -5.93961}], "Anet": [{"Name": "Anet", "Country Code": "FR", "Population": 2833.0, "Lat": 48.85642, "Lon": 1.43981}], "Anetz": [{"Name": "Anetz", "Country Code": "FR", "Population": 1468.0, "Lat": 47.38059, "Lon": -1.10583}], "Anew": [{"Name": "\u00c4new", "Country Code": "TM", "Population": 27526.0, "Lat": 37.88754, "Lon": 58.51596}], "Aneykro": [{"Name": "Aneykro", "Country Code": "CI", "Population": 2243.0, "Lat": 6.21718, "Lon": -3.31038}], "Aneza": [{"Name": "An\u00e9za", "Country Code": "GR", "Population": 1111.0, "Lat": 39.08658, "Lon": 20.923}], "Anfo": [{"Name": "Anfo", "Country Code": "IT", "Population": 390.0, "Lat": 45.76575, "Lon": 10.49382}], "Anfu": [{"Name": "Anfu", "Country Code": "CN", "Population": 32146.0, "Lat": 34.97278, "Lon": 105.63028}, {"Name": "Anfu", "Country Code": "CN", "Population": 40268.0, "Lat": 29.35937, "Lon": 105.46742}], "Ang Thong": [{"Name": "Ang Thong", "Country Code": "TH", "Population": 13738.0, "Lat": 14.58839, "Lon": 100.45283}], "Ang'angxi": [{"Name": "Ang\u2019angxi", "Country Code": "CN", "Population": 0.0, "Lat": 47.15686, "Lon": 123.80643}], "Anga": [{"Name": "Anga", "Country Code": "CI", "Population": 1260.0, "Lat": 5.2147, "Lon": -3.28774}], "Angad": [{"Name": "Angad", "Country Code": "PH", "Population": 2223.0, "Lat": 17.5849, "Lon": 120.6257}], "Angadanan": [{"Name": "Angadanan", "Country Code": "PH", "Population": 4487.0, "Lat": 16.75526, "Lon": 121.74834}], "Angagui": [{"Name": "Angagui", "Country Code": "CI", "Population": 6186.0, "Lat": 5.94737, "Lon": -6.81144}], "Angahuan": [{"Name": "Angahu\u00e1n", "Country Code": "MX", "Population": 5773.0, "Lat": 19.5479, "Lon": -102.22563}], "Angamacutiro de la Union": [{"Name": "Angamacutiro de la Uni\u00f3n", "Country Code": "MX", "Population": 5030.0, "Lat": 20.14998, "Lon": -101.71113}], "Angamali": [{"Name": "Angam\u0101li", "Country Code": "IN", "Population": 34399.0, "Lat": 10.19055, "Lon": 76.38789}], "Angamankro": [{"Name": "Angamankro", "Country Code": "CI", "Population": 1266.0, "Lat": 7.49831, "Lon": -5.1747}], "Angan": [{"Name": "Angan", "Country Code": "ID", "Population": 0.0, "Lat": 5.60572, "Lon": 95.39144}], "Angan-Konankro": [{"Name": "Angan-Konankro", "Country Code": "CI", "Population": 1081.0, "Lat": 6.77765, "Lon": -4.89092}], "Angara-Debou": [{"Name": "Angara-D\u00e9bou", "Country Code": "BJ", "Population": 0.0, "Lat": 11.32454, "Lon": 3.05886}], "Angarsk": [{"Name": "Angarsk", "Country Code": "RU", "Population": 243158.0, "Lat": 52.53667, "Lon": 103.88639}], "Angasmarca": [{"Name": "Angasmarca", "Country Code": "PE", "Population": 0.0, "Lat": -8.13333, "Lon": -78.06667}], "Angaston": [{"Name": "Angaston", "Country Code": "AU", "Population": 2058.0, "Lat": -34.50129, "Lon": 139.04625}], "Angat": [{"Name": "Angat", "Country Code": "PH", "Population": 41235.0, "Lat": 14.9285, "Lon": 121.03}], "Angatel": [{"Name": "Angatel", "Country Code": "PH", "Population": 2359.0, "Lat": 15.80589, "Lon": 120.34326}], "Angath": [{"Name": "Angath", "Country Code": "AT", "Population": 1008.0, "Lat": 47.50758, "Lon": 12.06513}], "Angatuba": [{"Name": "Angatuba", "Country Code": "BR", "Population": 14476.0, "Lat": -23.48972, "Lon": -48.41278}], "Angaur State": [{"Name": "Angaur State", "Country Code": "PW", "Population": 188.0, "Lat": 6.90601, "Lon": 134.12997}], "Angaye": [{"Name": "Angaye", "Country Code": "CI", "Population": 1160.0, "Lat": 9.59027, "Lon": -3.2891}], "Angbavia": [{"Name": "Angbavia", "Country Code": "CI", "Population": 1355.0, "Lat": 6.38643, "Lon": -5.01624}], "Angboudjou": [{"Name": "Angboudjou", "Country Code": "CI", "Population": 1322.0, "Lat": 5.15408, "Lon": -3.20718}], "Ange": [{"Name": "\u00c5nge", "Country Code": "SE", "Population": 2889.0, "Lat": 62.52495, "Lon": 15.65904}], "Ange-Gardien": [{"Name": "Ange-Gardien", "Country Code": "CA", "Population": 2420.0, "Lat": 45.35008, "Lon": -72.93244}], "Angeghakot'": [{"Name": "Angeghakot\u2019", "Country Code": "AM", "Population": 1726.0, "Lat": 39.56952, "Lon": 45.94452}], "Angel Albino Corzo (Guadalupe)": [{"Name": "\u00c1ngel Albino Corzo (Guadalupe)", "Country Code": "MX", "Population": 1469.0, "Lat": 17.12639, "Lon": -93.275}], "Angel Fire": [{"Name": "Angel Fire", "Country Code": "US", "Population": 1122.0, "Lat": 36.39309, "Lon": -105.28501}], "Angel R. Cabada": [{"Name": "\u00c1ngel R. Cabada", "Country Code": "MX", "Population": 12033.0, "Lat": 18.59601, "Lon": -95.4458}], "Angeles": [{"Name": "\u00c1ngeles", "Country Code": "CR", "Population": 1355.0, "Lat": 9.98863, "Lon": -84.05922}], "Angeles City": [{"Name": "Angeles City", "Country Code": "PH", "Population": 299391.0, "Lat": 15.15, "Lon": 120.58333}], "Angelochori": [{"Name": "Angeloch\u00f3ri", "Country Code": "GR", "Population": 1178.0, "Lat": 40.49717, "Lon": 22.8344}, {"Name": "Angeloch\u00f3ri", "Country Code": "GR", "Population": 1526.0, "Lat": 40.67862, "Lon": 22.19933}], "Angelokastro": [{"Name": "Angel\u00f3kastro", "Country Code": "GR", "Population": 1220.0, "Lat": 38.56585, "Lon": 21.29631}], "Angelopolis": [{"Name": "Angel\u00f3polis", "Country Code": "CO", "Population": 1917.0, "Lat": 6.11072, "Lon": -75.70923}], "Angels Camp": [{"Name": "Angels Camp", "Country Code": "US", "Population": 2677.0, "Lat": 38.06826, "Lon": -120.53965}], "Angelslo": [{"Name": "Angelslo", "Country Code": "NL", "Population": 7840.0, "Lat": 52.7809, "Lon": 6.92645}], "Anger": [{"Name": "Anger", "Country Code": "AT", "Population": 1380.0, "Lat": 47.15593, "Lon": 13.10592}, {"Name": "Anger", "Country Code": "AT", "Population": 854.0, "Lat": 47.27422, "Lon": 15.69139}], "Angera": [{"Name": "Angera", "Country Code": "IT", "Population": 4724.0, "Lat": 45.77555, "Lon": 8.57861}], "Angerberg": [{"Name": "Angerberg", "Country Code": "AT", "Population": 1225.0, "Lat": 47.50672, "Lon": 12.04033}], "Angered": [{"Name": "Angered", "Country Code": "SE", "Population": 1062.0, "Lat": 57.78628, "Lon": 12.09852}], "Angeren": [{"Name": "Angeren", "Country Code": "NL", "Population": 2275.0, "Lat": 51.91583, "Lon": 5.95833}], "Angerlo": [{"Name": "Angerlo", "Country Code": "NL", "Population": 1130.0, "Lat": 51.99583, "Lon": 6.13472}], "Angermuende": [{"Name": "Angerm\u00fcnde", "Country Code": "DE", "Population": 15453.0, "Lat": 53.01499, "Lon": 13.99924}], "Angern": [{"Name": "Angern", "Country Code": "DE", "Population": 1380.0, "Lat": 52.35, "Lon": 11.73333}], "Angern an der March": [{"Name": "Angern an der March", "Country Code": "AT", "Population": 1418.0, "Lat": 48.37778, "Lon": 16.82806}], "Angers": [{"Name": "Angers", "Country Code": "FR", "Population": 168279.0, "Lat": 47.47156, "Lon": -0.55202}], "Angersdorf": [{"Name": "Angersdorf", "Country Code": "DE", "Population": 1237.0, "Lat": 51.46025, "Lon": 11.90705}], "Angerville": [{"Name": "Angerville", "Country Code": "FR", "Population": 3457.0, "Lat": 48.31354, "Lon": 1.99935}], "Angerville-l'Orcher": [{"Name": "Angerville-l'Orcher", "Country Code": "FR", "Population": 1451.0, "Lat": 49.58833, "Lon": 0.28191}], "Angervilliers": [{"Name": "Angervilliers", "Country Code": "FR", "Population": 1458.0, "Lat": 48.59263, "Lon": 2.06541}], "Angevillers": [{"Name": "Angevillers", "Country Code": "FR", "Population": 1227.0, "Lat": 49.38815, "Lon": 6.0443}], "Anggana": [{"Name": "Anggana", "Country Code": "ID", "Population": 0.0, "Lat": -0.5705, "Lon": 117.2844}], "Anghelesti": [{"Name": "Anghele\u0219ti", "Country Code": "RO", "Population": 1249.0, "Lat": 46.07875, "Lon": 27.06459}], "Anghiari": [{"Name": "Anghiari", "Country Code": "IT", "Population": 2784.0, "Lat": 43.54104, "Lon": 12.05832}], "Angiari": [{"Name": "Angiari", "Country Code": "IT", "Population": 1565.0, "Lat": 45.22318, "Lon": 11.2768}], "Angicos": [{"Name": "Angicos", "Country Code": "BR", "Population": 7728.0, "Lat": -5.66556, "Lon": -36.60111}], "Angicourt": [{"Name": "Angicourt", "Country Code": "FR", "Population": 1601.0, "Lat": 49.31175, "Lon": 2.50419}], "Angier": [{"Name": "Angier", "Country Code": "US", "Population": 4970.0, "Lat": 35.5071, "Lon": -78.73918}], "Angkimang": [{"Name": "Angkimang", "Country Code": "ID", "Population": 0.0, "Lat": -2.7344, "Lon": 115.3101}], "Angkor Chum": [{"Name": "Angkor Chum", "Country Code": "KH", "Population": 0.0, "Lat": 13.68385, "Lon": 103.6479}], "Angkor Thum": [{"Name": "Angkor Thum", "Country Code": "KH", "Population": 0.0, "Lat": 13.48339, "Lon": 103.87413}], "Angkup": [{"Name": "Angkup", "Country Code": "ID", "Population": 0.0, "Lat": 4.6216, "Lon": 96.7228}], "Anglanou": [{"Name": "Anglanou", "Country Code": "CI", "Population": 2335.0, "Lat": 6.29507, "Lon": -4.4842}], "Angle Park": [{"Name": "Angle Park", "Country Code": "AU", "Population": 1560.0, "Lat": -34.85989, "Lon": 138.55798}], "Angle Vale": [{"Name": "Angle Vale", "Country Code": "AU", "Population": 2865.0, "Lat": -34.64098, "Lon": 138.6461}], "Angles": [{"Name": "Angl\u00e8s", "Country Code": "ES", "Population": 5519.0, "Lat": 41.95617, "Lon": 2.63603}, {"Name": "Angles", "Country Code": "FR", "Population": 1858.0, "Lat": 46.40818, "Lon": -1.40362}], "Anglesea": [{"Name": "Anglesea", "Country Code": "AU", "Population": 2473.0, "Lat": -38.4073, "Lon": 144.18587}], "Anglesola": [{"Name": "Anglesola", "Country Code": "ES", "Population": 1313.0, "Lat": 41.65649, "Lon": 1.08286}], "Anglet": [{"Name": "Anglet", "Country Code": "FR", "Population": 40658.0, "Lat": 43.48921, "Lon": -1.51921}], "Angleton": [{"Name": "Angleton", "Country Code": "US", "Population": 19429.0, "Lat": 29.16941, "Lon": -95.43188}], "Angleur": [{"Name": "Angleur", "Country Code": "BE", "Population": 10647.0, "Lat": 50.6113, "Lon": 5.59942}], "Angoakro": [{"Name": "Angoakro", "Country Code": "CI", "Population": 3261.0, "Lat": 7.36099, "Lon": -4.31589}], "Angobila": [{"Name": "Angobila", "Country Code": "CI", "Population": 1355.0, "Lat": 8.46979, "Lon": -3.56173}], "Angoche": [{"Name": "Angoche", "Country Code": "MZ", "Population": 104540.0, "Lat": -16.2325, "Lon": 39.90861}], "Angoda": [{"Name": "Angoda", "Country Code": "CI", "Population": 3903.0, "Lat": 6.67795, "Lon": -5.02275}], "Angoikoi": [{"Name": "Angoikoi", "Country Code": "CI", "Population": 1533.0, "Lat": 5.52705, "Lon": -3.87534}], "Angol": [{"Name": "Angol", "Country Code": "CL", "Population": 44856.0, "Lat": -37.79519, "Lon": -72.71636}], "Angola": [{"Name": "Angola", "Country Code": "US", "Population": 8644.0, "Lat": 41.63477, "Lon": -84.99941}, {"Name": "Angola", "Country Code": "US", "Population": 2114.0, "Lat": 42.63839, "Lon": -79.02782}], "Angola on the Lake": [{"Name": "Angola on the Lake", "Country Code": "US", "Population": 1675.0, "Lat": 42.65478, "Lon": -79.04893}], "Angolo Terme": [{"Name": "Angolo Terme", "Country Code": "IT", "Population": 2106.0, "Lat": 45.89168, "Lon": 10.14963}], "Angolokaha": [{"Name": "Angolokaha", "Country Code": "CI", "Population": 1565.0, "Lat": 8.51825, "Lon": -5.17567}], "Angono": [{"Name": "Angono", "Country Code": "PH", "Population": 87199.0, "Lat": 14.5266, "Lon": 121.1536}], "Angoram": [{"Name": "Angoram", "Country Code": "PG", "Population": 1604.0, "Lat": -4.06253, "Lon": 144.06609}], "Angostura": [{"Name": "Angostura", "Country Code": "CO", "Population": 3639.0, "Lat": 6.88508, "Lon": -75.33467}, {"Name": "Angostura", "Country Code": "MX", "Population": 5086.0, "Lat": 25.36586, "Lon": -108.16107}], "Angouassi": [{"Name": "Angouassi", "Country Code": "CI", "Population": 1144.0, "Lat": 7.00139, "Lon": -5.40361}], "Angoubekoua": [{"Name": "Angoub\u00e9koua", "Country Code": "CI", "Population": 2845.0, "Lat": 5.67193, "Lon": -3.91018}], "Angouleme": [{"Name": "Angoul\u00eame", "Country Code": "FR", "Population": 49468.0, "Lat": 45.64997, "Lon": 0.15345}], "Angoulins": [{"Name": "Angoulins", "Country Code": "FR", "Population": 3682.0, "Lat": 46.10526, "Lon": -1.10713}], "Angovia": [{"Name": "Angovia", "Country Code": "CI", "Population": 5680.0, "Lat": 7.03305, "Lon": -5.53697}], "Angra do Heroismo": [{"Name": "Angra do Hero\u00edsmo", "Country Code": "PT", "Population": 12045.0, "Lat": 38.6539, "Lon": -27.21839}], "Angra dos Reis": [{"Name": "Angra dos Reis", "Country Code": "BR", "Population": 153635.0, "Lat": -23.00667, "Lon": -44.31806}], "Angren": [{"Name": "Angren", "Country Code": "UZ", "Population": 191300.0, "Lat": 41.01667, "Lon": 70.14361}], "Angres": [{"Name": "Angres", "Country Code": "FR", "Population": 4553.0, "Lat": 50.40572, "Lon": 2.76054}], "Angresse": [{"Name": "Angresse", "Country Code": "FR", "Population": 1207.0, "Lat": 43.65862, "Lon": -1.37242}], "Angri": [{"Name": "Angri", "Country Code": "IT", "Population": 31632.0, "Lat": 40.73815, "Lon": 14.5707}], "Angrogna": [{"Name": "Angrogna", "Country Code": "IT", "Population": 28.0, "Lat": 44.84354, "Lon": 7.22422}], "Anguciana": [{"Name": "Anguciana", "Country Code": "ES", "Population": 335.0, "Lat": 42.57421, "Lon": -2.90124}], "Anguera": [{"Name": "Anguera", "Country Code": "BR", "Population": 10242.0, "Lat": -12.15111, "Lon": -39.24639}], "Angues": [{"Name": "Ang\u00fc\u00e9s", "Country Code": "ES", "Population": 419.0, "Lat": 42.11109, "Lon": -0.15298}], "Anguiano": [{"Name": "Anguiano", "Country Code": "ES", "Population": 531.0, "Lat": 42.26381, "Lon": -2.76463}], "Anguil": [{"Name": "Anguil", "Country Code": "AR", "Population": 1977.0, "Lat": -36.52583, "Lon": -64.01007}], "Anguillara Sabazia": [{"Name": "Anguillara Sabazia", "Country Code": "IT", "Population": 14121.0, "Lat": 42.0792, "Lon": 12.28368}], "Anguillara Veneta": [{"Name": "Anguillara Veneta", "Country Code": "IT", "Population": 2938.0, "Lat": 45.14249, "Lon": 11.88461}], "Anguita": [{"Name": "Anguita", "Country Code": "ES", "Population": 254.0, "Lat": 41.02659, "Lon": -2.36849}], "Anguix": [{"Name": "Anguix", "Country Code": "ES", "Population": 138.0, "Lat": 41.75331, "Lon": -3.93125}], "Angul": [{"Name": "Angul", "Country Code": "IN", "Population": 44386.0, "Lat": 20.84089, "Lon": 85.10192}], "Anguo": [{"Name": "Anguo", "Country Code": "CN", "Population": 82181.0, "Lat": 34.83056, "Lon": 116.81944}, {"Name": "Anguo", "Country Code": "CN", "Population": 0.0, "Lat": 38.42009, "Lon": 115.32357}], "Angus": [{"Name": "Angus", "Country Code": "CA", "Population": 10269.0, "Lat": 44.31681, "Lon": -79.88295}], "Angustias": [{"Name": "Ang\u00fastias", "Country Code": "PT", "Population": 2418.0, "Lat": 38.52547, "Lon": -28.63132}], "Angware": [{"Name": "Angware", "Country Code": "NG", "Population": 0.0, "Lat": 9.99105, "Lon": 9.10811}], "Angwin": [{"Name": "Angwin", "Country Code": "US", "Population": 3051.0, "Lat": 38.57574, "Lon": -122.44998}], "Angy": [{"Name": "Angy", "Country Code": "FR", "Population": 1229.0, "Lat": 49.32975, "Lon": 2.32854}], "Angyalfoeld": [{"Name": "Angyalf\u00f6ld", "Country Code": "HU", "Population": 62006.0, "Lat": 47.54765, "Lon": 19.07973}], "Anh Son": [{"Name": "Anh Son", "Country Code": "VN", "Population": 0.0, "Lat": 18.96961, "Lon": 105.05505}], "Anhausen": [{"Name": "Anhausen", "Country Code": "DE", "Population": 1324.0, "Lat": 50.5, "Lon": 7.55}], "Anhee": [{"Name": "Anh\u00e9e", "Country Code": "BE", "Population": 7125.0, "Lat": 50.31039, "Lon": 4.87827}], "Anhiers": [{"Name": "Anhiers", "Country Code": "FR", "Population": 1004.0, "Lat": 50.40737, "Lon": 3.15512}], "Anhua": [{"Name": "Anhua", "Country Code": "CN", "Population": 29916.0, "Lat": 33.50528, "Lon": 105.04782}], "Ani-e": [{"Name": "Ani-e", "Country Code": "PH", "Population": 3324.0, "Lat": 8.61361, "Lon": 124.87056}], "Ania-Assikasso": [{"Name": "Ania-Assikasso", "Country Code": "CI", "Population": 3627.0, "Lat": 7.10959, "Lon": -4.06571}], "Anialesso": [{"Name": "Anialesso", "Country Code": "CI", "Population": 1801.0, "Lat": 6.52374, "Lon": -4.31897}], "Aniane": [{"Name": "Aniane", "Country Code": "FR", "Population": 2362.0, "Lat": 43.68561, "Lon": 3.5863}], "Aniassue": [{"Name": "Aniassu\u00e9", "Country Code": "CI", "Population": 12088.0, "Lat": 6.65368, "Lon": -3.68103}], "Anibare": [{"Name": "Anibare", "Country Code": "NR", "Population": 0.0, "Lat": -0.52792, "Lon": 166.95249}], "Anibongan": [{"Name": "Anibongan", "Country Code": "PH", "Population": 2468.0, "Lat": 7.39333, "Lon": 125.71889}], "Aniche": [{"Name": "Aniche", "Country Code": "FR", "Population": 10108.0, "Lat": 50.32995, "Lon": 3.25346}], "Anicuns": [{"Name": "Anicuns", "Country Code": "BR", "Population": 15684.0, "Lat": -16.46111, "Lon": -49.96167}], "Anieres": [{"Name": "Ani\u00e8res", "Country Code": "CH", "Population": 2706.0, "Lat": 46.27673, "Lon": 6.22204}], "Anies": [{"Name": "Anie\u0219", "Country Code": "RO", "Population": 1588.0, "Lat": 47.41347, "Lon": 24.76853}], "Anif": [{"Name": "Anif", "Country Code": "AT", "Population": 1814.0, "Lat": 47.75, "Lon": 13.06667}], "Anilao": [{"Name": "Anilao", "Country Code": "PH", "Population": 0.0, "Lat": 10.97778, "Lon": 122.75222}, {"Name": "Anilao", "Country Code": "PH", "Population": 2677.0, "Lat": 12.71402, "Lon": 121.51242}], "Animas": [{"Name": "\u00c1nimas", "Country Code": "CO", "Population": 0.0, "Lat": 5.27784, "Lon": -76.63082}, {"Name": "Animas", "Country Code": "PR", "Population": 1450.0, "Lat": 18.4455, "Lon": -66.6349}], "Animas Trujano": [{"Name": "Animas Trujano", "Country Code": "MX", "Population": 3505.0, "Lat": 16.99086, "Lon": -96.71319}], "Anin": [{"Name": "\u2018An\u012bn", "Country Code": "PS", "Population": 3647.0, "Lat": 32.50259, "Lon": 35.16668}], "Anina": [{"Name": "Anina", "Country Code": "RO", "Population": 8689.0, "Lat": 45.07944, "Lon": 21.85694}], "Anini-y": [{"Name": "Anini-y", "Country Code": "PH", "Population": 0.0, "Lat": 10.4312, "Lon": 121.927}], "Aninoasa": [{"Name": "Aninoasa", "Country Code": "RO", "Population": 4288.0, "Lat": 44.75, "Lon": 23.48333}, {"Name": "Aninoasa", "Country Code": "RO", "Population": 3334.0, "Lat": 45.18333, "Lon": 24.93333}, {"Name": "Aninoasa", "Country Code": "RO", "Population": 5907.0, "Lat": 44.96667, "Lon": 25.43333}, {"Name": "Aninoasa", "Country Code": "RO", "Population": 4998.0, "Lat": 45.40924, "Lon": 23.31505}], "Aniso": [{"Name": "Aniso", "Country Code": "PE", "Population": 195.0, "Lat": -14.80861, "Lon": -73.29111}], "Anisoc": [{"Name": "A\u00f1isoc", "Country Code": "GQ", "Population": 10191.0, "Lat": 1.8658, "Lon": 10.76892}], "Anitapolis": [{"Name": "Anit\u00e1polis", "Country Code": "BR", "Population": 3267.0, "Lat": -27.90194, "Lon": -49.12861}], "Anito": [{"Name": "Anito", "Country Code": "PH", "Population": 2071.0, "Lat": 12.44972, "Lon": 125.28861}], "Anitrella-Chiaiamari": [{"Name": "Anitrella-Chiaiamari", "Country Code": "IT", "Population": 2108.0, "Lat": 41.63825, "Lon": 13.54835}], "Aniva": [{"Name": "Aniva", "Country Code": "RU", "Population": 7963.0, "Lat": 46.71492, "Lon": 142.52866}], "Anizy-le-Chateau": [{"Name": "Anizy-le-Ch\u00e2teau", "Country Code": "FR", "Population": 1917.0, "Lat": 49.50678, "Lon": 3.45119}], "Anjad": [{"Name": "Anjad", "Country Code": "IN", "Population": 24286.0, "Lat": 22.04171, "Lon": 75.05519}], "Anjala": [{"Name": "Anjala", "Country Code": "FI", "Population": 16779.0, "Lat": 60.68333, "Lon": 26.83333}], "Anjangaon": [{"Name": "Anjangaon", "Country Code": "IN", "Population": 54999.0, "Lat": 21.16516, "Lon": 77.3091}], "Anjani Budruk": [{"Name": "Anjani Budruk", "Country Code": "IN", "Population": 5543.0, "Lat": 20.17216, "Lon": 76.64777}], "Anjani Khurd": [{"Name": "Anjani Khurd", "Country Code": "IN", "Population": 3021.0, "Lat": 20.06688, "Lon": 76.47855}], "Anjar": [{"Name": "Anj\u0101r", "Country Code": "IN", "Population": 66888.0, "Lat": 23.11316, "Lon": 70.02671}], "Anjepy": [{"Name": "Anjepy", "Country Code": "MG", "Population": 6000.0, "Lat": -18.85, "Lon": 47.71667}], "Anjiang": [{"Name": "Anjiang", "Country Code": "CN", "Population": 55421.0, "Lat": 27.31944, "Lon": 110.10306}], "Anjirmuara": [{"Name": "Anjirmuara", "Country Code": "ID", "Population": 0.0, "Lat": -3.1973, "Lon": 114.5667}], "Anjirserapat": [{"Name": "Anjirserapat", "Country Code": "ID", "Population": 0.0, "Lat": -3.0391, "Lon": 114.3845}], "Anjo": [{"Name": "Anj\u014d", "Country Code": "JP", "Population": 188693.0, "Lat": 34.95828, "Lon": 137.08054}], "Anjozorobe": [{"Name": "Anjozorobe", "Country Code": "MG", "Population": 25541.0, "Lat": -18.4, "Lon": 47.86667}], "Anju": [{"Name": "Anju", "Country Code": "CN", "Population": 21000.0, "Lat": 29.99066, "Lon": 106.03186}, {"Name": "Anju", "Country Code": "CN", "Population": 0.0, "Lat": 30.34956, "Lon": 105.45594}, {"Name": "Anju", "Country Code": "KP", "Population": 50196.0, "Lat": 39.61778, "Lon": 125.66472}], "Anka": [{"Name": "Anka", "Country Code": "NG", "Population": 11641.0, "Lat": 12.11347, "Lon": 5.92681}], "Ankang": [{"Name": "Ankang", "Country Code": "CN", "Population": 870126.0, "Lat": 32.68, "Lon": 109.01722}, {"Name": "Ankang", "Country Code": "CN", "Population": 13236.0, "Lat": 23.18254, "Lon": 99.74368}], "Ankara": [{"Name": "Ankara", "Country Code": "TR", "Population": 3517182.0, "Lat": 39.91987, "Lon": 32.85427}], "Ankaran": [{"Name": "Ankaran", "Country Code": "SI", "Population": 3278.0, "Lat": 45.57861, "Lon": 13.73611}], "Ankarsrum": [{"Name": "Ankarsrum", "Country Code": "SE", "Population": 1234.0, "Lat": 57.69896, "Lon": 16.33407}], "Ankazoabo": [{"Name": "Ankazoabo", "Country Code": "MG", "Population": 25961.0, "Lat": -22.28333, "Lon": 44.51667}], "Ankazobe": [{"Name": "Ankazobe", "Country Code": "MG", "Population": 28430.0, "Lat": -18.31667, "Lon": 47.11667}], "Ankazondandy": [{"Name": "Ankazondandy", "Country Code": "MG", "Population": 16000.0, "Lat": -18.7, "Lon": 47.78333}], "Ankeny": [{"Name": "Ankeny", "Country Code": "US", "Population": 56764.0, "Lat": 41.72971, "Lon": -93.60577}], "Ankeveense Rade": [{"Name": "Ankeveense Rade", "Country Code": "NL", "Population": 1110.0, "Lat": 52.25891, "Lon": 5.1016}], "Anklaar": [{"Name": "Anklaar", "Country Code": "NL", "Population": 3865.0, "Lat": 52.23111, "Lon": 5.98497}], "Anklam": [{"Name": "Anklam", "Country Code": "DE", "Population": 14694.0, "Lat": 53.85637, "Lon": 13.68965}], "Ankleshwar": [{"Name": "Ankleshwar", "Country Code": "IN", "Population": 74742.0, "Lat": 21.63236, "Lon": 72.99001}], "Ankola": [{"Name": "Ankola", "Country Code": "ID", "Population": 0.0, "Lat": -7.3071, "Lon": 107.1272}, {"Name": "Ankola", "Country Code": "IN", "Population": 14540.0, "Lat": 14.66049, "Lon": 74.3047}], "Ankpa": [{"Name": "Ankpa", "Country Code": "NG", "Population": 14630.0, "Lat": 7.40249, "Lon": 7.63196}], "Ankum": [{"Name": "Ankum", "Country Code": "DE", "Population": 7186.0, "Lat": 52.55, "Lon": 7.88333}], "Anlan": [{"Name": "Anlan", "Country Code": "CN", "Population": 31546.0, "Lat": 29.24722, "Lon": 106.59417}], "Anling": [{"Name": "Anling", "Country Code": "CN", "Population": 0.0, "Lat": 34.1089, "Lon": 114.16983}], "Anliu": [{"Name": "Anliu", "Country Code": "CN", "Population": 115560.0, "Lat": 23.69824, "Lon": 115.67953}], "Anloga": [{"Name": "Anloga", "Country Code": "GH", "Population": 34050.0, "Lat": 5.79473, "Lon": 0.89728}], "Anlong": [{"Name": "Anlong", "Country Code": "CN", "Population": 86416.0, "Lat": 25.1, "Lon": 105.51667}], "Anlong Veaeng": [{"Name": "Anlong Veaeng", "Country Code": "KH", "Population": 0.0, "Lat": 14.23223, "Lon": 104.08107}], "Anlu": [{"Name": "Anlu", "Country Code": "CN", "Population": 71198.0, "Lat": 31.2575, "Lon": 113.67833}], "Anmenkou": [{"Name": "Anmenkou", "Country Code": "CN", "Population": 8677.0, "Lat": 33.27783, "Lon": 105.6269}], "Anmore": [{"Name": "Anmore", "Country Code": "CA", "Population": 2210.0, "Lat": 49.31637, "Lon": -122.85263}], "Ann Arbor": [{"Name": "Ann Arbor", "Country Code": "US", "Population": 117070.0, "Lat": 42.27756, "Lon": -83.74088}], "Anna": [{"Name": "Anna", "Country Code": "CI", "Population": 2116.0, "Lat": 5.32454, "Lon": -3.87876}, {"Name": "Anna", "Country Code": "ES", "Population": 2775.0, "Lat": 39.02029, "Lon": -0.64621}, {"Name": "Anna", "Country Code": "RU", "Population": 19148.0, "Lat": 51.48993, "Lon": 40.4192}, {"Name": "Anna", "Country Code": "US", "Population": 1545.0, "Lat": 40.39449, "Lon": -84.17272}, {"Name": "Anna", "Country Code": "US", "Population": 4321.0, "Lat": 37.46033, "Lon": -89.24703}, {"Name": "Anna", "Country Code": "US", "Population": 11463.0, "Lat": 33.349, "Lon": -96.5486}], "Anna Bay": [{"Name": "Anna Bay", "Country Code": "AU", "Population": 3718.0, "Lat": -32.78135, "Lon": 152.08586}], "Anna Maria": [{"Name": "Anna Maria", "Country Code": "US", "Population": 1669.0, "Lat": 27.53115, "Lon": -82.73343}], "Anna Regina": [{"Name": "Anna Regina", "Country Code": "GY", "Population": 12448.0, "Lat": 7.26439, "Lon": -58.50769}], "Anna Valley": [{"Name": "Anna Valley", "Country Code": "GB", "Population": 2893.0, "Lat": 51.19317, "Lon": -1.50719}], "Annaba": [{"Name": "Annaba", "Country Code": "DZ", "Population": 342703.0, "Lat": 36.9, "Lon": 7.76667}], "Annaberg": [{"Name": "Annaberg", "Country Code": "AT", "Population": 0.0, "Lat": 47.87134, "Lon": 15.37648}], "Annaberg-Buchholz": [{"Name": "Annaberg-Buchholz", "Country Code": "DE", "Population": 23092.0, "Lat": 50.57953, "Lon": 13.00627}], "Annabichl": [{"Name": "Annabichl", "Country Code": "AT", "Population": 11374.0, "Lat": 46.65, "Lon": 14.31667}], "Annaburg": [{"Name": "Annaburg", "Country Code": "DE", "Population": 3512.0, "Lat": 51.73298, "Lon": 13.04729}], "Annacotty": [{"Name": "Annacotty", "Country Code": "IE", "Population": 2930.0, "Lat": 52.66768, "Lon": -8.53121}], "Annae": [{"Name": "Annae", "Country Code": "KR", "Population": 0.0, "Lat": 36.39435, "Lon": 127.66031}], "Annahilt": [{"Name": "Annahilt", "Country Code": "GB", "Population": 1170.0, "Lat": 54.43333, "Lon": -6.0}], "Annaka": [{"Name": "Annaka", "Country Code": "JP", "Population": 57013.0, "Lat": 36.33011, "Lon": 138.89585}], "Annalong": [{"Name": "Annalong", "Country Code": "GB", "Population": 1760.0, "Lat": 54.10823, "Lon": -5.89966}], "Annam": [{"Name": "Annam", "Country Code": "KR", "Population": 0.0, "Lat": 36.3568, "Lon": 127.67282}], "Annamalainagar": [{"Name": "Ann\u0101malainagar", "Country Code": "IN", "Population": 8827.0, "Lat": 11.4, "Lon": 79.73333}], "Annan": [{"Name": "Annan", "Country Code": "GB", "Population": 8920.0, "Lat": 54.98839, "Lon": -3.25647}], "Annandale": [{"Name": "Annandale", "Country Code": "AU", "Population": 9259.0, "Lat": -33.88333, "Lon": 151.16667}, {"Name": "Annandale", "Country Code": "AU", "Population": 8402.0, "Lat": -19.31503, "Lon": 146.79069}, {"Name": "Annandale", "Country Code": "US", "Population": 3304.0, "Lat": 45.26274, "Lon": -94.12443}, {"Name": "Annandale", "Country Code": "US", "Population": 1695.0, "Lat": 40.64093, "Lon": -74.88128}, {"Name": "Annandale", "Country Code": "US", "Population": 41008.0, "Lat": 38.83039, "Lon": -77.19637}], "Annangrove": [{"Name": "Annangrove", "Country Code": "AU", "Population": 1372.0, "Lat": -33.65758, "Lon": 150.94755}], "Annapolis": [{"Name": "Annapolis", "Country Code": "US", "Population": 39474.0, "Lat": 38.97859, "Lon": -76.49184}], "Annavasal": [{"Name": "Annav\u0101sal", "Country Code": "IN", "Population": 7862.0, "Lat": 10.4606, "Lon": 78.70029}], "Annay": [{"Name": "Annay", "Country Code": "FR", "Population": 4797.0, "Lat": 50.46303, "Lon": 2.88122}], "Anneberg": [{"Name": "Anneberg", "Country Code": "SE", "Population": 1398.0, "Lat": 60.24167, "Lon": 18.41667}], "Annecy": [{"Name": "Annecy", "Country Code": "FR", "Population": 49232.0, "Lat": 45.90878, "Lon": 6.12565}], "Annecy-le-Vieux": [{"Name": "Annecy-le-Vieux", "Country Code": "FR", "Population": 21521.0, "Lat": 45.91971, "Lon": 6.14393}], "Annekrou": [{"Name": "Ann\u00e9krou", "Country Code": "CI", "Population": 1306.0, "Lat": 6.75068, "Lon": -4.11128}], "Annelund": [{"Name": "Annelund", "Country Code": "SE", "Population": 1226.0, "Lat": 57.98843, "Lon": 13.07483}], "Annemasse": [{"Name": "Annemasse", "Country Code": "FR", "Population": 28275.0, "Lat": 46.19439, "Lon": 6.23775}], "Annen": [{"Name": "Annen", "Country Code": "NL", "Population": 3405.0, "Lat": 53.0575, "Lon": 6.71944}], "Annepe": [{"Name": "Ann\u00e9p\u00e9", "Country Code": "CI", "Population": 5648.0, "Lat": 5.90612, "Lon": -3.76986}], "Annequin": [{"Name": "Annequin", "Country Code": "FR", "Population": 2198.0, "Lat": 50.50525, "Lon": 2.72019}], "Annerley": [{"Name": "Annerley", "Country Code": "AU", "Population": 11158.0, "Lat": -27.51228, "Lon": 153.03248}], "Annesse-et-Beaulieu": [{"Name": "Annesse-et-Beaulieu", "Country Code": "FR", "Population": 1349.0, "Lat": 45.16416, "Lon": 0.57193}], "Annet-sur-Marne": [{"Name": "Annet-sur-Marne", "Country Code": "FR", "Population": 2759.0, "Lat": 48.92669, "Lon": 2.71959}], "Annetta": [{"Name": "Annetta", "Country Code": "US", "Population": 1442.0, "Lat": 32.7093, "Lon": -97.67614}], "Annex": [{"Name": "Annex", "Country Code": "CA", "Population": 30526.0, "Lat": 43.67159, "Lon": -79.404}], "Anneyron": [{"Name": "Anneyron", "Country Code": "FR", "Population": 3697.0, "Lat": 45.2722, "Lon": 4.88626}], "Annezin": [{"Name": "Annezin", "Country Code": "FR", "Population": 5672.0, "Lat": 50.53192, "Lon": 2.61785}], "Annfield Plain": [{"Name": "Annfield Plain", "Country Code": "GB", "Population": 10406.0, "Lat": 54.85749, "Lon": -1.73827}], "Annicco": [{"Name": "Annicco", "Country Code": "IT", "Population": 1499.0, "Lat": 45.24344, "Lon": 9.87905}], "Annigeri": [{"Name": "Annigeri", "Country Code": "IN", "Population": 25753.0, "Lat": 15.42513, "Lon": 75.4335}], "Anning": [{"Name": "Anning", "Country Code": "CN", "Population": 106795.0, "Lat": 24.92271, "Lon": 102.48496}], "Anning Xilu": [{"Name": "Anning Xilu", "Country Code": "CN", "Population": 0.0, "Lat": 36.1035, "Lon": 103.71928}], "Annino": [{"Name": "Annino", "Country Code": "RU", "Population": 3315.0, "Lat": 59.77056, "Lon": 30.05611}, {"Name": "Annino", "Country Code": "RU", "Population": 30000.0, "Lat": 55.58333, "Lon": 37.6}, {"Name": "Annino", "Country Code": "RU", "Population": 30000.0, "Lat": 55.58316, "Lon": 37.26019}], "Anniston": [{"Name": "Anniston", "Country Code": "US", "Population": 22347.0, "Lat": 33.65983, "Lon": -85.83163}], "Anno": [{"Name": "Anno", "Country Code": "CI", "Population": 7593.0, "Lat": 5.85952, "Lon": -4.37902}], "Annoeullin": [{"Name": "Annoeullin", "Country Code": "FR", "Population": 10528.0, "Lat": 50.52925, "Lon": 2.9318}], "Annonay": [{"Name": "Annonay", "Country Code": "FR", "Population": 18423.0, "Lat": 45.23992, "Lon": 4.6707}], "Annone Veneto": [{"Name": "Annone Veneto", "Country Code": "IT", "Population": 2730.0, "Lat": 45.78965, "Lon": 12.68646}], "Annone di Brianza": [{"Name": "Annone di Brianza", "Country Code": "IT", "Population": 2244.0, "Lat": 45.80216, "Lon": 9.33119}], "Annopol": [{"Name": "Annopol", "Country Code": "PL", "Population": 2654.0, "Lat": 50.88551, "Lon": 21.85678}], "Annot": [{"Name": "Annot", "Country Code": "FR", "Population": 1073.0, "Lat": 43.96528, "Lon": 6.66879}], "Annotto Bay": [{"Name": "Annotto Bay", "Country Code": "JM", "Population": 5504.0, "Lat": 18.2717, "Lon": -76.76523}], "Annunziata": [{"Name": "Annunziata", "Country Code": "IT", "Population": 3596.0, "Lat": 41.121, "Lon": 14.36518}], "Annur": [{"Name": "Annur", "Country Code": "IN", "Population": 19962.0, "Lat": 11.23616, "Lon": 77.10514}], "Annville": [{"Name": "Annville", "Country Code": "US", "Population": 1095.0, "Lat": 37.31925, "Lon": -83.97048}, {"Name": "Annville", "Country Code": "US", "Population": 4767.0, "Lat": 40.32954, "Lon": -76.51524}], "Annweiler am Trifels": [{"Name": "Annweiler am Trifels", "Country Code": "DE", "Population": 7316.0, "Lat": 49.20613, "Lon": 7.97527}], "Ano Arhanes": [{"Name": "Ano Arhanes", "Country Code": "GR", "Population": 3913.0, "Lat": 35.23333, "Lon": 25.16667}], "Ano Kalentini": [{"Name": "\u00c1no Kalent\u00edni", "Country Code": "GR", "Population": 172.0, "Lat": 39.25, "Lon": 21.18528}], "Ano Kastritsi": [{"Name": "\u00c1no Kastr\u00edtsi", "Country Code": "GR", "Population": 1003.0, "Lat": 38.27228, "Lon": 21.836}], "Ano Komi": [{"Name": "\u00c1no K\u00f3mi", "Country Code": "GR", "Population": 1547.0, "Lat": 40.2266, "Lon": 21.82827}], "Ano Lekhonia": [{"Name": "\u00c1no Lekh\u00f3nia", "Country Code": "GR", "Population": 1214.0, "Lat": 39.32763, "Lon": 23.05395}], "Ano Liosia": [{"Name": "\u00c1no Li\u00f3sia", "Country Code": "GR", "Population": 33565.0, "Lat": 38.08333, "Lon": 23.7}], "Ano Mera": [{"Name": "\u00c1no Mer\u00e1", "Country Code": "GR", "Population": 1459.0, "Lat": 37.44904, "Lon": 25.39095}], "Ano Syros": [{"Name": "\u00c1no S\u00fdros", "Country Code": "GR", "Population": 1138.0, "Lat": 37.44997, "Lon": 24.93562}], "Anoeta": [{"Name": "Anoeta", "Country Code": "ES", "Population": 0.0, "Lat": 43.16241, "Lon": -2.07107}], "Anogeia": [{"Name": "An\u00f3geia", "Country Code": "GR", "Population": 2545.0, "Lat": 35.29084, "Lon": 24.88412}], "Anoia Inferiore": [{"Name": "Anoia Inferiore", "Country Code": "IT", "Population": 1064.0, "Lat": 38.43618, "Lon": 16.0794}], "Anoia Superiore": [{"Name": "Anoia Superiore", "Country Code": "IT", "Population": 1114.0, "Lat": 38.43144, "Lon": 16.0974}], "Anoixi": [{"Name": "Anoixi", "Country Code": "GR", "Population": 6510.0, "Lat": 38.13267, "Lon": 23.85874}], "Anoka": [{"Name": "Anoka", "Country Code": "US", "Population": 17350.0, "Lat": 45.19774, "Lon": -93.38718}], "Anolaima": [{"Name": "Anolaima", "Country Code": "CO", "Population": 12204.0, "Lat": 4.76333, "Lon": -74.46472}], "Anonang": [{"Name": "Anonang", "Country Code": "PH", "Population": 5660.0, "Lat": 11.0, "Lon": 124.03333}], "Anonkro": [{"Name": "Anonkro", "Country Code": "CI", "Population": 1406.0, "Lat": 5.57568, "Lon": -3.54932}], "Anopino": [{"Name": "Anopino", "Country Code": "RU", "Population": 1972.0, "Lat": 55.69809, "Lon": 40.66707}], "Anopog": [{"Name": "Anopog", "Country Code": "PH", "Population": 2700.0, "Lat": 10.25, "Lon": 123.25}], "Anor": [{"Name": "Anor", "Country Code": "FR", "Population": 3195.0, "Lat": 49.98999, "Lon": 4.10049}], "Anora": [{"Name": "A\u00f1ora", "Country Code": "ES", "Population": 1524.0, "Lat": 38.41667, "Lon": -4.9}], "Anorbe": [{"Name": "A\u00f1orbe", "Country Code": "ES", "Population": 0.0, "Lat": 42.65732, "Lon": -1.7149}], "Anori": [{"Name": "Anori", "Country Code": "BR", "Population": 8064.0, "Lat": -3.77278, "Lon": -61.64417}, {"Name": "Anor\u00ed", "Country Code": "CO", "Population": 0.0, "Lat": 7.07273, "Lon": -75.14768}], "Anoring": [{"Name": "Anoring", "Country Code": "PH", "Population": 2860.0, "Lat": 11.25, "Lon": 123.03333}], "Anouanze Bokaha": [{"Name": "Anouanze Bokaha", "Country Code": "CI", "Population": 1101.0, "Lat": 7.00797, "Lon": -4.84151}], "Anougbakro": [{"Name": "Anougbakro", "Country Code": "CI", "Population": 3764.0, "Lat": 6.96271, "Lon": -3.74453}], "Anould": [{"Name": "Anould", "Country Code": "FR", "Population": 3029.0, "Lat": 48.18526, "Lon": 6.94597}], "Anoumaba": [{"Name": "Anoumaba", "Country Code": "CI", "Population": 7623.0, "Lat": 6.33735, "Lon": -4.51626}], "Anoumabo": [{"Name": "Anoumabo", "Country Code": "CI", "Population": 3011.0, "Lat": 7.09269, "Lon": -3.95327}], "Anoumabou": [{"Name": "Anoumabou", "Country Code": "CI", "Population": 2706.0, "Lat": 5.62144, "Lon": -5.10824}], "Anover de Tajo": [{"Name": "A\u00f1over de Tajo", "Country Code": "ES", "Population": 5075.0, "Lat": 39.98873, "Lon": -3.76579}], "Anover de Tormes": [{"Name": "A\u00f1over de Tormes", "Country Code": "ES", "Population": 100.0, "Lat": 41.13658, "Lon": -5.91585}], "Anping": [{"Name": "Anping", "Country Code": "CN", "Population": 0.0, "Lat": 38.23143, "Lon": 115.51108}, {"Name": "Anping", "Country Code": "CN", "Population": 24767.0, "Lat": 30.96384, "Lon": 109.34504}, {"Name": "Anping", "Country Code": "CN", "Population": 2630.0, "Lat": 27.86639, "Lon": 110.11611}], "Anqing": [{"Name": "Anqing", "Country Code": "CN", "Population": 804493.0, "Lat": 30.51365, "Lon": 117.04723}], "Anqiu": [{"Name": "Anqiu", "Country Code": "CN", "Population": 364208.0, "Lat": 36.43417, "Lon": 119.1925}], "Anquela del Ducado": [{"Name": "Anquela del Ducado", "Country Code": "ES", "Population": 87.0, "Lat": 40.97084, "Lon": -2.13066}], "Anquela del Pedregal": [{"Name": "Anquela del Pedregal", "Country Code": "ES", "Population": 21.0, "Lat": 40.74336, "Lon": -1.73697}], "Anra": [{"Name": "Anra", "Country Code": "PE", "Population": 416.0, "Lat": -9.2329, "Lon": -76.92328}], "Anras": [{"Name": "Anras", "Country Code": "AT", "Population": 327.0, "Lat": 46.77389, "Lon": 12.56083}], "Anren Chengguanzhen": [{"Name": "Anren Chengguanzhen", "Country Code": "CN", "Population": 0.0, "Lat": 26.71413, "Lon": 113.26726}], "Anrode": [{"Name": "Anrode", "Country Code": "DE", "Population": 3562.0, "Lat": 51.26667, "Lon": 10.33333}], "Anroechte": [{"Name": "Anr\u00f6chte", "Country Code": "DE", "Population": 10847.0, "Lat": 51.56667, "Lon": 8.33333}], "Ans": [{"Name": "Ans", "Country Code": "BE", "Population": 27297.0, "Lat": 50.6623, "Lon": 5.52029}, {"Name": "Ans", "Country Code": "DK", "Population": 1912.0, "Lat": 56.30712, "Lon": 9.59276}], "Ansalta": [{"Name": "Ansalta", "Country Code": "RU", "Population": 5654.0, "Lat": 42.68941, "Lon": 46.11782}], "Ansan-si": [{"Name": "Ansan-si", "Country Code": "KR", "Population": 716785.0, "Lat": 37.32361, "Lon": 126.82194}], "Ansauvillers": [{"Name": "Ansauvillers", "Country Code": "FR", "Population": 1098.0, "Lat": 49.56523, "Lon": 2.38742}], "Ansbach": [{"Name": "Ansbach", "Country Code": "DE", "Population": 31839.0, "Lat": 49.30481, "Lon": 10.5931}], "Anse": [{"Name": "Anse", "Country Code": "FR", "Population": 5099.0, "Lat": 45.93553, "Lon": 4.71933}], "Anse Boileau": [{"Name": "Anse Boileau", "Country Code": "SC", "Population": 4183.0, "Lat": -4.71667, "Lon": 55.48333}], "Anse La Raye": [{"Name": "Anse La Raye", "Country Code": "LC", "Population": 1256.0, "Lat": 13.94619, "Lon": -61.03879}], "Anse Rouge": [{"Name": "Anse Rouge", "Country Code": "HT", "Population": 4437.0, "Lat": 19.63382, "Lon": -73.0553}], "Anse Royale": [{"Name": "Anse Royale", "Country Code": "SC", "Population": 3818.0, "Lat": -4.73333, "Lon": 55.51667}], "Anse a Galets": [{"Name": "Anse \u00e0 Galets", "Country Code": "HT", "Population": 7178.0, "Lat": 18.83449, "Lon": -72.86644}], "Anse-Bertrand": [{"Name": "Anse-Bertrand", "Country Code": "GP", "Population": 5146.0, "Lat": 16.47239, "Lon": -61.50739}], "Anse-a-Pitre": [{"Name": "Anse-\u00e0-Pitre", "Country Code": "HT", "Population": 1736.0, "Lat": 18.05, "Lon": -71.75}], "Anse-a-Veau": [{"Name": "Anse-\u00e0-Veau", "Country Code": "HT", "Population": 1731.0, "Lat": 18.5011, "Lon": -73.3449}], "Anseong": [{"Name": "Anseong", "Country Code": "KR", "Population": 69255.0, "Lat": 37.01083, "Lon": 127.27028}], "Anseremme": [{"Name": "Anseremme", "Country Code": "BE", "Population": 2257.0, "Lat": 50.23996, "Lon": 4.89904}], "Anserma": [{"Name": "Anserma", "Country Code": "CO", "Population": 33146.0, "Lat": 5.33278, "Lon": -75.79111}, {"Name": "Anserma", "Country Code": "CO", "Population": 0.0, "Lat": 5.23479, "Lon": -75.78465}], "Ansermanuevo": [{"Name": "Ansermanuevo", "Country Code": "CO", "Population": 12332.0, "Lat": 4.79722, "Lon": -75.995}], "Anseroeul": [{"Name": "Anseroeul", "Country Code": "BE", "Population": 1090.0, "Lat": 50.72739, "Lon": 3.5237}], "Ansfelden": [{"Name": "Ansfelden", "Country Code": "AT", "Population": 1944.0, "Lat": 48.20969, "Lon": 14.29004}], "Anshan": [{"Name": "Anshan", "Country Code": "CN", "Population": 1450000.0, "Lat": 41.12361, "Lon": 122.99}], "Ansheng": [{"Name": "Ansheng", "Country Code": "CN", "Population": 8675.0, "Lat": 30.69023, "Lon": 107.72087}], "Anshing": [{"Name": "Anshing", "Country Code": "IN", "Population": 19000.0, "Lat": 20.0409, "Lon": 77.31501}], "Anshun": [{"Name": "Anshun", "Country Code": "CN", "Population": 765313.0, "Lat": 26.25, "Lon": 105.93333}], "Ansiao": [{"Name": "Ansi\u00e3o", "Country Code": "PT", "Population": 1357.0, "Lat": 39.91177, "Lon": -8.43568}], "Ansihuacuaro": [{"Name": "Ansihuacuaro", "Country Code": "MX", "Population": 1160.0, "Lat": 20.19984, "Lon": -101.8067}], "Anso": [{"Name": "Ans\u00f3", "Country Code": "ES", "Population": 519.0, "Lat": 42.75785, "Lon": -0.82947}], "Anson": [{"Name": "Anson", "Country Code": "US", "Population": 2334.0, "Lat": 32.7565, "Lon": -99.89621}], "Ansongo": [{"Name": "Ansongo", "Country Code": "ML", "Population": 3000.0, "Lat": 15.6597, "Lon": 0.5022}], "Ansonia": [{"Name": "Ansonia", "Country Code": "US", "Population": 1150.0, "Lat": 40.21449, "Lon": -84.6369}, {"Name": "Ansonia", "Country Code": "US", "Population": 18854.0, "Lat": 41.34621, "Lon": -73.079}], "Ansouis": [{"Name": "Ansouis", "Country Code": "FR", "Population": 1114.0, "Lat": 43.73771, "Lon": 5.46356}], "Anstaing": [{"Name": "Anstaing", "Country Code": "FR", "Population": 1205.0, "Lat": 50.60473, "Lon": 3.19079}], "Anstead": [{"Name": "Anstead", "Country Code": "AU", "Population": 1474.0, "Lat": -27.53781, "Lon": 152.86187}], "Ansted": [{"Name": "Ansted", "Country Code": "US", "Population": 1397.0, "Lat": 38.13622, "Lon": -81.09955}], "Anstey": [{"Name": "Anstey", "Country Code": "GB", "Population": 6528.0, "Lat": 52.67368, "Lon": -1.18841}], "Anstruther": [{"Name": "Anstruther", "Country Code": "GB", "Population": 3420.0, "Lat": 56.22345, "Lon": -2.70278}], "Ansty": [{"Name": "Ansty", "Country Code": "GB", "Population": 0.0, "Lat": 51.03639, "Lon": -2.06389}], "Ansu": [{"Name": "Ansu", "Country Code": "CN", "Population": 0.0, "Lat": 39.0175, "Lon": 115.65063}], "Ansus": [{"Name": "Ansus", "Country Code": "ID", "Population": 0.0, "Lat": -1.7256, "Lon": 135.8115}], "Anta": [{"Name": "Anta", "Country Code": "IN", "Population": 30598.0, "Lat": 25.15, "Lon": 76.3}, {"Name": "Anta", "Country Code": "PE", "Population": 5859.0, "Lat": -13.47056, "Lon": -72.14833}, {"Name": "Anta", "Country Code": "PE", "Population": 614.0, "Lat": -9.35698, "Lon": -77.59796}, {"Name": "Anta", "Country Code": "PT", "Population": 10951.0, "Lat": 41.26634, "Lon": -8.62844}], "Antabamba": [{"Name": "Antabamba", "Country Code": "PE", "Population": 0.0, "Lat": -14.36056, "Lon": -72.87556}], "Antagan Segunda": [{"Name": "Antagan Segunda", "Country Code": "PH", "Population": 4066.0, "Lat": 17.28268, "Lon": 121.87153}], "Antagnod": [{"Name": "Antagnod", "Country Code": "IT", "Population": 242.0, "Lat": 45.81484, "Lon": 7.68931}], "Antakalnis": [{"Name": "Antakalnis", "Country Code": "LT", "Population": 40000.0, "Lat": 54.70781, "Lon": 25.31706}], "Antakotako": [{"Name": "Antakotako", "Country Code": "MG", "Population": 11000.0, "Lat": -15.31667, "Lon": 49.8}], "Antakya": [{"Name": "Antakya", "Country Code": "TR", "Population": 210000.0, "Lat": 36.20655, "Lon": 36.15722}], "Antalaha": [{"Name": "Antalaha", "Country Code": "MG", "Population": 71898.0, "Lat": -14.90033, "Lon": 50.27876}], "Antalya": [{"Name": "Antalya", "Country Code": "TR", "Population": 1344000.0, "Lat": 36.90812, "Lon": 30.69556}], "Antananarivo": [{"Name": "Antananarivo", "Country Code": "MG", "Population": 1349501.0, "Lat": -18.91368, "Lon": 47.53613}], "Antanifotsy": [{"Name": "Antanifotsy", "Country Code": "MG", "Population": 70626.0, "Lat": -19.65, "Lon": 47.31667}], "Antanimena": [{"Name": "Antanimena", "Country Code": "MG", "Population": 4000.0, "Lat": -23.55, "Lon": 44.1}], "Antaparco": [{"Name": "Antaparco", "Country Code": "PE", "Population": 555.0, "Lat": -13.07756, "Lon": -74.41216}], "Antas": [{"Name": "Antas", "Country Code": "ES", "Population": 3166.0, "Lat": 37.24536, "Lon": -1.9176}], "Antau": [{"Name": "Antau", "Country Code": "AT", "Population": 758.0, "Lat": 47.77377, "Lon": 16.47984}], "Antauta": [{"Name": "Antauta", "Country Code": "PE", "Population": 0.0, "Lat": -14.4, "Lon": -70.36667}], "Antdorf": [{"Name": "Antdorf", "Country Code": "DE", "Population": 1106.0, "Lat": 47.75133, "Lon": 11.30845}], "Antegnate": [{"Name": "Antegnate", "Country Code": "IT", "Population": 2915.0, "Lat": 45.48648, "Lon": 9.79146}], "Antella": [{"Name": "Antella", "Country Code": "ES", "Population": 1498.0, "Lat": 39.07977, "Lon": -0.59195}, {"Name": "Antella", "Country Code": "IT", "Population": 2831.0, "Lat": 43.72774, "Lon": 11.32233}], "Antelope": [{"Name": "Antelope", "Country Code": "US", "Population": 45770.0, "Lat": 38.70824, "Lon": -121.32995}], "Antelope Valley-Crestview": [{"Name": "Antelope Valley-Crestview", "Country Code": "US", "Population": 1658.0, "Lat": 44.22488, "Lon": -105.47409}], "Antequera": [{"Name": "Antequera", "Country Code": "ES", "Population": 45168.0, "Lat": 37.01938, "Lon": -4.56123}, {"Name": "Antequera", "Country Code": "PH", "Population": 0.0, "Lat": 9.7809, "Lon": 123.8988}, {"Name": "Antequera", "Country Code": "PY", "Population": 2701.0, "Lat": -24.08526, "Lon": -57.20221}], "Anterivo": [{"Name": "Anterivo", "Country Code": "IT", "Population": 226.0, "Lat": 46.2781, "Lon": 11.36665}], "Antessano": [{"Name": "Antessano", "Country Code": "IT", "Population": 3416.0, "Lat": 40.73293, "Lon": 14.77744}], "Antey-Saint-Andre": [{"Name": "Antey-Saint-Andr\u00e8", "Country Code": "IT", "Population": 247.0, "Lat": 45.80603, "Lon": 7.58666}], "Antheit": [{"Name": "Antheit", "Country Code": "BE", "Population": 4447.0, "Lat": 50.54927, "Lon": 5.24022}], "Anthem": [{"Name": "Anthem", "Country Code": "US", "Population": 21700.0, "Lat": 33.86726, "Lon": -112.14682}], "Anthering": [{"Name": "Anthering", "Country Code": "AT", "Population": 1599.0, "Lat": 47.88333, "Lon": 13.01667}], "Anthili": [{"Name": "Anth\u00edli", "Country Code": "GR", "Population": 1693.0, "Lat": 38.85, "Lon": 22.47906}], "Anthiro": [{"Name": "Anthir\u00f3", "Country Code": "GR", "Population": 270.0, "Lat": 39.34722, "Lon": 21.45833}], "Anthisnes": [{"Name": "Anthisnes", "Country Code": "BE", "Population": 4116.0, "Lat": 50.48323, "Lon": 5.519}], "Anthiyur": [{"Name": "Anthiyur", "Country Code": "IN", "Population": 20436.0, "Lat": 11.57506, "Lon": 77.59043}], "Anthony": [{"Name": "Anthony", "Country Code": "US", "Population": 9293.0, "Lat": 32.00399, "Lon": -106.60583}, {"Name": "Anthony", "Country Code": "US", "Population": 2230.0, "Lat": 37.15336, "Lon": -98.03117},