{"Woodford Hill": [{"Name": "Woodford Hill", "Country Code": "DM", "Population": 1063.0, "Lat": 15.58093, "Lon": -61.33149}], "Woodgate": [{"Name": "Woodgate", "Country Code": "AU", "Population": 1454.0, "Lat": -25.1083, "Lon": 152.56254}], "Woodhall Spa": [{"Name": "Woodhall Spa", "Country Code": "GB", "Population": 4331.0, "Lat": 53.15215, "Lon": -0.21453}], "Woodhaven": [{"Name": "Woodhaven", "Country Code": "US", "Population": 12539.0, "Lat": 42.13893, "Lon": -83.2416}, {"Name": "Woodhaven", "Country Code": "US", "Population": 36555.0, "Lat": 40.68927, "Lon": -73.85791}], "Woodinville": [{"Name": "Woodinville", "Country Code": "US", "Population": 11782.0, "Lat": 47.75427, "Lon": -122.16346}], "Woodlake": [{"Name": "Woodlake", "Country Code": "US", "Population": 7654.0, "Lat": 36.41356, "Lon": -119.09872}, {"Name": "Woodlake", "Country Code": "US", "Population": 7319.0, "Lat": 37.42106, "Lon": -77.67931}], "Woodland": [{"Name": "Woodland", "Country Code": "US", "Population": 58567.0, "Lat": 38.67852, "Lon": -121.7733}, {"Name": "Woodland", "Country Code": "US", "Population": 5842.0, "Lat": 45.90456, "Lon": -122.74399}], "Woodland Beach": [{"Name": "Woodland Beach", "Country Code": "US", "Population": 2049.0, "Lat": 41.94005, "Lon": -83.31326}], "Woodland Heights": [{"Name": "Woodland Heights", "Country Code": "US", "Population": 1261.0, "Lat": 41.40978, "Lon": -79.71172}], "Woodland Hills": [{"Name": "Woodland Hills", "Country Code": "US", "Population": 70000.0, "Lat": 34.16834, "Lon": -118.60592}, {"Name": "Woodland Hills", "Country Code": "US", "Population": 1482.0, "Lat": 40.01532, "Lon": -111.64868}], "Woodland Park": [{"Name": "Woodland Park", "Country Code": "US", "Population": 7222.0, "Lat": 38.99388, "Lon": -105.05693}, {"Name": "Woodland Park", "Country Code": "US", "Population": 12518.0, "Lat": 40.88982, "Lon": -74.19487}], "Woodlands": [{"Name": "Woodlands", "Country Code": "SG", "Population": 254730.0, "Lat": 1.43801, "Lon": 103.78877}, {"Name": "Woodlands", "Country Code": "ZA", "Population": 2254.0, "Lat": -34.00208, "Lon": 24.17132}], "Woodlands Park": [{"Name": "Woodlands Park", "Country Code": "NZ", "Population": 1077.0, "Lat": -36.9482, "Lon": 174.62019}], "Woodlawn": [{"Name": "Woodlawn", "Country Code": "US", "Population": 24150.0, "Lat": 41.77948, "Lon": -87.59949}, {"Name": "Woodlawn", "Country Code": "US", "Population": 37879.0, "Lat": 39.32288, "Lon": -76.72803}, {"Name": "Woodlawn", "Country Code": "US", "Population": 2343.0, "Lat": 36.72235, "Lon": -80.82285}, {"Name": "Woodlawn", "Country Code": "US", "Population": 6334.0, "Lat": 38.94956, "Lon": -76.89136}, {"Name": "Woodlawn", "Country Code": "US", "Population": 3292.0, "Lat": 39.252, "Lon": -84.47022}, {"Name": "Woodlawn", "Country Code": "US", "Population": 20804.0, "Lat": 38.71678, "Lon": -77.13276}, {"Name": "Woodlawn", "Country Code": "US", "Population": 7317.0, "Lat": 40.89816, "Lon": -73.86736}], "Woodlawn Beach": [{"Name": "Woodlawn Beach", "Country Code": "US", "Population": 1785.0, "Lat": 30.38825, "Lon": -86.9908}], "Woodley": [{"Name": "Woodley", "Country Code": "GB", "Population": 0.0, "Lat": 51.45, "Lon": -0.88333}], "Woodlyn": [{"Name": "Woodlyn", "Country Code": "US", "Population": 9485.0, "Lat": 39.87233, "Lon": -75.33713}], "Woodmere": [{"Name": "Woodmere", "Country Code": "US", "Population": 17121.0, "Lat": 40.63205, "Lon": -73.71263}, {"Name": "Woodmere", "Country Code": "US", "Population": 12080.0, "Lat": 29.85798, "Lon": -90.08035}], "Woodmont": [{"Name": "Woodmont", "Country Code": "US", "Population": 1505.0, "Lat": 41.22815, "Lon": -72.99149}], "Woodmoor": [{"Name": "Woodmoor", "Country Code": "US", "Population": 8741.0, "Lat": 39.10138, "Lon": -104.84748}], "Woodmore": [{"Name": "Woodmore", "Country Code": "US", "Population": 3936.0, "Lat": 38.92122, "Lon": -76.80303}], "Woodpark": [{"Name": "Woodpark", "Country Code": "AU", "Population": 1515.0, "Lat": -33.84137, "Lon": 150.96055}], "Woodridge": [{"Name": "Woodridge", "Country Code": "AU", "Population": 12579.0, "Lat": -27.63333, "Lon": 153.1}, {"Name": "Woodridge", "Country Code": "NZ", "Population": 1880.0, "Lat": -41.21692, "Lon": 174.83072}, {"Name": "Woodridge", "Country Code": "US", "Population": 33370.0, "Lat": 41.74697, "Lon": -88.05034}], "Woodrising": [{"Name": "Woodrising", "Country Code": "AU", "Population": 1135.0, "Lat": -32.98595, "Lon": 151.60657}], "Woodroffe": [{"Name": "Woodroffe", "Country Code": "AU", "Population": 3214.0, "Lat": -12.50173, "Lon": 130.98016}], "Woodrow": [{"Name": "Woodrow", "Country Code": "US", "Population": 21005.0, "Lat": 40.54344, "Lon": -74.19764}], "Woodruff": [{"Name": "Woodruff", "Country Code": "US", "Population": 4129.0, "Lat": 34.73957, "Lon": -82.03705}], "Woods Creek": [{"Name": "Woods Creek", "Country Code": "US", "Population": 5589.0, "Lat": 47.87871, "Lon": -121.89846}], "Woods Cross": [{"Name": "Woods Cross", "Country Code": "US", "Population": 11284.0, "Lat": 40.87161, "Lon": -111.89216}], "Woodsboro": [{"Name": "Woodsboro", "Country Code": "US", "Population": 1483.0, "Lat": 28.23834, "Lon": -97.31999}, {"Name": "Woodsboro", "Country Code": "US", "Population": 1196.0, "Lat": 39.53316, "Lon": -77.31471}], "Woodsetts": [{"Name": "Woodsetts", "Country Code": "GB", "Population": 1746.0, "Lat": 53.34804, "Lon": -1.17204}], "Woodsfield": [{"Name": "Woodsfield", "Country Code": "US", "Population": 2348.0, "Lat": 39.76257, "Lon": -81.11538}], "Woodside": [{"Name": "Woodside", "Country Code": "AU", "Population": 2508.0, "Lat": -34.95433, "Lon": 138.87901}, {"Name": "Woodside", "Country Code": "US", "Population": 5561.0, "Lat": 37.42994, "Lon": -122.25386}, {"Name": "Woodside", "Country Code": "US", "Population": 41981.0, "Lat": 40.74538, "Lon": -73.90541}, {"Name": "Woodside", "Country Code": "US", "Population": 2425.0, "Lat": 40.22178, "Lon": -74.87544}], "Woodside East": [{"Name": "Woodside East", "Country Code": "US", "Population": 2316.0, "Lat": 39.06756, "Lon": -75.53748}], "Woodson Terrace": [{"Name": "Woodson Terrace", "Country Code": "US", "Population": 4072.0, "Lat": 38.72505, "Lon": -90.35845}], "Woodstock": [{"Name": "Woodstock", "Country Code": "CA", "Population": 40404.0, "Lat": 43.13339, "Lon": -80.7497}, {"Name": "Woodstock", "Country Code": "GB", "Population": 2442.0, "Lat": 51.8485, "Lon": -1.35132}, {"Name": "Woodstock", "Country Code": "US", "Population": 25189.0, "Lat": 42.31474, "Lon": -88.4487}, {"Name": "Woodstock", "Country Code": "US", "Population": 871.0, "Lat": 43.62424, "Lon": -72.51843}, {"Name": "Woodstock", "Country Code": "US", "Population": 29898.0, "Lat": 34.10149, "Lon": -84.51938}, {"Name": "Woodstock", "Country Code": "US", "Population": 2088.0, "Lat": 42.04092, "Lon": -74.1182}, {"Name": "Woodstock", "Country Code": "US", "Population": 5248.0, "Lat": 38.88178, "Lon": -78.50584}, {"Name": "Woodstock", "Country Code": "US", "Population": 1213.0, "Lat": 43.97757, "Lon": -71.68508}, {"Name": "Woodstock", "Country Code": "US", "Population": 1352.0, "Lat": 44.37494, "Lon": -70.60849}, {"Name": "Woodstock", "Country Code": "US", "Population": 1547.0, "Lat": 33.20678, "Lon": -87.15}], "Woodstown": [{"Name": "Woodstown", "Country Code": "US", "Population": 3524.0, "Lat": 39.6515, "Lon": -75.32825}], "Woodsville": [{"Name": "Woodsville", "Country Code": "US", "Population": 1126.0, "Lat": 44.15229, "Lon": -72.03731}], "Woodvale": [{"Name": "Woodvale", "Country Code": "AU", "Population": 9116.0, "Lat": -31.78928, "Lon": 115.79676}], "Woodville": [{"Name": "Woodville", "Country Code": "AU", "Population": 2915.0, "Lat": -34.877, "Lon": 138.54291}, {"Name": "Woodville", "Country Code": "US", "Population": 1740.0, "Lat": 36.09356, "Lon": -119.199}, {"Name": "Woodville", "Country Code": "US", "Population": 2478.0, "Lat": 30.7752, "Lon": -94.41548}, {"Name": "Woodville", "Country Code": "US", "Population": 995.0, "Lat": 31.10462, "Lon": -91.29956}, {"Name": "Woodville", "Country Code": "US", "Population": 2978.0, "Lat": 30.31409, "Lon": -84.2474}, {"Name": "Woodville", "Country Code": "US", "Population": 1339.0, "Lat": 44.95302, "Lon": -92.2913}, {"Name": "Woodville", "Country Code": "US", "Population": 2083.0, "Lat": 41.45144, "Lon": -83.36576}], "Woodville Gardens": [{"Name": "Woodville Gardens", "Country Code": "AU", "Population": 2399.0, "Lat": -34.86788, "Lon": 138.54798}], "Woodville North": [{"Name": "Woodville North", "Country Code": "AU", "Population": 2422.0, "Lat": -34.872, "Lon": 138.54309}], "Woodville Park": [{"Name": "Woodville Park", "Country Code": "AU", "Population": 1728.0, "Lat": -34.88696, "Lon": 138.54648}], "Woodville South": [{"Name": "Woodville South", "Country Code": "AU", "Population": 3333.0, "Lat": -34.88186, "Lon": 138.53477}], "Woodville West": [{"Name": "Woodville West", "Country Code": "AU", "Population": 3071.0, "Lat": -34.8864, "Lon": 138.53095}], "Woodward": [{"Name": "Woodward", "Country Code": "US", "Population": 1503.0, "Lat": 41.85693, "Lon": -93.9219}, {"Name": "Woodward", "Country Code": "US", "Population": 12993.0, "Lat": 36.43365, "Lon": -99.39039}], "Woodway": [{"Name": "Woodway", "Country Code": "US", "Population": 8777.0, "Lat": 31.506, "Lon": -97.20501}, {"Name": "Woodway", "Country Code": "US", "Population": 1364.0, "Lat": 47.79621, "Lon": -122.38291}], "Woodworth": [{"Name": "Woodworth", "Country Code": "US", "Population": 1084.0, "Lat": 31.14658, "Lon": -92.49736}], "Woody Point": [{"Name": "Woody Point", "Country Code": "AU", "Population": 4363.0, "Lat": -27.25608, "Lon": 153.10427}], "Wool": [{"Name": "Wool", "Country Code": "GB", "Population": 2724.0, "Lat": 50.67966, "Lon": -2.2189}], "Woolavington": [{"Name": "Woolavington", "Country Code": "GB", "Population": 2115.0, "Lat": 51.16493, "Lon": -2.93814}], "Woolde": [{"Name": "Woolde", "Country Code": "NL", "Population": 1670.0, "Lat": 52.2721, "Lon": 6.75891}], "Wooldrik": [{"Name": "Wooldrik", "Country Code": "NL", "Population": 1225.0, "Lat": 52.21667, "Lon": 6.91667}], "Wooler": [{"Name": "Wooler", "Country Code": "GB", "Population": 1983.0, "Lat": 55.54755, "Lon": -2.01186}], "Woolgoolga": [{"Name": "Woolgoolga", "Country Code": "AU", "Population": 5495.0, "Lat": -30.11058, "Lon": 153.20067}], "Woollahra": [{"Name": "Woollahra", "Country Code": "AU", "Population": 7278.0, "Lat": -33.8878, "Lon": 151.23681}], "Woolley": [{"Name": "Woolley", "Country Code": "GB", "Population": 365.0, "Lat": 53.61339, "Lon": -1.51457}], "Woolloomooloo": [{"Name": "Woolloomooloo", "Country Code": "AU", "Population": 4174.0, "Lat": -33.87042, "Lon": 151.21968}], "Woolloongabba": [{"Name": "Woolloongabba", "Country Code": "AU", "Population": 6321.0, "Lat": -27.48855, "Lon": 153.03655}], "Woolooware": [{"Name": "Woolooware", "Country Code": "AU", "Population": 3890.0, "Lat": -34.04583, "Lon": 151.14312}], "Wooloowin": [{"Name": "Wooloowin", "Country Code": "AU", "Population": 3857.0, "Lat": -27.42244, "Lon": 153.04204}], "Woolpit": [{"Name": "Woolpit", "Country Code": "GB", "Population": 1753.0, "Lat": 52.22454, "Lon": 0.88826}], "Woolston": [{"Name": "Woolston", "Country Code": "GB", "Population": 13852.0, "Lat": 50.89305, "Lon": -1.37801}], "Woolwich": [{"Name": "Woolwich", "Country Code": "GB", "Population": 0.0, "Lat": 51.491, "Lon": 0.0648}, {"Name": "Woolwich", "Country Code": "US", "Population": 2922.0, "Lat": 43.91869, "Lon": -69.80116}], "Woombye": [{"Name": "Woombye", "Country Code": "AU", "Population": 3224.0, "Lat": -26.66054, "Lon": 152.96947}], "Woongarrah": [{"Name": "Woongarrah", "Country Code": "AU", "Population": 5147.0, "Lat": -33.24134, "Lon": 151.47563}], "Woonona": [{"Name": "Woonona", "Country Code": "AU", "Population": 11980.0, "Lat": -34.34932, "Lon": 150.91443}], "Woonsocket": [{"Name": "Woonsocket", "Country Code": "US", "Population": 41475.0, "Lat": 42.00288, "Lon": -71.51478}, {"Name": "Woonsocket", "Country Code": "US", "Population": 659.0, "Lat": 44.0536, "Lon": -98.27564}], "Woori Yallock": [{"Name": "Woori Yallock", "Country Code": "AU", "Population": 2910.0, "Lat": -37.78062, "Lon": 145.53819}], "Woorim": [{"Name": "Woorim", "Country Code": "AU", "Population": 1937.0, "Lat": -27.06931, "Lon": 153.20427}], "Wooroloo": [{"Name": "Wooroloo", "Country Code": "AU", "Population": 2618.0, "Lat": -31.8038, "Lon": 116.31311}], "Woorree": [{"Name": "Woorree", "Country Code": "AU", "Population": 1282.0, "Lat": -28.76677, "Lon": 114.65806}], "Wooster": [{"Name": "Wooster", "Country Code": "US", "Population": 26749.0, "Lat": 40.80517, "Lon": -81.93646}], "Wootton": [{"Name": "Wootton", "Country Code": "GB", "Population": 475.0, "Lat": 53.63021, "Lon": -0.35328}, {"Name": "Wootton", "Country Code": "GB", "Population": 4467.0, "Lat": 51.1738, "Lon": 1.1794}, {"Name": "Wootton", "Country Code": "GB", "Population": 4344.0, "Lat": 52.09525, "Lon": -0.53494}, {"Name": "Wootton", "Country Code": "GB", "Population": 4231.0, "Lat": 50.72847, "Lon": -1.23536}], "Wora": [{"Name": "Wora", "Country Code": "CI", "Population": 7217.0, "Lat": 10.08407, "Lon": -6.32683}], "Worabe": [{"Name": "Worabe", "Country Code": "ET", "Population": 25400.0, "Lat": 7.85257, "Lon": 38.18529}], "Worb": [{"Name": "Worb", "Country Code": "CH", "Population": 11053.0, "Lat": 46.92984, "Lon": 7.56306}], "Worben": [{"Name": "Worben", "Country Code": "CH", "Population": 2042.0, "Lat": 47.10279, "Lon": 7.29518}], "Worbis": [{"Name": "Worbis", "Country Code": "DE", "Population": 5371.0, "Lat": 51.41997, "Lon": 10.3633}], "Worcester": [{"Name": "Worcester", "Country Code": "GB", "Population": 101659.0, "Lat": 52.18935, "Lon": -2.22001}, {"Name": "Worcester", "Country Code": "US", "Population": 1113.0, "Lat": 42.59146, "Lon": -74.75043}, {"Name": "Worcester", "Country Code": "US", "Population": 206518.0, "Lat": 42.26259, "Lon": -71.80229}, {"Name": "Worcester", "Country Code": "ZA", "Population": 127597.0, "Lat": -33.64651, "Lon": 19.44852}], "Worcester Park": [{"Name": "Worcester Park", "Country Code": "GB", "Population": 16031.0, "Lat": 51.37992, "Lon": -0.24445}], "Worden": [{"Name": "Worden", "Country Code": "US", "Population": 1028.0, "Lat": 38.93144, "Lon": -89.83899}], "Woree": [{"Name": "Woree", "Country Code": "AU", "Population": 5351.0, "Lat": -16.95, "Lon": 145.75}], "Wori": [{"Name": "Wori", "Country Code": "ID", "Population": 0.0, "Lat": 1.59714, "Lon": 124.85246}], "Woringen": [{"Name": "Woringen", "Country Code": "DE", "Population": 1812.0, "Lat": 47.91667, "Lon": 10.2}], "Workington": [{"Name": "Workington", "Country Code": "GB", "Population": 27120.0, "Lat": 54.6425, "Lon": -3.54413}], "Worksop": [{"Name": "Worksop", "Country Code": "GB", "Population": 43252.0, "Lat": 53.30182, "Lon": -1.12404}], "Workum": [{"Name": "Workum", "Country Code": "NL", "Population": 4105.0, "Lat": 52.97969, "Lon": 5.4471}], "Worlaby": [{"Name": "Worlaby", "Country Code": "GB", "Population": 547.0, "Lat": 53.6113, "Lon": -0.46685}], "Worland": [{"Name": "Worland", "Country Code": "US", "Population": 5372.0, "Lat": 44.0169, "Lon": -107.95537}], "Wormeldange": [{"Name": "Wormeldange", "Country Code": "LU", "Population": 786.0, "Lat": 49.61114, "Lon": 6.40546}], "Wormhout": [{"Name": "Wormhout", "Country Code": "FR", "Population": 5216.0, "Lat": 50.88129, "Lon": 2.46901}], "Wormley": [{"Name": "Wormley", "Country Code": "GB", "Population": 1770.0, "Lat": 51.13622, "Lon": -0.64673}], "Wormleysburg": [{"Name": "Wormleysburg", "Country Code": "US", "Population": 3079.0, "Lat": 40.26287, "Lon": -76.91386}], "Worms": [{"Name": "Worms", "Country Code": "DE", "Population": 81099.0, "Lat": 49.63278, "Lon": 8.35916}], "Worofla": [{"Name": "Worofla", "Country Code": "CI", "Population": 2321.0, "Lat": 8.27335, "Lon": -6.90555}], "Worongary": [{"Name": "Worongary", "Country Code": "AU", "Population": 5598.0, "Lat": -28.05, "Lon": 153.35}], "Woronora": [{"Name": "Woronora", "Country Code": "AU", "Population": 2139.0, "Lat": -34.02436, "Lon": 151.03862}], "Woronora Heights": [{"Name": "Woronora Heights", "Country Code": "AU", "Population": 2830.0, "Lat": -34.03562, "Lon": 151.02734}], "Worosantyakaha": [{"Name": "Worosantyakaha", "Country Code": "CI", "Population": 1239.0, "Lat": 9.70657, "Lon": -5.08761}], "Worpswede": [{"Name": "Worpswede", "Country Code": "DE", "Population": 9417.0, "Lat": 53.21667, "Lon": 8.93333}], "Worrigee": [{"Name": "Worrigee", "Country Code": "AU", "Population": 4953.0, "Lat": -34.9, "Lon": 150.63333}], "Worrstadt": [{"Name": "W\u00f6rrstadt", "Country Code": "DE", "Population": 7668.0, "Lat": 49.84861, "Lon": 8.12417}], "Wort": [{"Name": "W\u00f6rt", "Country Code": "DE", "Population": 1444.0, "Lat": 49.03047, "Lon": 10.27239}], "Wortegem": [{"Name": "Wortegem", "Country Code": "BE", "Population": 2070.0, "Lat": 50.85357, "Lon": 3.51}], "Wortel": [{"Name": "Wortel", "Country Code": "BE", "Population": 1832.0, "Lat": 51.39827, "Lon": 4.7946}], "Worth": [{"Name": "W\u00f6rth", "Country Code": "DE", "Population": 4559.0, "Lat": 48.24531, "Lon": 11.90214}, {"Name": "Worth", "Country Code": "US", "Population": 10784.0, "Lat": 41.68975, "Lon": -87.79728}], "Worth am Main": [{"Name": "W\u00f6rth am Main", "Country Code": "DE", "Population": 4983.0, "Lat": 49.7972, "Lon": 9.15389}], "Worth an der Donau": [{"Name": "W\u00f6rth an der Donau", "Country Code": "DE", "Population": 4524.0, "Lat": 49.00093, "Lon": 12.40539}], "Worth an der Isar": [{"Name": "W\u00f6rth an der Isar", "Country Code": "DE", "Population": 2400.0, "Lat": 48.623, "Lon": 12.33944}], "Wortham": [{"Name": "Wortham", "Country Code": "US", "Population": 1028.0, "Lat": 31.78794, "Lon": -96.46248}], "Worthing": [{"Name": "Worthing", "Country Code": "GB", "Population": 99110.0, "Lat": 50.81795, "Lon": -0.37538}], "Worthington": [{"Name": "Worthington", "Country Code": "US", "Population": 1428.0, "Lat": 39.12504, "Lon": -86.97945}, {"Name": "Worthington", "Country Code": "US", "Population": 1577.0, "Lat": 38.54841, "Lon": -82.72433}, {"Name": "Worthington", "Country Code": "US", "Population": 13090.0, "Lat": 43.61996, "Lon": -95.5964}, {"Name": "Worthington", "Country Code": "US", "Population": 1643.0, "Lat": 38.31562, "Lon": -85.56163}, {"Name": "Worthington", "Country Code": "US", "Population": 14498.0, "Lat": 40.09312, "Lon": -83.01796}], "Worthington Hills": [{"Name": "Worthington Hills", "Country Code": "US", "Population": 1496.0, "Lat": 38.30896, "Lon": -85.5269}], "Wortley": [{"Name": "Wortley", "Country Code": "GB", "Population": 0.0, "Lat": 53.48333, "Lon": -1.53333}], "Worton": [{"Name": "Worton", "Country Code": "GB", "Population": 624.0, "Lat": 51.31611, "Lon": -2.04111}], "Wote": [{"Name": "Wote", "Country Code": "KE", "Population": 19725.0, "Lat": -1.78079, "Lon": 37.62882}], "Wotho": [{"Name": "Wotho", "Country Code": "MH", "Population": 160.0, "Lat": 10.16575, "Lon": 166.01022}], "Wotje": [{"Name": "Wotje", "Country Code": "MH", "Population": 880.0, "Lat": 9.45429, "Lon": 170.23674}], "Wotton-under-Edge": [{"Name": "Wotton-under-Edge", "Country Code": "GB", "Population": 5627.0, "Lat": 51.63242, "Lon": -2.34512}], "Wotu": [{"Name": "Wotu", "Country Code": "ID", "Population": 0.0, "Lat": -2.5906, "Lon": 120.804}], "Woubrugge": [{"Name": "Woubrugge", "Country Code": "NL", "Population": 1060.0, "Lat": 52.17, "Lon": 4.63611}], "Woudenberg": [{"Name": "Woudenberg", "Country Code": "NL", "Population": 11305.0, "Lat": 52.08083, "Lon": 5.41667}], "Woudhuis": [{"Name": "Woudhuis", "Country Code": "NL", "Population": 6375.0, "Lat": 52.21323, "Lon": 6.01124}], "Woudrichem": [{"Name": "Woudrichem", "Country Code": "NL", "Population": 4674.0, "Lat": 51.815, "Lon": 5.00139}], "Woudsend": [{"Name": "Woudsend", "Country Code": "NL", "Population": 1375.0, "Lat": 52.94357, "Lon": 5.62843}], "Wouldham": [{"Name": "Wouldham", "Country Code": "GB", "Population": 1253.0, "Lat": 51.34986, "Lon": 0.45816}], "Woumen": [{"Name": "Woumen", "Country Code": "BE", "Population": 1284.0, "Lat": 51.00145, "Lon": 2.86965}], "Woustviller": [{"Name": "Woustviller", "Country Code": "FR", "Population": 3442.0, "Lat": 49.07636, "Lon": 7.00487}], "Wouw": [{"Name": "Wouw", "Country Code": "NL", "Population": 4600.0, "Lat": 51.52167, "Lon": 4.39028}], "Woxall": [{"Name": "Woxall", "Country Code": "US", "Population": 1318.0, "Lat": 40.31066, "Lon": -75.44879}], "Woy Woy": [{"Name": "Woy Woy", "Country Code": "AU", "Population": 10668.0, "Lat": -33.48433, "Lon": 151.32471}], "Wozniki": [{"Name": "Wo\u017cniki", "Country Code": "PL", "Population": 4488.0, "Lat": 50.58934, "Lon": 19.05991}, {"Name": "Wo\u017aniki", "Country Code": "PL", "Population": 1213.0, "Lat": 49.93774, "Lon": 19.49078}], "Wragby": [{"Name": "Wragby", "Country Code": "GB", "Population": 1768.0, "Lat": 53.28333, "Lon": -0.3}], "Wrangell": [{"Name": "Wrangell", "Country Code": "US", "Population": 2382.0, "Lat": 56.47083, "Lon": -132.37667}], "Wrawby": [{"Name": "Wrawby", "Country Code": "GB", "Population": 1469.0, "Lat": 53.56672, "Lon": -0.46194}], "Wray": [{"Name": "Wray", "Country Code": "US", "Population": 2378.0, "Lat": 40.07582, "Lon": -102.22325}], "Wrea Green": [{"Name": "Wrea Green", "Country Code": "GB", "Population": 1373.0, "Lat": 53.77651, "Lon": -2.91573}], "Wreczyca Wielka": [{"Name": "Wr\u0119czyca Wielka", "Country Code": "PL", "Population": 2718.0, "Lat": 50.84589, "Lon": 18.92086}], "Wremen": [{"Name": "Wremen", "Country Code": "DE", "Population": 2023.0, "Lat": 53.65, "Lon": 8.51667}], "Wrens": [{"Name": "Wrens", "Country Code": "US", "Population": 2051.0, "Lat": 33.20765, "Lon": -82.39179}], "Wrentham": [{"Name": "Wrentham", "Country Code": "US", "Population": 11251.0, "Lat": 42.06677, "Lon": -71.32811}], "Wrestedt": [{"Name": "Wrestedt", "Country Code": "DE", "Population": 2996.0, "Lat": 52.90435, "Lon": 10.57494}], "Wrexham": [{"Name": "Wrexham", "Country Code": "GB", "Population": 65692.0, "Lat": 53.04664, "Lon": -2.99132}], "Wriedel": [{"Name": "Wriedel", "Country Code": "DE", "Population": 2596.0, "Lat": 53.0313, "Lon": 10.29848}], "Wriezen": [{"Name": "Wriezen", "Country Code": "DE", "Population": 8213.0, "Lat": 52.72091, "Lon": 14.13425}], "Wright": [{"Name": "Wright", "Country Code": "AU", "Population": 2763.0, "Lat": -35.32239, "Lon": 149.03456}, {"Name": "Wright", "Country Code": "PH", "Population": 4703.0, "Lat": 11.77028, "Lon": 125.02194}, {"Name": "Wright", "Country Code": "US", "Population": 23127.0, "Lat": 30.45575, "Lon": -86.63829}, {"Name": "Wright", "Country Code": "US", "Population": 1862.0, "Lat": 43.75124, "Lon": -105.49201}], "Wright City": [{"Name": "Wright City", "Country Code": "US", "Population": 3445.0, "Lat": 38.82755, "Lon": -91.02014}], "Wright-Patterson AFB": [{"Name": "Wright-Patterson AFB", "Country Code": "US", "Population": 1821.0, "Lat": 39.81113, "Lon": -84.05731}], "Wrightsboro": [{"Name": "Wrightsboro", "Country Code": "US", "Population": 4896.0, "Lat": 34.2885, "Lon": -77.9211}], "Wrightstown": [{"Name": "Wrightstown", "Country Code": "US", "Population": 3325.0, "Lat": 44.32582, "Lon": -88.16288}], "Wrightsville": [{"Name": "Wrightsville", "Country Code": "US", "Population": 2260.0, "Lat": 34.60232, "Lon": -92.21681}, {"Name": "Wrightsville", "Country Code": "US", "Population": 2290.0, "Lat": 40.02565, "Lon": -76.52997}, {"Name": "Wrightsville", "Country Code": "US", "Population": 3642.0, "Lat": 32.72933, "Lon": -82.71986}], "Wrightsville Beach": [{"Name": "Wrightsville Beach", "Country Code": "US", "Population": 2564.0, "Lat": 34.2085, "Lon": -77.79637}], "Wrightwood": [{"Name": "Wrightwood", "Country Code": "US", "Population": 4525.0, "Lat": 34.36083, "Lon": -117.63339}], "Wrington": [{"Name": "Wrington", "Country Code": "GB", "Population": 1918.0, "Lat": 51.36173, "Lon": -2.76319}], "Wrist": [{"Name": "Wrist", "Country Code": "DE", "Population": 2507.0, "Lat": 53.93333, "Lon": 9.76667}], "Writtle": [{"Name": "Writtle", "Country Code": "GB", "Population": 4840.0, "Lat": 51.72906, "Lon": 0.42938}], "Wroblew": [{"Name": "Wr\u00f3blew", "Country Code": "PL", "Population": 340.0, "Lat": 51.61215, "Lon": 18.61487}], "Wroclaw": [{"Name": "Wroc\u0142aw", "Country Code": "PL", "Population": 634893.0, "Lat": 51.1, "Lon": 17.03333}], "Wronki": [{"Name": "Wronki", "Country Code": "PL", "Population": 11462.0, "Lat": 52.71051, "Lon": 16.38044}], "Wrotham": [{"Name": "Wrotham", "Country Code": "GB", "Population": 1921.0, "Lat": 51.30856, "Lon": 0.30899}], "Wroughton": [{"Name": "Wroughton", "Country Code": "GB", "Population": 6474.0, "Lat": 51.52411, "Lon": -1.79559}], "Wroxall": [{"Name": "Wroxall", "Country Code": "GB", "Population": 1753.0, "Lat": 50.61625, "Lon": -1.22292}, {"Name": "Wroxall", "Country Code": "GB", "Population": 1927.0, "Lat": 52.33791, "Lon": -1.66898}], "Wrzasowice": [{"Name": "Wrz\u0105sowice", "Country Code": "PL", "Population": 1865.0, "Lat": 49.95862, "Lon": 19.94654}], "Wrzesnia": [{"Name": "Wrze\u015bnia", "Country Code": "PL", "Population": 28703.0, "Lat": 52.32512, "Lon": 17.56519}], "Wschowa": [{"Name": "Wschowa", "Country Code": "PL", "Population": 14458.0, "Lat": 51.80705, "Lon": 16.31663}], "Wu Kai Sha": [{"Name": "Wu Kai Sha", "Country Code": "HK", "Population": 23511.0, "Lat": 22.43016, "Lon": 114.24212}], "Wu King": [{"Name": "Wu King", "Country Code": "HK", "Population": 13070.0, "Lat": 22.37607, "Lon": 113.96537}], "Wu'an": [{"Name": "Wu\u2019an", "Country Code": "CN", "Population": 0.0, "Lat": 24.60387, "Lon": 117.74539}], "Wu'erqi": [{"Name": "Wu'erqi", "Country Code": "CN", "Population": 16400.0, "Lat": 37.32019, "Lon": 79.55926}], "Wubao": [{"Name": "Wubao", "Country Code": "CN", "Population": 3800.0, "Lat": 24.59589, "Lon": 118.55359}], "Wuchang": [{"Name": "Wuchang", "Country Code": "CN", "Population": 94786.0, "Lat": 44.92754, "Lon": 127.16039}], "Wucheng": [{"Name": "Wucheng", "Country Code": "CN", "Population": 60212.0, "Lat": 29.60077, "Lon": 118.17495}, {"Name": "Wucheng", "Country Code": "CN", "Population": 0.0, "Lat": 31.2837, "Lon": 117.90193}, {"Name": "Wucheng", "Country Code": "CN", "Population": 0.0, "Lat": 37.21086, "Lon": 116.08755}], "Wuchuan": [{"Name": "Wuchuan", "Country Code": "CN", "Population": 104168.0, "Lat": 21.45713, "Lon": 110.76591}], "Wuda": [{"Name": "Wuda", "Country Code": "CN", "Population": 129922.0, "Lat": 39.49944, "Lon": 106.71167}], "Wudalianchi": [{"Name": "Wudalianchi", "Country Code": "CN", "Population": 0.0, "Lat": 48.51431, "Lon": 126.19874}], "Wudalike": [{"Name": "Wudalike", "Country Code": "CN", "Population": 31525.0, "Lat": 38.3618, "Lon": 77.12973}], "Wudan": [{"Name": "Wudan", "Country Code": "CN", "Population": 0.0, "Lat": 42.93444, "Lon": 119.02389}], "Wudil": [{"Name": "Wudil", "Country Code": "NG", "Population": 23066.0, "Lat": 11.80937, "Lon": 8.84422}], "Wudmath": [{"Name": "Wudmath", "Country Code": "AT", "Population": 60.0, "Lat": 46.59634, "Lon": 13.98067}], "Wudong": [{"Name": "Wudong", "Country Code": "CN", "Population": 17190.0, "Lat": 30.2099, "Lon": 107.34127}], "Wuduan": [{"Name": "Wuduan", "Country Code": "CN", "Population": 41803.0, "Lat": 34.57444, "Lon": 117.09528}], "Wuelfershausen": [{"Name": "W\u00fclfershausen", "Country Code": "DE", "Population": 1469.0, "Lat": 50.33201, "Lon": 10.34084}], "Wuelflingen (Kreis 6)": [{"Name": "W\u00fclflingen (Kreis 6)", "Country Code": "CH", "Population": 12598.0, "Lat": 47.51036, "Lon": 8.68333}], "Wuelflingen (Kreis 6) / Haerti": [{"Name": "W\u00fclflingen (Kreis 6) / H\u00e4rti", "Country Code": "CH", "Population": 2602.0, "Lat": 47.51262, "Lon": 8.684}], "Wuelflingen (Kreis 6) / Lindenplatz": [{"Name": "W\u00fclflingen (Kreis 6) / Lindenplatz", "Country Code": "CH", "Population": 2555.0, "Lat": 47.51098, "Lon": 8.6929}], "Wuelflingen (Kreis 6) / Niederfeld": [{"Name": "W\u00fclflingen (Kreis 6) / Niederfeld", "Country Code": "CH", "Population": 1227.0, "Lat": 47.50904, "Lon": 8.67968}], "Wuelflingen (Kreis 6) / Oberfeld": [{"Name": "W\u00fclflingen (Kreis 6) / Oberfeld", "Country Code": "CH", "Population": 4288.0, "Lat": 47.49873, "Lon": 8.69897}], "Wuelfrath": [{"Name": "W\u00fclfrath", "Country Code": "DE", "Population": 21003.0, "Lat": 51.28195, "Lon": 7.03821}], "Wuenschendorf": [{"Name": "W\u00fcnschendorf", "Country Code": "DE", "Population": 3257.0, "Lat": 50.79662, "Lon": 12.09824}], "Wuerflach": [{"Name": "W\u00fcrflach", "Country Code": "AT", "Population": 1009.0, "Lat": 47.77648, "Lon": 16.05463}], "Wuermla": [{"Name": "W\u00fcrmla", "Country Code": "AT", "Population": 669.0, "Lat": 48.25497, "Lon": 15.86031}], "Wuerselen": [{"Name": "W\u00fcrselen", "Country Code": "DE", "Population": 37074.0, "Lat": 50.81809, "Lon": 6.1347}], "Wuerzburg": [{"Name": "W\u00fcrzburg", "Country Code": "DE", "Population": 133731.0, "Lat": 49.79391, "Lon": 9.95121}], "Wufeng": [{"Name": "Wufeng", "Country Code": "CN", "Population": 0.0, "Lat": 27.45, "Lon": 104.83333}, {"Name": "Wufeng", "Country Code": "CN", "Population": 0.0, "Lat": 30.2, "Lon": 110.69081}, {"Name": "Wufeng", "Country Code": "TW", "Population": 65567.0, "Lat": 24.0637, "Lon": 120.698}], "Wufu": [{"Name": "Wufu", "Country Code": "CN", "Population": 8410.0, "Lat": 29.12171, "Lon": 109.11747}], "Wugang": [{"Name": "Wugang", "Country Code": "CN", "Population": 132457.0, "Lat": 26.7279, "Lon": 110.63198}], "Wugui": [{"Name": "Wugui", "Country Code": "CN", "Population": 8341.0, "Lat": 29.81882, "Lon": 105.75563}], "Wuhai": [{"Name": "Wuhai", "Country Code": "CN", "Population": 218427.0, "Lat": 39.68442, "Lon": 106.81583}], "Wuhan": [{"Name": "Wuhan", "Country Code": "CN", "Population": 10392693.0, "Lat": 30.58333, "Lon": 114.26667}], "Wuhe": [{"Name": "Wuhe", "Country Code": "CN", "Population": 32858.0, "Lat": 24.85906, "Lon": 98.66783}], "Wuhe Chengguanzhen": [{"Name": "Wuhe Chengguanzhen", "Country Code": "CN", "Population": 0.0, "Lat": 33.1386, "Lon": 117.86582}], "Wuhu": [{"Name": "Wuhu", "Country Code": "CN", "Population": 1598165.0, "Lat": 31.35259, "Lon": 118.42947}, {"Name": "Wuhu", "Country Code": "CN", "Population": 0.0, "Lat": 31.1463, "Lon": 118.56465}], "Wuji": [{"Name": "Wuji", "Country Code": "CN", "Population": 0.0, "Lat": 38.17677, "Lon": 114.96767}], "Wujia": [{"Name": "Wujia", "Country Code": "CN", "Population": 34549.0, "Lat": 29.63482, "Lon": 105.3911}, {"Name": "Wujia", "Country Code": "CN", "Population": 15549.0, "Lat": 21.76667, "Lon": 109.03333}], "Wujiahe": [{"Name": "Wujiahe", "Country Code": "CN", "Population": 14679.0, "Lat": 34.67167, "Lon": 105.24389}], "Wujian": [{"Name": "Wujian", "Country Code": "CN", "Population": 19861.0, "Lat": 29.18209, "Lon": 105.83436}], "Wujiashan": [{"Name": "Wujiashan", "Country Code": "CN", "Population": 0.0, "Lat": 30.61702, "Lon": 114.13166}], "Wujin": [{"Name": "Wujin", "Country Code": "CN", "Population": 0.0, "Lat": 30.41131, "Lon": 103.81302}], "Wujing": [{"Name": "Wujing", "Country Code": "CN", "Population": 60260.0, "Lat": 36.45, "Lon": 118.4}], "Wukari": [{"Name": "Wukari", "Country Code": "NG", "Population": 92933.0, "Lat": 7.87139, "Lon": 9.77786}], "Wuku": [{"Name": "Wuku", "Country Code": "CN", "Population": 11166.0, "Lat": 33.02879, "Lon": 105.01375}], "Wulagi": [{"Name": "Wulagi", "Country Code": "AU", "Population": 2412.0, "Lat": -12.38345, "Lon": 130.89543}], "Wulai": [{"Name": "Wulai", "Country Code": "TW", "Population": 6182.0, "Lat": 24.86397, "Lon": 121.55133}], "Wulan": [{"Name": "Wulan", "Country Code": "CN", "Population": 0.0, "Lat": 36.56541, "Lon": 104.68401}], "Wulaocun": [{"Name": "Wulaocun", "Country Code": "CN", "Population": 0.0, "Lat": 32.03437, "Lon": 118.79575}], "Wuleswali Bihsud": [{"Name": "Wul\u00easw\u0101l\u012b Bihs\u016bd", "Country Code": "AF", "Population": 0.0, "Lat": 34.3436, "Lon": 67.90567}], "Wuleswali Sayyid Karam": [{"Name": "Wul\u00easw\u0101l\u012b Sayyid Karam", "Country Code": "AF", "Population": 0.0, "Lat": 33.69056, "Lon": 69.36881}], "Wulfen": [{"Name": "Wulfen", "Country Code": "DE", "Population": 1215.0, "Lat": 51.81938, "Lon": 11.93063}], "Wulfsen": [{"Name": "Wulfsen", "Country Code": "DE", "Population": 1582.0, "Lat": 53.3, "Lon": 10.15}], "Wulften": [{"Name": "Wulften", "Country Code": "DE", "Population": 2127.0, "Lat": 51.65999, "Lon": 10.17437}], "Wulguru": [{"Name": "Wulguru", "Country Code": "AU", "Population": 4620.0, "Lat": -19.3285, "Lon": 146.81842}], "Wuli": [{"Name": "Wuli", "Country Code": "CN", "Population": 8010.0, "Lat": 29.35875, "Lon": 108.87544}], "Wuling": [{"Name": "Wuling", "Country Code": "CN", "Population": 24632.0, "Lat": 30.50595, "Lon": 108.25884}, {"Name": "Wuling", "Country Code": "CN", "Population": 0.0, "Lat": 39.46799, "Lon": 114.14843}], "Wulingshan": [{"Name": "Wulingshan", "Country Code": "CN", "Population": 6360.0, "Lat": 29.53038, "Lon": 107.55967}], "Wulingyuan": [{"Name": "Wulingyuan", "Country Code": "CN", "Population": 52712.0, "Lat": 29.34936, "Lon": 110.54407}], "Wulkaprodersdorf": [{"Name": "Wulkaprodersdorf", "Country Code": "AT", "Population": 1944.0, "Lat": 47.79753, "Lon": 16.50447}], "Wulkenzin": [{"Name": "Wulkenzin", "Country Code": "DE", "Population": 1579.0, "Lat": 53.54445, "Lon": 13.16921}], "Wulknitz": [{"Name": "W\u00fclknitz", "Country Code": "DE", "Population": 1877.0, "Lat": 51.36667, "Lon": 13.4}], "Wulkuraka": [{"Name": "Wulkuraka", "Country Code": "AU", "Population": 1210.0, "Lat": -27.61429, "Lon": 152.72191}], "Wullersdorf": [{"Name": "Wullersdorf", "Country Code": "AT", "Population": 737.0, "Lat": 48.62792, "Lon": 16.10089}], "Wulong": [{"Name": "Wulong", "Country Code": "CN", "Population": 78225.0, "Lat": 29.32431, "Lon": 107.76056}, {"Name": "Wulong", "Country Code": "CN", "Population": 5993.0, "Lat": 31.65439, "Lon": 109.43082}], "Wulsbuettel": [{"Name": "Wulsb\u00fcttel", "Country Code": "DE", "Population": 1967.0, "Lat": 53.31667, "Lon": 8.66667}], "Wuluhan": [{"Name": "Wuluhan", "Country Code": "ID", "Population": 0.0, "Lat": -8.3376, "Lon": 113.5503}], "Wuluswali 'Alingar": [{"Name": "Wulusw\u0101l\u012b \u2018Al\u012bng\u0101r", "Country Code": "AF", "Population": 0.0, "Lat": 34.83529, "Lon": 70.3593}], "Wum": [{"Name": "Wum", "Country Code": "CM", "Population": 42457.0, "Lat": 6.38333, "Lon": 10.06667}], "Wuma": [{"Name": "Wuma", "Country Code": "CN", "Population": 6743.0, "Lat": 33.0635, "Lon": 105.44253}, {"Name": "Wuma", "Country Code": "CN", "Population": 0.0, "Lat": 28.01731, "Lon": 120.66595}, {"Name": "Wuma", "Country Code": "CN", "Population": 25919.0, "Lat": 30.85405, "Lon": 109.37645}], "Wumahe": [{"Name": "Wumahe", "Country Code": "CN", "Population": 0.0, "Lat": 47.72348, "Lon": 128.79277}], "Wuming": [{"Name": "Wuming", "Country Code": "CN", "Population": 0.0, "Lat": 23.16082, "Lon": 108.27296}], "Wundanyi": [{"Name": "Wundanyi", "Country Code": "KE", "Population": 12501.0, "Lat": -3.39642, "Lon": 38.35729}], "Wundowie": [{"Name": "Wundowie", "Country Code": "AU", "Population": 1306.0, "Lat": -31.76163, "Lon": 116.3799}], "Wundschuh": [{"Name": "Wundschuh", "Country Code": "AT", "Population": 777.0, "Lat": 46.92639, "Lon": 15.45111}], "Wunsiedel": [{"Name": "Wunsiedel", "Country Code": "DE", "Population": 10295.0, "Lat": 50.03923, "Lon": 12.00342}], "Wunstorf": [{"Name": "Wunstorf", "Country Code": "DE", "Population": 42080.0, "Lat": 52.42377, "Lon": 9.43585}], "Wuping": [{"Name": "Wuping", "Country Code": "CN", "Population": 0.0, "Lat": 25.09803, "Lon": 116.0954}, {"Name": "Wuping", "Country Code": "CN", "Population": 5656.0, "Lat": 33.62859, "Lon": 104.33624}, {"Name": "Wuping", "Country Code": "CN", "Population": 10800.0, "Lat": 29.79628, "Lon": 108.08548}], "Wuppertal": [{"Name": "Wuppertal", "Country Code": "DE", "Population": 360797.0, "Lat": 51.25627, "Lon": 7.14816}], "Wuqi": [{"Name": "Wuqi", "Country Code": "CN", "Population": 0.0, "Lat": 36.92631, "Lon": 108.17171}], "Wuqia": [{"Name": "Wuqia", "Country Code": "CN", "Population": 0.0, "Lat": 39.70979, "Lon": 75.19696}], "Wuqiang": [{"Name": "Wuqiang", "Country Code": "CN", "Population": 0.0, "Lat": 38.03482, "Lon": 115.95743}], "Wuqiao": [{"Name": "Wuqiao", "Country Code": "CN", "Population": 20672.0, "Lat": 30.77967, "Lon": 108.45506}], "Wuquan": [{"Name": "Wuquan", "Country Code": "CN", "Population": 0.0, "Lat": 33.44408, "Lon": 113.5709}], "Wurenlingen": [{"Name": "W\u00fcrenlingen", "Country Code": "CH", "Population": 3741.0, "Lat": 47.53356, "Lon": 8.25666}], "Wurenlos": [{"Name": "W\u00fcrenlos", "Country Code": "CH", "Population": 5497.0, "Lat": 47.44205, "Lon": 8.36261}], "Wurigelebur": [{"Name": "Wurigelebur", "Country Code": "ID", "Population": 0.0, "Lat": -3.7627, "Lon": 138.8085}], "Wurmannsquick": [{"Name": "Wurmannsquick", "Country Code": "DE", "Population": 3710.0, "Lat": 48.35334, "Lon": 12.78603}], "Wurmberg": [{"Name": "Wurmberg", "Country Code": "DE", "Population": 2898.0, "Lat": 48.86667, "Lon": 8.81667}], "Wurmlingen": [{"Name": "Wurmlingen", "Country Code": "DE", "Population": 3812.0, "Lat": 48.0, "Lon": 8.78333}], "Wurmsham": [{"Name": "Wurmsham", "Country Code": "DE", "Population": 1351.0, "Lat": 48.35, "Lon": 12.33333}], "Wurno": [{"Name": "Wurno", "Country Code": "NG", "Population": 13087.0, "Lat": 13.29048, "Lon": 5.42373}], "Wurruk": [{"Name": "Wurruk", "Country Code": "AU", "Population": 1072.0, "Lat": -38.11667, "Lon": 147.03333}], "Wurrumiyanga": [{"Name": "Wurrumiyanga", "Country Code": "AU", "Population": 1567.0, "Lat": -11.76082, "Lon": 130.62555}], "Wurtland": [{"Name": "Wurtland", "Country Code": "US", "Population": 1043.0, "Lat": 38.55036, "Lon": -82.77794}], "Wurtsboro": [{"Name": "Wurtsboro", "Country Code": "US", "Population": 1173.0, "Lat": 41.57676, "Lon": -74.4871}], "Wurtulla": [{"Name": "Wurtulla", "Country Code": "AU", "Population": 5852.0, "Lat": -26.75648, "Lon": 153.12805}], "Wurzbach": [{"Name": "Wurzbach", "Country Code": "DE", "Population": 3864.0, "Lat": 50.46357, "Lon": 11.53779}], "Wurzen": [{"Name": "Wurzen", "Country Code": "DE", "Population": 15233.0, "Lat": 51.3707, "Lon": 12.73939}], "Wushan": [{"Name": "Wushan", "Country Code": "CN", "Population": 19829.0, "Lat": 30.93725, "Lon": 107.9466}, {"Name": "Wushan", "Country Code": "CN", "Population": 33881.0, "Lat": 36.24725, "Lon": 118.83832}, {"Name": "Wushan", "Country Code": "CN", "Population": 68643.0, "Lat": 34.72083, "Lon": 104.88583}, {"Name": "Wushan", "Country Code": "CN", "Population": 117873.0, "Lat": 31.07749, "Lon": 109.87639}], "Wushi": [{"Name": "Wushi", "Country Code": "CN", "Population": 0.0, "Lat": 41.15167, "Lon": 79.225}], "Wushishi": [{"Name": "Wushishi", "Country Code": "NG", "Population": 0.0, "Lat": 9.73035, "Lon": 6.07305}], "Wustenrot": [{"Name": "W\u00fcstenrot", "Country Code": "DE", "Population": 6770.0, "Lat": 49.08083, "Lon": 9.46056}], "Wusterhausen": [{"Name": "Wusterhausen", "Country Code": "DE", "Population": 6632.0, "Lat": 52.8912, "Lon": 12.46021}], "Wusterhusen": [{"Name": "Wusterhusen", "Country Code": "DE", "Population": 1370.0, "Lat": 54.11312, "Lon": 13.61608}], "Wustermark": [{"Name": "Wustermark", "Country Code": "DE", "Population": 7729.0, "Lat": 52.55, "Lon": 12.95}], "Wusterwitz": [{"Name": "Wusterwitz", "Country Code": "DE", "Population": 3184.0, "Lat": 52.36666, "Lon": 12.38488}], "Wustrow": [{"Name": "Wustrow", "Country Code": "DE", "Population": 1312.0, "Lat": 53.47765, "Lon": 13.15569}, {"Name": "Wustrow", "Country Code": "DE", "Population": 3086.0, "Lat": 52.9237, "Lon": 11.12846}], "Wusu": [{"Name": "Wusu", "Country Code": "CN", "Population": 72587.0, "Lat": 44.43105, "Lon": 84.67623}], "Wutahpur": [{"Name": "Wu\u1e6fahp\u016br", "Country Code": "AF", "Population": 0.0, "Lat": 34.91914, "Lon": 71.09863}], "Wutamu": [{"Name": "Wutamu", "Country Code": "CN", "Population": 4360.0, "Lat": 39.02211, "Lon": 88.13317}], "Wutan": [{"Name": "Wutan", "Country Code": "CN", "Population": 29206.0, "Lat": 29.25696, "Lon": 106.0629}], "Wutoeschingen": [{"Name": "Wut\u00f6schingen", "Country Code": "DE", "Population": 6675.0, "Lat": 47.66019, "Lon": 8.36755}], "Wutong": [{"Name": "Wutong", "Country Code": "CN", "Population": 5530.0, "Lat": 30.88962, "Lon": 108.05658}], "Wutongshu": [{"Name": "Wutongshu", "Country Code": "CN", "Population": 20506.0, "Lat": 38.18333, "Lon": 106.28333}], "Wuustwezel": [{"Name": "Wuustwezel", "Country Code": "BE", "Population": 15000.0, "Lat": 51.39214, "Lon": 4.59546}], "Wuwei": [{"Name": "Wuwei", "Country Code": "CN", "Population": 1010295.0, "Lat": 37.92672, "Lon": 102.63202}], "Wuxi": [{"Name": "Wuxi", "Country Code": "CN", "Population": 66442.0, "Lat": 26.5844, "Lon": 111.859}, {"Name": "Wuxi", "Country Code": "CN", "Population": 4396835.0, "Lat": 31.56887, "Lon": 120.28857}], "Wuxuan": [{"Name": "Wuxuan", "Country Code": "CN", "Population": 0.0, "Lat": 23.59674, "Lon": 109.65914}], "Wuxue": [{"Name": "Wuxue", "Country Code": "CN", "Population": 220661.0, "Lat": 29.85058, "Lon": 115.5525}], "Wuxue Shi": [{"Name": "Wuxue Shi", "Country Code": "CN", "Population": 0.0, "Lat": 29.91525, "Lon": 115.41432}], "Wuyang": [{"Name": "Wuyang", "Country Code": "CN", "Population": 79070.0, "Lat": 31.9925, "Lon": 116.24722}, {"Name": "Wuyang", "Country Code": "CN", "Population": 2590.0, "Lat": 26.74278, "Lon": 110.32833}], "Wuyi": [{"Name": "Wuyi", "Country Code": "CN", "Population": 0.0, "Lat": 37.79957, "Lon": 115.89058}], "Wuying": [{"Name": "Wuying", "Country Code": "CN", "Population": 34509.0, "Lat": 35.01485, "Lon": 105.8988}], "Wuyishan": [{"Name": "Wuyishan", "Country Code": "CN", "Population": 137133.0, "Lat": 27.75995, "Lon": 118.03066}], "Wuyo": [{"Name": "Wuyo", "Country Code": "NG", "Population": 9189.0, "Lat": 10.38522, "Lon": 11.69678}], "Wuyuan": [{"Name": "Wuyuan", "Country Code": "CN", "Population": 0.0, "Lat": 30.51539, "Lon": 120.94856}, {"Name": "Wuyuan", "Country Code": "CN", "Population": 0.0, "Lat": 29.24972, "Lon": 117.85472}], "Wuyucun": [{"Name": "Wuyucun", "Country Code": "CN", "Population": 3100.0, "Lat": 24.33551, "Lon": 118.14489}], "Wuyun": [{"Name": "Wuyun", "Country Code": "CN", "Population": 0.0, "Lat": 28.65388, "Lon": 120.06693}], "Wuzhen": [{"Name": "Wuzhen", "Country Code": "CN", "Population": 60000.0, "Lat": 30.74536, "Lon": 120.4851}], "Wuzhi": [{"Name": "Wuzhi", "Country Code": "CN", "Population": 0.0, "Lat": 24.3221, "Lon": 111.233}], "Wuzhishan": [{"Name": "Wuzhishan", "Country Code": "CN", "Population": 112269.0, "Lat": 18.78229, "Lon": 109.5013}], "Wuzhong": [{"Name": "Wuzhong", "Country Code": "CN", "Population": 0.0, "Lat": 37.9867, "Lon": 106.201}], "Wuzhou": [{"Name": "Wuzhou", "Country Code": "CN", "Population": 761948.0, "Lat": 23.48054, "Lon": 111.28848}], "Wy Yung": [{"Name": "Wy Yung", "Country Code": "AU", "Population": 1580.0, "Lat": -37.8, "Lon": 147.58333}], "Wyandanch": [{"Name": "Wyandanch", "Country Code": "US", "Population": 11647.0, "Lat": 40.75399, "Lon": -73.3604}], "Wyandotte": [{"Name": "Wyandotte", "Country Code": "US", "Population": 25156.0, "Lat": 42.21421, "Lon": -83.14992}], "Wychbold": [{"Name": "Wychbold", "Country Code": "GB", "Population": 1366.0, "Lat": 52.29045, "Lon": -2.11555}], "Wychwood": [{"Name": "Wychwood", "Country Code": "CA", "Population": 14349.0, "Lat": 43.67757, "Lon": -79.4218}], "Wyckoff": [{"Name": "Wyckoff", "Country Code": "US", "Population": 17124.0, "Lat": 41.00954, "Lon": -74.17292}], "Wydminy": [{"Name": "Wydminy", "Country Code": "PL", "Population": 2448.0, "Lat": 53.98194, "Lon": 22.03239}], "Wye": [{"Name": "Wye", "Country Code": "GB", "Population": 1915.0, "Lat": 51.18249, "Lon": 0.93678}], "Wyee": [{"Name": "Wyee", "Country Code": "AU", "Population": 2377.0, "Lat": -33.18252, "Lon": 151.48804}], "Wyee Point": [{"Name": "Wyee Point", "Country Code": "AU", "Population": 1077.0, "Lat": -33.14585, "Lon": 151.50783}], "Wyhl": [{"Name": "Wyhl", "Country Code": "DE", "Population": 3645.0, "Lat": 48.16617, "Lon": 7.64917}], "Wyk auf Foehr": [{"Name": "Wyk auf F\u00f6hr", "Country Code": "DE", "Population": 4429.0, "Lat": 54.6914, "Lon": 8.56702}], "Wykagyl": [{"Name": "Wykagyl", "Country Code": "US", "Population": 14146.0, "Lat": 40.94149, "Lon": -73.79902}], "Wylam": [{"Name": "Wylam", "Country Code": "GB", "Population": 1412.0, "Lat": 54.97654, "Lon": -1.82187}], "Wyldwood": [{"Name": "Wyldwood", "Country Code": "US", "Population": 2505.0, "Lat": 30.12938, "Lon": -97.47277}], "Wylie": [{"Name": "Wylie", "Country Code": "US", "Population": 46708.0, "Lat": 33.01512, "Lon": -96.53888}], "Wymeswold": [{"Name": "Wymeswold", "Country Code": "GB", "Population": 1296.0, "Lat": 52.80536, "Lon": -1.11288}], "Wymiarki": [{"Name": "Wymiarki", "Country Code": "PL", "Population": 1300.0, "Lat": 51.51109, "Lon": 15.08208}], "Wymore": [{"Name": "Wymore", "Country Code": "US", "Population": 1414.0, "Lat": 40.12222, "Lon": -96.66252}], "Wynantskill": [{"Name": "Wynantskill", "Country Code": "US", "Population": 3276.0, "Lat": 42.69675, "Lon": -73.64428}], "Wynau": [{"Name": "Wynau", "Country Code": "CH", "Population": 1610.0, "Lat": 47.2557, "Lon": 7.81626}], "Wyncote": [{"Name": "Wyncote", "Country Code": "US", "Population": 3044.0, "Lat": 40.09455, "Lon": -75.14879}], "Wyndham": [{"Name": "Wyndham", "Country Code": "US", "Population": 9785.0, "Lat": 37.69848, "Lon": -77.61249}], "Wyndham Vale": [{"Name": "Wyndham Vale", "Country Code": "AU", "Population": 20518.0, "Lat": -37.89138, "Lon": 144.62368}], "Wyndmoor": [{"Name": "Wyndmoor", "Country Code": "US", "Population": 5498.0, "Lat": 40.08122, "Lon": -75.18934}], "Wynigen": [{"Name": "Wynigen", "Country Code": "CH", "Population": 2090.0, "Lat": 47.10586, "Lon": 7.66681}], "Wynn Vale": [{"Name": "Wynn Vale", "Country Code": "AU", "Population": 7610.0, "Lat": -34.79942, "Lon": 138.68714}], "Wynne": [{"Name": "Wynne", "Country Code": "US", "Population": 8193.0, "Lat": 35.22453, "Lon": -90.78678}], "Wynnewood": [{"Name": "Wynnewood", "Country Code": "US", "Population": 2223.0, "Lat": 34.64342, "Lon": -97.16447}], "Wynnum": [{"Name": "Wynnum", "Country Code": "AU", "Population": 12650.0, "Lat": -27.44527, "Lon": 153.15813}], "Wynnum West": [{"Name": "Wynnum West", "Country Code": "AU", "Population": 12018.0, "Lat": -27.45824, "Lon": 153.15319}], "Wynyard": [{"Name": "Wynyard", "Country Code": "AU", "Population": 5820.0, "Lat": -40.9897, "Lon": 145.72617}, {"Name": "Wynyard", "Country Code": "CA", "Population": 1732.0, "Lat": 51.76674, "Lon": -104.18436}], "Wyoming": [{"Name": "Wyoming", "Country Code": "AU", "Population": 9927.0, "Lat": -33.40387, "Lon": 151.36254}, {"Name": "Wyoming", "Country Code": "US", "Population": 1376.0, "Lat": 41.0617, "Lon": -89.77316}, {"Name": "Wyoming", "Country Code": "US", "Population": 75275.0, "Lat": 42.91336, "Lon": -85.70531}, {"Name": "Wyoming", "Country Code": "US", "Population": 7813.0, "Lat": 45.33636, "Lon": -92.99716}, {"Name": "Wyoming", "Country Code": "US", "Population": 8411.0, "Lat": 39.23117, "Lon": -84.46578}, {"Name": "Wyoming", "Country Code": "US", "Population": 1465.0, "Lat": 39.11817, "Lon": -75.55881}, {"Name": "Wyoming", "Country Code": "US", "Population": 3044.0, "Lat": 41.31175, "Lon": -75.83742}], "Wyomissing": [{"Name": "Wyomissing", "Country Code": "US", "Population": 10469.0, "Lat": 40.32954, "Lon": -75.96521}], "Wyomissing Hills": [{"Name": "Wyomissing Hills", "Country Code": "US", "Population": 2606.0, "Lat": 40.33759, "Lon": -75.97966}], "Wyong": [{"Name": "Wyong", "Country Code": "AU", "Population": 4309.0, "Lat": -33.28254, "Lon": 151.42327}], "Wyongah": [{"Name": "Wyongah", "Country Code": "AU", "Population": 1998.0, "Lat": -33.27468, "Lon": 151.48898}], "Wyreema": [{"Name": "Wyreema", "Country Code": "AU", "Population": 1778.0, "Lat": -27.65583, "Lon": 151.85532}], "Wyry": [{"Name": "Wyry", "Country Code": "PL", "Population": 3304.0, "Lat": 50.13296, "Lon": 18.90052}], "Wyrzysk": [{"Name": "Wyrzysk", "Country Code": "PL", "Population": 5263.0, "Lat": 53.153, "Lon": 17.26802}], "Wysmierzyce": [{"Name": "Wy\u015bmierzyce", "Country Code": "PL", "Population": 858.0, "Lat": 51.62494, "Lon": 20.81394}], "Wysoka": [{"Name": "Wysoka", "Country Code": "PL", "Population": 2728.0, "Lat": 53.18091, "Lon": 17.08353}, {"Name": "Wysoka", "Country Code": "PL", "Population": 1500.0, "Lat": 49.90713, "Lon": 19.60356}, {"Name": "Wysoka", "Country Code": "PL", "Population": 2400.0, "Lat": 50.04474, "Lon": 22.26002}, {"Name": "Wysoka", "Country Code": "PL", "Population": 1246.0, "Lat": 50.42989, "Lon": 19.35368}], "Wysoka Glogowska": [{"Name": "Wysoka G\u0142ogowska", "Country Code": "PL", "Population": 2213.0, "Lat": 50.16019, "Lon": 22.02124}], "Wysoka Strzyzowska": [{"Name": "Wysoka Strzy\u017cowska", "Country Code": "PL", "Population": 2199.0, "Lat": 49.83056, "Lon": 21.74074}], "Wysokie": [{"Name": "Wysokie", "Country Code": "PL", "Population": 602.0, "Lat": 50.91093, "Lon": 22.666}], "Wysokie Mazowieckie": [{"Name": "Wysokie Mazowieckie", "Country Code": "PL", "Population": 9203.0, "Lat": 52.91661, "Lon": 22.51712}], "Wyssachen": [{"Name": "Wyssachen", "Country Code": "CH", "Population": 1251.0, "Lat": 47.07851, "Lon": 7.82922}], "Wyszki": [{"Name": "Wyszki", "Country Code": "PL", "Population": 0.0, "Lat": 52.84129, "Lon": 22.98119}], "Wyszkow": [{"Name": "Wyszk\u00f3w", "Country Code": "PL", "Population": 26500.0, "Lat": 52.59278, "Lon": 21.4584}], "Wyszogrod": [{"Name": "Wyszogr\u00f3d", "Country Code": "PL", "Population": 2779.0, "Lat": 52.38988, "Lon": 20.19081}], "Wytheville": [{"Name": "Wytheville", "Country Code": "US", "Population": 8115.0, "Lat": 36.94845, "Lon": -81.08481}], "X Cabil": [{"Name": "X Cabil", "Country Code": "MX", "Population": 1087.0, "Lat": 20.16542, "Lon": -88.46398}], "X-Can": [{"Name": "X-C\u00e1n", "Country Code": "MX", "Population": 5191.0, "Lat": 20.85715, "Lon": -87.66915}], "X-Hazil Sur": [{"Name": "X-Hazil Sur", "Country Code": "MX", "Population": 1422.0, "Lat": 19.39167, "Lon": -88.07417}], "X-pichil": [{"Name": "X-pichil", "Country Code": "MX", "Population": 1340.0, "Lat": 19.69529, "Lon": -88.37681}], "Xa GJa K'Nang": [{"Name": "X\u00e3 \u0110\u1ea1 K'N\u00e0ng", "Country Code": "VN", "Population": 0.0, "Lat": 11.89361, "Lon": 108.13481}], "Xa Hoai GJuc": [{"Name": "X\u00e3 Ho\u00e0i \u0110\u1ee9c", "Country Code": "VN", "Population": 0.0, "Lat": 11.74475, "Lon": 108.14689}], "Xa Phuc Tho": [{"Name": "X\u00e3 Ph\u00fac Th\u1ecd", "Country Code": "VN", "Population": 0.0, "Lat": 11.80701, "Lon": 108.12875}], "Xa Tan Ha": [{"Name": "X\u00e3 T\u00e2n H\u00e0", "Country Code": "VN", "Population": 0.0, "Lat": 11.73475, "Lon": 108.2023}], "Xa Tan Thanh": [{"Name": "X\u00e3 T\u00e2n Thanh", "Country Code": "VN", "Population": 0.0, "Lat": 11.7522, "Lon": 108.06967}], "Xa Tan Van": [{"Name": "X\u00e3 T\u00e2n V\u0103n", "Country Code": "VN", "Population": 0.0, "Lat": 11.77545, "Lon": 108.22464}], "Xaaga": [{"Name": "Xaaga", "Country Code": "MX", "Population": 1465.0, "Lat": 16.9042, "Lon": -96.32779}], "Xacaxomulco": [{"Name": "Xacaxomulco", "Country Code": "MX", "Population": 1022.0, "Lat": 19.18866, "Lon": -97.14703}], "Xacmaz": [{"Name": "Xa\u00e7maz", "Country Code": "AZ", "Population": 37175.0, "Lat": 41.46426, "Lon": 48.80565}], "Xadani": [{"Name": "Xadani", "Country Code": "MX", "Population": 1042.0, "Lat": 15.94825, "Lon": -96.07364}], "Xagacia": [{"Name": "Xagac\u00eda", "Country Code": "MX", "Population": 1047.0, "Lat": 17.15436, "Lon": -96.26753}], "Xaghra": [{"Name": "Xag\u0127ra", "Country Code": "MT", "Population": 3680.0, "Lat": 36.05, "Lon": 14.26444}], "Xai-Xai": [{"Name": "Xai-Xai", "Country Code": "MZ", "Population": 154356.0, "Lat": -25.05194, "Lon": 33.64417}], "Xaibe": [{"Name": "Xaibe", "Country Code": "BZ", "Population": 1575.0, "Lat": 18.38654, "Lon": -88.43393}], "Xalacapan de Lucke": [{"Name": "Xalacapan de Lucke", "Country Code": "MX", "Population": 4398.0, "Lat": 19.90403, "Lon": -97.59047}], "Xalapa de Enriquez": [{"Name": "Xalapa de Enr\u00edquez", "Country Code": "MX", "Population": 424755.0, "Lat": 19.53124, "Lon": -96.91589}], "Xalatlaco": [{"Name": "Xalatlaco", "Country Code": "MX", "Population": 15043.0, "Lat": 19.18314, "Lon": -99.41844}, {"Name": "Xalatlaco", "Country Code": "MX", "Population": 1228.0, "Lat": 19.04972, "Lon": -97.04111}], "Xalatzala": [{"Name": "Xalatzala", "Country Code": "MX", "Population": 2042.0, "Lat": 17.47355, "Lon": -98.57355}], "Xalisco": [{"Name": "Xalisco", "Country Code": "MX", "Population": 35702.0, "Lat": 21.451, "Lon": -104.8983}], "Xalitla": [{"Name": "Xalitla", "Country Code": "MX", "Population": 1350.0, "Lat": 17.99744, "Lon": -99.54438}], "Xalitzintla": [{"Name": "Xalitzintla", "Country Code": "MX", "Population": 2196.0, "Lat": 19.0817, "Lon": -98.5162}], "Xalostoc": [{"Name": "Xalostoc", "Country Code": "MX", "Population": 3566.0, "Lat": 18.72251, "Lon": -98.89877}], "Xaloztoc": [{"Name": "Xaloztoc", "Country Code": "MX", "Population": 10191.0, "Lat": 19.40775, "Lon": -98.04602}], "Xalpatlahuac": [{"Name": "Xalpatl\u00e1huac", "Country Code": "MX", "Population": 3668.0, "Lat": 17.02333, "Lon": -99.33065}, {"Name": "Xalpatlahuac", "Country Code": "MX", "Population": 4255.0, "Lat": 17.47066, "Lon": -98.60675}], "Xaltepec": [{"Name": "Xaltepec", "Country Code": "MX", "Population": 2583.0, "Lat": 20.16495, "Lon": -98.00128}, {"Name": "Xaltepec", "Country Code": "MX", "Population": 8865.0, "Lat": 18.88163, "Lon": -97.60825}], "Xaltepuxtla": [{"Name": "Xaltepuxtla", "Country Code": "MX", "Population": 3761.0, "Lat": 20.17546, "Lon": -97.97208}], "Xaltianguis": [{"Name": "Xaltianguis", "Country Code": "MX", "Population": 6965.0, "Lat": 17.09834, "Lon": -99.71557}], "Xalticpac": [{"Name": "Xalticpac", "Country Code": "MX", "Population": 1214.0, "Lat": 19.84301, "Lon": -97.59556}], "Xaltocan": [{"Name": "Xaltocan", "Country Code": "MX", "Population": 705.0, "Lat": 19.42427, "Lon": -98.21033}], "Xam Nua": [{"Name": "Xam Nua", "Country Code": "LA", "Population": 46800.0, "Lat": 20.4164, "Lon": 104.045}], "Xambabazar": [{"Name": "Xambabazar", "Country Code": "CN", "Population": 19796.0, "Lat": 36.88639, "Lon": 81.50972}], "Xamtay": [{"Name": "Xamtay", "Country Code": "LA", "Population": 0.0, "Lat": 19.94515, "Lon": 104.51722}], "Xanaba": [{"Name": "Xanab\u00e1", "Country Code": "MX", "Population": 1440.0, "Lat": 20.83611, "Lon": -89.01372}], "Xangda": [{"Name": "Xangda", "Country Code": "CN", "Population": 0.0, "Lat": 32.20551, "Lon": 96.47809}], "Xangongo": [{"Name": "Xangongo", "Country Code": "AO", "Population": 35000.0, "Lat": -16.7444, "Lon": 14.97494}], "Xankandi": [{"Name": "Xankandi", "Country Code": "AZ", "Population": 53100.0, "Lat": 39.8177, "Lon": 46.7528}], "Xanten": [{"Name": "Xanten", "Country Code": "DE", "Population": 21587.0, "Lat": 51.65877, "Lon": 6.45297}], "Xanthi": [{"Name": "X\u00e1nthi", "Country Code": "GR", "Population": 48221.0, "Lat": 41.13488, "Lon": 24.888}], "Xanxere": [{"Name": "Xanxer\u00ea", "Country Code": "BR", "Population": 32957.0, "Lat": -26.87694, "Lon": -52.40417}], "Xapuri": [{"Name": "Xapuri", "Country Code": "BR", "Population": 5721.0, "Lat": -10.65167, "Lon": -68.50444}], "Xarardheere": [{"Name": "Xarardheere", "Country Code": "SO", "Population": 2018.0, "Lat": 4.6544, "Lon": 47.8575}], "Xarlung": [{"Name": "Xarlung", "Country Code": "CN", "Population": 0.0, "Lat": 29.9, "Lon": 93.3}], "Xarre": [{"Name": "Xarr\u00eb", "Country Code": "AL", "Population": 0.0, "Lat": 39.72833, "Lon": 20.05444}], "Xarsingma": [{"Name": "Xarsingma", "Country Code": "CN", "Population": 0.0, "Lat": 27.49402, "Lon": 88.95296}], "Xativa": [{"Name": "X\u00e0tiva", "Country Code": "ES", "Population": 29386.0, "Lat": 38.99042, "Lon": -0.51852}], "Xaya": [{"Name": "Xaya", "Country Code": "MX", "Population": 1814.0, "Lat": 20.29653, "Lon": -89.18674}], "Xayacatlan de Bravo": [{"Name": "Xayacatl\u00e1n de Bravo", "Country Code": "MX", "Population": 1156.0, "Lat": 18.23712, "Lon": -97.97524}], "Xaysetha": [{"Name": "Xaysetha", "Country Code": "LA", "Population": 0.0, "Lat": 14.81444, "Lon": 106.93444}], "Xbacab": [{"Name": "Xbacab", "Country Code": "MX", "Population": 1649.0, "Lat": 18.94139, "Lon": -90.72194}], "Xcanatun": [{"Name": "Xcanat\u00fan", "Country Code": "MX", "Population": 1495.0, "Lat": 21.07683, "Lon": -89.63156}], "Xebat": [{"Name": "Xebat", "Country Code": "IQ", "Population": 0.0, "Lat": 36.27798, "Lon": 43.67065}], "Xegar": [{"Name": "X\u00eagar", "Country Code": "CN", "Population": 0.0, "Lat": 28.63333, "Lon": 87.08333}], "Xenia": [{"Name": "Xenia", "Country Code": "US", "Population": 25976.0, "Lat": 39.68478, "Lon": -83.92965}], "Xeraco": [{"Name": "Xeraco", "Country Code": "ES", "Population": 5000.0, "Lat": 39.03333, "Lon": -0.21667}], "Xeresa": [{"Name": "Xeresa", "Country Code": "ES", "Population": 1958.0, "Lat": 39.01667, "Lon": -0.21667}], "Xertigny": [{"Name": "Xertigny", "Country Code": "FR", "Population": 2828.0, "Lat": 48.04394, "Lon": 6.40836}], "Xewkija": [{"Name": "Xewkija", "Country Code": "MT", "Population": 3303.0, "Lat": 36.03278, "Lon": 14.25806}], "Xghajra": [{"Name": "Xg\u0127ajra", "Country Code": "MT", "Population": 1830.0, "Lat": 35.88556, "Lon": 14.5475}], "Xhafzotaj": [{"Name": "Xhafzotaj", "Country Code": "AL", "Population": 0.0, "Lat": 41.34444, "Lon": 19.5475}], "Xhendelesse": [{"Name": "Xhendelesse", "Country Code": "BE", "Population": 1729.0, "Lat": 50.60492, "Lon": 5.77804}], "Xhendremael": [{"Name": "Xhendremael", "Country Code": "BE", "Population": 1663.0, "Lat": 50.70454, "Lon": 5.47984}], "Xhimojay": [{"Name": "Xhimojay", "Country Code": "MX", "Population": 2503.0, "Lat": 19.92144, "Lon": -99.64232}], "Xhitey": [{"Name": "Xhitey", "Country Code": "MX", "Population": 1189.0, "Lat": 19.98163, "Lon": -99.52779}], "Xhixhata": [{"Name": "Xhixhata", "Country Code": "MX", "Population": 2195.0, "Lat": 19.97056, "Lon": -99.54611}], "Xhoris": [{"Name": "Xhoris", "Country Code": "BE", "Population": 1645.0, "Lat": 50.44586, "Lon": 5.60431}], "Xi Xian Chengguanzhen": [{"Name": "Xi Xian Chengguanzhen", "Country Code": "CN", "Population": 0.0, "Lat": 32.34361, "Lon": 114.72944}], "Xi'an": [{"Name": "Xi\u2019an", "Country Code": "CN", "Population": 9600000.0, "Lat": 34.25833, "Lon": 108.92861}, {"Name": "Xi\u2019an", "Country Code": "CN", "Population": 0.0, "Lat": 44.57568, "Lon": 129.60862}], "Xia'er": [{"Name": "Xia\u2019er", "Country Code": "CN", "Population": 0.0, "Lat": 29.00594, "Lon": 101.51439}], "Xiaba": [{"Name": "Xiaba", "Country Code": "CN", "Population": 17486.0, "Lat": 29.11684, "Lon": 106.51006}], "Xiabaishi": [{"Name": "Xiabaishi", "Country Code": "CN", "Population": 8320.0, "Lat": 26.81528, "Lon": 119.67917}], "Xiabao": [{"Name": "Xiabao", "Country Code": "CN", "Population": 14458.0, "Lat": 31.57485, "Lon": 109.52092}], "Xiacang": [{"Name": "Xiacang", "Country Code": "CN", "Population": 3546.0, "Lat": 39.78639, "Lon": 117.41667}], "Xiagezhuang": [{"Name": "Xiagezhuang", "Country Code": "CN", "Population": 30706.0, "Lat": 36.69306, "Lon": 120.43472}], "Xiahu": [{"Name": "Xiahu", "Country Code": "CN", "Population": 5070.0, "Lat": 26.61056, "Lon": 119.94833}], "Xiahuayuan": [{"Name": "Xiahuayuan", "Country Code": "CN", "Population": 0.0, "Lat": 40.50083, "Lon": 115.28089}], "Xiajiang": [{"Name": "Xiajiang", "Country Code": "CN", "Population": 1198.0, "Lat": 25.75556, "Lon": 108.69194}], "Xiajin": [{"Name": "Xiajin", "Country Code": "CN", "Population": 0.0, "Lat": 36.95922, "Lon": 116.00011}], "Xialiang": [{"Name": "Xialiang", "Country Code": "CN", "Population": 1500.0, "Lat": 32.07673, "Lon": 106.77151}], "Xialu": [{"Name": "Xialu", "Country Code": "CN", "Population": 26300.0, "Lat": 29.94167, "Lon": 108.08442}], "Xiamen": [{"Name": "Xiamen", "Country Code": "CN", "Population": 4617251.0, "Lat": 24.47979, "Lon": 118.08187}], "Xiamengxiang": [{"Name": "Xiamengxiang", "Country Code": "CN", "Population": 0.0, "Lat": 31.60676, "Lon": 103.21294}], "Xiancun": [{"Name": "Xiancun", "Country Code": "CN", "Population": 2150.0, "Lat": 26.93861, "Lon": 119.36028}], "Xianfeng": [{"Name": "Xianfeng", "Country Code": "CN", "Population": 48586.0, "Lat": 29.21004, "Lon": 106.30012}], "Xiangcheng": [{"Name": "Xiangcheng", "Country Code": "CN", "Population": 121959.0, "Lat": 25.46687, "Lon": 100.56248}, {"Name": "Xiangcheng", "Country Code": "CN", "Population": 0.0, "Lat": 31.93667, "Lon": 111.91778}], "Xiangcheng Chengguanzhen": [{"Name": "Xiangcheng Chengguanzhen", "Country Code": "CN", "Population": 65833.0, "Lat": 33.84703, "Lon": 113.4778}], "Xiangdong": [{"Name": "Xiangdong", "Country Code": "CN", "Population": 0.0, "Lat": 27.65207, "Lon": 113.72406}], "Xiangfang": [{"Name": "Xiangfang", "Country Code": "CN", "Population": 0.0, "Lat": 45.71215, "Lon": 126.6605}], "Xiangfeng": [{"Name": "Xiangfeng", "Country Code": "CN", "Population": 0.0, "Lat": 29.50761, "Lon": 109.40266}], "Xianghe": [{"Name": "Xianghe", "Country Code": "CN", "Population": 0.0, "Lat": 39.75845, "Lon": 116.99943}], "Xianghu": [{"Name": "Xianghu", "Country Code": "CN", "Population": 0.0, "Lat": 25.8, "Lon": 116.0}], "Xiangjiaba": [{"Name": "Xiangjiaba", "Country Code": "CN", "Population": 102143.0, "Lat": 28.63266, "Lon": 104.40416}], "Xiangkou": [{"Name": "Xiangkou", "Country Code": "CN", "Population": 0.0, "Lat": 29.32801, "Lon": 107.76417}], "Xianglong": [{"Name": "Xianglong", "Country Code": "CN", "Population": 25006.0, "Lat": 30.26125, "Lon": 106.57588}], "Xiangshan": [{"Name": "Xiangshan", "Country Code": "CN", "Population": 0.0, "Lat": 25.26252, "Lon": 110.27627}], "Xiangshui": [{"Name": "Xiangshui", "Country Code": "CN", "Population": 0.0, "Lat": 35.47695, "Lon": 106.33112}, {"Name": "Xiangshui", "Country Code": "CN", "Population": 16889.0, "Lat": 30.655, "Lon": 108.193}], "Xiangtan": [{"Name": "Xiangtan", "Country Code": "CN", "Population": 959303.0, "Lat": 27.85, "Lon": 112.9}], "Xiangxiang": [{"Name": "Xiangxiang", "Country Code": "CN", "Population": 87592.0, "Lat": 27.73333, "Lon": 112.53333}], "Xiangyang": [{"Name": "Xiangyang", "Country Code": "CN", "Population": 0.0, "Lat": 46.80554, "Lon": 130.35704}, {"Name": "Xiangyang", "Country Code": "CN", "Population": 0.0, "Lat": 47.34009, "Lon": 130.2862}, {"Name": "Xiangyang", "Country Code": "CN", "Population": 0.0, "Lat": 37.53157, "Lon": 121.39388}, {"Name": "Xiangyang", "Country Code": "CN", "Population": 1294733.0, "Lat": 32.0422, "Lon": 112.14479}], "Xiangyun": [{"Name": "Xiangyun", "Country Code": "CN", "Population": 1800.0, "Lat": 24.97111, "Lon": 118.16028}], "Xiangzhou": [{"Name": "Xiangzhou", "Country Code": "CN", "Population": 0.0, "Lat": 23.97526, "Lon": 109.70081}, {"Name": "Xiangzhou", "Country Code": "CN", "Population": 61748.0, "Lat": 36.16444, "Lon": 119.41889}], "Xianju": [{"Name": "Xianju", "Country Code": "CN", "Population": 61532.0, "Lat": 28.8547, "Lon": 120.73168}], "Xianlong": [{"Name": "Xianlong", "Country Code": "CN", "Population": 36561.0, "Lat": 29.15107, "Lon": 105.78403}, {"Name": "Xianlong", "Country Code": "CN", "Population": 3313.0, "Lat": 33.8142, "Lon": 106.24476}], "Xianning": [{"Name": "Xianning", "Country Code": "CN", "Population": 512517.0, "Lat": 29.84347, "Lon": 114.32201}], "Xiannue": [{"Name": "Xiann\u00fc", "Country Code": "CN", "Population": 83936.0, "Lat": 32.42806, "Lon": 119.56048}], "Xiannueshan": [{"Name": "Xiann\u00fcshan", "Country Code": "CN", "Population": 13808.0, "Lat": 29.42187, "Lon": 107.76122}], "Xianrenwan": [{"Name": "Xianrenwan", "Country Code": "CN", "Population": 1030.0, "Lat": 27.75444, "Lon": 110.32972}], "Xianshui": [{"Name": "Xianshui", "Country Code": "CN", "Population": 0.0, "Lat": 30.99145, "Lon": 101.12701}], "Xianshuigu": [{"Name": "Xianshuigu", "Country Code": "CN", "Population": 74028.0, "Lat": 38.985, "Lon": 117.38278}], "Xiantan": [{"Name": "Xiantan", "Country Code": "CN", "Population": 1100.0, "Lat": 28.81859, "Lon": 106.1927}], "Xiantao": [{"Name": "Xiantao", "Country Code": "CN", "Population": 239406.0, "Lat": 30.3708, "Lon": 113.44294}], "Xianxi": [{"Name": "Xianxi", "Country Code": "CN", "Population": 2910.0, "Lat": 26.33472, "Lon": 109.64306}], "Xianyang": [{"Name": "Xianyang", "Country Code": "CN", "Population": 1034081.0, "Lat": 34.33778, "Lon": 108.70261}], "Xianyi": [{"Name": "Xianyi", "Country Code": "CN", "Population": 7232.0, "Lat": 31.68939, "Lon": 108.65414}], "Xiaobailou": [{"Name": "Xiaobailou", "Country Code": "CN", "Population": 0.0, "Lat": 39.11766, "Lon": 117.20565}], "Xiaochang": [{"Name": "Xiaochang", "Country Code": "CN", "Population": 6902.0, "Lat": 29.34272, "Lon": 108.51231}], "Xiaochangshan": [{"Name": "Xiaochangshan", "Country Code": "CN", "Population": 16071.0, "Lat": 39.23583, "Lon": 122.72361}], "Xiaochuan": [{"Name": "Xiaochuan", "Country Code": "CN", "Population": 18098.0, "Lat": 33.6806, "Lon": 105.56156}], "Xiaodian": [{"Name": "Xiaodian", "Country Code": "CN", "Population": 0.0, "Lat": 37.73639, "Lon": 112.55639}, {"Name": "Xiaodian", "Country Code": "CN", "Population": 5086.0, "Lat": 39.25412, "Lon": 117.22747}], "Xiaodongzhuang": [{"Name": "Xiaodongzhuang", "Country Code": "CN", "Population": 3784.0, "Lat": 39.06029, "Lon": 117.41544}], "Xiaodu": [{"Name": "Xiaodu", "Country Code": "CN", "Population": 27469.0, "Lat": 29.96207, "Lon": 105.88678}], "Xiaoduchuan": [{"Name": "Xiaoduchuan", "Country Code": "CN", "Population": 0.0, "Lat": 30.29113, "Lon": 109.47616}], "Xiaogan": [{"Name": "Xiaogan", "Country Code": "CN", "Population": 908266.0, "Lat": 30.92689, "Lon": 113.92221}], "Xiaogang": [{"Name": "Xiaogang", "Country Code": "CN", "Population": 127076.0, "Lat": 28.23333, "Lon": 116.58333}], "Xiaohe": [{"Name": "Xiaohe", "Country Code": "CN", "Population": 11069.0, "Lat": 28.65852, "Lon": 108.63655}], "Xiaohenglong": [{"Name": "Xiaohenglong", "Country Code": "CN", "Population": 1500.0, "Lat": 27.605, "Lon": 110.51694}], "Xiaojia": [{"Name": "Xiaojia", "Country Code": "CN", "Population": 16363.0, "Lat": 30.28838, "Lon": 106.47031}], "Xiaojiang": [{"Name": "Xiaojiang", "Country Code": "CN", "Population": 0.0, "Lat": 22.27296, "Lon": 109.55184}], "Xiaoliang": [{"Name": "Xiaoliang", "Country Code": "CN", "Population": 7214.0, "Lat": 33.75888, "Lon": 105.08629}], "Xiaolin": [{"Name": "Xiaolin", "Country Code": "CN", "Population": 6753.0, "Lat": 29.7877, "Lon": 105.85195}], "Xiaolingwei": [{"Name": "Xiaolingwei", "Country Code": "CN", "Population": 66031.0, "Lat": 32.03244, "Lon": 118.854}], "Xiaolongmen": [{"Name": "Xiaolongmen", "Country Code": "CN", "Population": 1070.0, "Lat": 27.80194, "Lon": 110.16056}], "Xiaomian": [{"Name": "Xiaomian", "Country Code": "CN", "Population": 27154.0, "Lat": 30.12268, "Lon": 106.53435}], "Xiaonanhai": [{"Name": "Xiaonanhai", "Country Code": "CN", "Population": 6662.0, "Lat": 29.66147, "Lon": 108.76251}], "Xiaopu": [{"Name": "Xiaopu", "Country Code": "CN", "Population": 0.0, "Lat": 25.23917, "Lon": 111.31664}], "Xiaoshajiang": [{"Name": "Xiaoshajiang", "Country Code": "CN", "Population": 2160.0, "Lat": 27.52139, "Lon": 110.74806}], "Xiaoshan": [{"Name": "Xiaoshan", "Country Code": "CN", "Population": 95234.0, "Lat": 30.16746, "Lon": 120.25883}], "Xiaoshi": [{"Name": "Xiaoshi", "Country Code": "CN", "Population": 68994.0, "Lat": 41.29711, "Lon": 124.12092}], "Xiaoweizhai": [{"Name": "Xiaoweizhai", "Country Code": "CN", "Population": 58913.0, "Lat": 26.19028, "Lon": 107.5125}], "Xiaoxi": [{"Name": "Xiaoxi", "Country Code": "CN", "Population": 9414.0, "Lat": 28.38037, "Lon": 108.91068}, {"Name": "Xiaoxi", "Country Code": "CN", "Population": 0.0, "Lat": 24.35249, "Lon": 117.29071}], "Xiaoxita": [{"Name": "Xiaoxita", "Country Code": "CN", "Population": 0.0, "Lat": 30.77135, "Lon": 111.32146}], "Xiaozhou": [{"Name": "Xiaozhou", "Country Code": "CN", "Population": 9136.0, "Lat": 30.90951, "Lon": 108.51264}], "Xiaping": [{"Name": "Xiaping", "Country Code": "CN", "Population": 0.0, "Lat": 26.73139, "Lon": 114.27028}], "Xiasi": [{"Name": "Xiasi", "Country Code": "CN", "Population": 32400.0, "Lat": 32.28998, "Lon": 105.51326}, {"Name": "Xiasi", "Country Code": "CN", "Population": 25490.0, "Lat": 26.51667, "Lon": 107.78333}], "Xiawuqi": [{"Name": "Xiawuqi", "Country Code": "CN", "Population": 1718.0, "Lat": 39.61361, "Lon": 117.05333}], "Xiayang": [{"Name": "Xiayang", "Country Code": "CN", "Population": 0.0, "Lat": 26.48885, "Lon": 113.76796}, {"Name": "Xiayang", "Country Code": "CN", "Population": 0.0, "Lat": 31.14967, "Lon": 121.11588}], "Xiayi Chengguanzhen": [{"Name": "Xiayi Chengguanzhen", "Country Code": "CN", "Population": 0.0, "Lat": 34.2368, "Lon": 116.11608}], "Xiaying": [{"Name": "Xiaying", "Country Code": "CN", "Population": 23395.0, "Lat": 37.04248, "Lon": 119.47654}], "Xiazhen": [{"Name": "Xiazhen", "Country Code": "CN", "Population": 125667.0, "Lat": 34.80222, "Lon": 117.11167}], "Xiazhuang": [{"Name": "Xiazhuang", "Country Code": "CN", "Population": 88710.0, "Lat": 36.44917, "Lon": 119.83556}, {"Name": "Xiazhuang", "Country Code": "CN", "Population": 53954.0, "Lat": 25.4, "Lon": 100.83333}, {"Name": "Xiazhuang", "Country Code": "CN", "Population": 63285.0, "Lat": 34.91611, "Lon": 118.63889}], "Xiber-Murrize": [{"Name": "Xib\u00ebr-Murriz\u00eb", "Country Code": "AL", "Population": 0.0, "Lat": 41.45472, "Lon": 20.02556}], "Xibing": [{"Name": "Xibing", "Country Code": "CN", "Population": 5050.0, "Lat": 26.98139, "Lon": 119.72472}], "Xicang": [{"Name": "Xicang", "Country Code": "CN", "Population": 2927.0, "Lat": 34.56878, "Lon": 102.56289}], "Xichang": [{"Name": "Xichang", "Country Code": "CN", "Population": 481796.0, "Lat": 27.89642, "Lon": 102.26341}, {"Name": "Xichang", "Country Code": "CN", "Population": 80064.0, "Lat": 21.63333, "Lon": 108.95}], "Xicheng": [{"Name": "Xicheng", "Country Code": "CN", "Population": 0.0, "Lat": 40.11267, "Lon": 114.15537}], "Xichu": [{"Name": "Xich\u00fa", "Country Code": "MX", "Population": 1569.0, "Lat": 21.29931, "Lon": -100.0574}], "Xichuan": [{"Name": "Xichuan", "Country Code": "CN", "Population": 29394.0, "Lat": 35.0305, "Lon": 106.063}], "Xico": [{"Name": "Xico", "Country Code": "MX", "Population": 356352.0, "Lat": 19.27032, "Lon": -98.95088}, {"Name": "Xico", "Country Code": "MX", "Population": 18652.0, "Lat": 19.42178, "Lon": -97.00819}], "Xicohtzinco": [{"Name": "Xicohtzinco", "Country Code": "MX", "Population": 12255.0, "Lat": 19.17371, "Lon": -98.23377}], "Xicotencatl": [{"Name": "Xicot\u00e9ncatl", "Country Code": "MX", "Population": 1474.0, "Lat": 17.51833, "Lon": -92.70474}, {"Name": "Xicot\u00e9ncatl", "Country Code": "MX", "Population": 9593.0, "Lat": 22.99623, "Lon": -98.94218}], "Xicotepec de Juarez": [{"Name": "Xicotepec de Ju\u00e1rez", "Country Code": "MX", "Population": 39803.0, "Lat": 20.27605, "Lon": -97.96111}], "Xicotlan": [{"Name": "Xicotl\u00e1n", "Country Code": "MX", "Population": 706.0, "Lat": 18.05918, "Lon": -98.52457}], "Xiditou": [{"Name": "Xiditou", "Country Code": "CN", "Population": 5407.0, "Lat": 39.25375, "Lon": 117.34814}], "Xidu": [{"Name": "Xidu", "Country Code": "CN", "Population": 0.0, "Lat": 26.95629, "Lon": 112.36829}], "Xiedian": [{"Name": "Xiedian", "Country Code": "CN", "Population": 0.0, "Lat": 35.42816, "Lon": 110.81181}], "Xiejiawan": [{"Name": "Xiejiawan", "Country Code": "CN", "Population": 22066.0, "Lat": 34.81213, "Lon": 105.17148}], "Xiema": [{"Name": "Xiema", "Country Code": "CN", "Population": 60933.0, "Lat": 29.77415, "Lon": 106.3688}], "Xifeng": [{"Name": "Xifeng", "Country Code": "CN", "Population": 61087.0, "Lat": 42.73722, "Lon": 124.72222}], "Xigang": [{"Name": "Xigang", "Country Code": "CN", "Population": 112061.0, "Lat": 38.55258, "Lon": 106.34805}], "Xigaoshan": [{"Name": "Xigaoshan", "Country Code": "CN", "Population": 16550.0, "Lat": 33.73475, "Lon": 105.38817}], "Xiguan": [{"Name": "Xiguan", "Country Code": "CN", "Population": 0.0, "Lat": 33.86667, "Lon": 115.46667}], "Xihai": [{"Name": "Xihai", "Country Code": "CN", "Population": 13161.0, "Lat": 36.87509, "Lon": 100.96092}], "Xihe": [{"Name": "Xihe", "Country Code": "CN", "Population": 90422.0, "Lat": 31.68635, "Lon": 113.46585}, {"Name": "Xihe", "Country Code": "CN", "Population": 12567.0, "Lat": 29.57423, "Lon": 105.92275}], "Xihu": [{"Name": "Xihu", "Country Code": "CN", "Population": 38386.0, "Lat": 29.10023, "Lon": 106.39536}, {"Name": "Xihu", "Country Code": "CN", "Population": 0.0, "Lat": 36.06735, "Lon": 103.77654}, {"Name": "Xihu", "Country Code": "CN", "Population": 29978.0, "Lat": 35.44934, "Lon": 119.23607}], "Xihuachi": [{"Name": "Xihuachi", "Country Code": "CN", "Population": 0.0, "Lat": 35.81639, "Lon": 108.0125}], "Xikou": [{"Name": "Xikou", "Country Code": "CN", "Population": 13059.0, "Lat": 28.60059, "Lon": 108.91853}, {"Name": "Xikou", "Country Code": "CN", "Population": 5695.0, "Lat": 30.6102, "Lon": 108.33924}], "Xilembene": [{"Name": "Xilembene", "Country Code": "MZ", "Population": 23742.0, "Lat": -24.68941, "Lon": 33.25844}], "Xiliguantun": [{"Name": "Xiliguantun", "Country Code": "CN", "Population": 1552.0, "Lat": 37.07833, "Lon": 115.94139}], "Xilin": [{"Name": "Xilin", "Country Code": "CN", "Population": 0.0, "Lat": 24.49885, "Lon": 105.09377}, {"Name": "Xilin", "Country Code": "CN", "Population": 0.0, "Lat": 47.47606, "Lon": 129.30369}], "Xilin Hot": [{"Name": "Xilin Hot", "Country Code": "CN", "Population": 120965.0, "Lat": 43.96667, "Lon": 116.03333}], "Xiling": [{"Name": "Xiling", "Country Code": "CN", "Population": 3110.0, "Lat": 26.81444, "Lon": 119.04722}, {"Name": "Xiling", "Country Code": "CN", "Population": 0.0, "Lat": 30.71606, "Lon": 111.2839}], "Xilinji": [{"Name": "Xilinji", "Country Code": "CN", "Population": 0.0, "Lat": 52.99063, "Lon": 123.23522}], "Xilitla": [{"Name": "Xilitla", "Country Code": "MX", "Population": 6576.0, "Lat": 21.38681, "Lon": -98.99009}], "Xilli": [{"Name": "X\u0131ll\u0131", "Country Code": "AZ", "Population": 3896.0, "Lat": 39.43012, "Lon": 49.10166}], "Xilocuautla": [{"Name": "Xilocuautla", "Country Code": "MX", "Population": 1390.0, "Lat": 20.13948, "Lon": -98.02341}], "Xilopolis": [{"Name": "Xil\u00f3polis", "Country Code": "GR", "Population": 1442.0, "Lat": 40.92713, "Lon": 23.17944}], "Xiloxochico de Rafael Avila Camacho": [{"Name": "Xiloxochico de Rafael \u00c1vila Camacho", "Country Code": "MX", "Population": 1131.0, "Lat": 20.04583, "Lon": -97.49083}], "Xiluodu": [{"Name": "Xiluodu", "Country Code": "CN", "Population": 0.0, "Lat": 28.24425, "Lon": 103.63849}], "Ximeicun": [{"Name": "Ximeicun", "Country Code": "CN", "Population": 94326.0, "Lat": 24.98773, "Lon": 118.3858}], "Xin Bulag": [{"Name": "Xin Bulag", "Country Code": "CN", "Population": 0.0, "Lat": 42.2375, "Lon": 113.83639}], "Xin'an": [{"Name": "Xin\u2019an", "Country Code": "CN", "Population": 0.0, "Lat": 32.43799, "Lon": 118.40888}], "Xin'an Chengguanzhen": [{"Name": "Xin\u2019an Chengguanzhen", "Country Code": "CN", "Population": 0.0, "Lat": 34.7175, "Lon": 112.13556}], "Xin'anjiang": [{"Name": "Xin\u2019anjiang", "Country Code": "CN", "Population": 0.0, "Lat": 29.47478, "Lon": 119.27148}], "Xinan": [{"Name": "Xinan", "Country Code": "CN", "Population": 0.0, "Lat": 23.15445, "Lon": 112.89344}, {"Name": "Xinan", "Country Code": "CN", "Population": 3670.0, "Lat": 26.72, "Lon": 119.85556}], "Xinavane": [{"Name": "Xinavane", "Country Code": "MZ", "Population": 11534.0, "Lat": -25.16047, "Lon": 32.80038}], "Xincheng": [{"Name": "Xincheng", "Country Code": "CN", "Population": 0.0, "Lat": 34.26321, "Lon": 108.94954}, {"Name": "Xincheng", "Country Code": "CN", "Population": 0.0, "Lat": 28.01512, "Lon": 102.84233}, {"Name": "Xincheng", "Country Code": "CN", "Population": 0.0, "Lat": 35.875, "Lon": 111.43528}, {"Name": "Xincheng", "Country Code": "CN", "Population": 65411.0, "Lat": 33.63333, "Lon": 115.18333}, {"Name": "Xincheng", "Country Code": "CN", "Population": 10361.0, "Lat": 34.8558, "Lon": 106.22065}, {"Name": "Xincheng", "Country Code": "CN", "Population": 0.0, "Lat": 22.70155, "Lon": 112.22464}, {"Name": "Xincheng", "Country Code": "CN", "Population": 0.0, "Lat": 33.54194, "Lon": 114.59833}, {"Name": "Xincheng", "Country Code": "CN", "Population": 20535.0, "Lat": 34.67431, "Lon": 103.5868}, {"Name": "Xincheng", "Country Code": "CN", "Population": 0.0, "Lat": 35.3, "Lon": 111.66417}, {"Name": "Xincheng", "Country Code": "CN", "Population": 0.0, "Lat": 24.08613, "Lon": 108.65261}, {"Name": "Xincheng", "Country Code": "CN", "Population": 0.0, "Lat": 39.98677, "Lon": 112.46135}], "Xinchenglu": [{"Name": "Xinchenglu", "Country Code": "CN", "Population": 0.0, "Lat": 31.38864, "Lon": 121.26305}], "Xinchengzi": [{"Name": "Xinchengzi", "Country Code": "CN", "Population": 6857.0, "Lat": 34.01663, "Lon": 104.44226}], "Xindi": [{"Name": "Xindi", "Country Code": "CN", "Population": 175761.0, "Lat": 29.81667, "Lon": 113.46667}], "Xindian": [{"Name": "Xindian", "Country Code": "CN", "Population": 82555.0, "Lat": 36.7975, "Lon": 118.29444}, {"Name": "Xindian", "Country Code": "CN", "Population": 8145.0, "Lat": 24.61006, "Lon": 118.24068}, {"Name": "Xindian", "Country Code": "CN", "Population": 44409.0, "Lat": 34.14281, "Lon": 118.33531}, {"Name": "Xindian", "Country Code": "CN", "Population": 2860.0, "Lat": 26.12238, "Lon": 119.30153}, {"Name": "Xindian", "Country Code": "TW", "Population": 0.0, "Lat": 24.96005, "Lon": 121.53892}], "Xindou": [{"Name": "Xindou", "Country Code": "CN", "Population": 0.0, "Lat": 31.39648, "Lon": 100.67847}], "Xindu": [{"Name": "Xindu", "Country Code": "CN", "Population": 0.0, "Lat": 30.82236, "Lon": 104.15742}, {"Name": "Xindu", "Country Code": "CN", "Population": 0.0, "Lat": 33.33987, "Lon": 120.14594}], "Xinfa": [{"Name": "Xinfa", "Country Code": "CN", "Population": 0.0, "Lat": 28.83071, "Lon": 104.32077}], "Xing'an": [{"Name": "Xing\u2019an", "Country Code": "CN", "Population": 0.0, "Lat": 47.25069, "Lon": 130.23159}, {"Name": "Xing\u2019an", "Country Code": "CN", "Population": 0.0, "Lat": 25.61405, "Lon": 110.66854}], "Xingbin": [{"Name": "Xingbin", "Country Code": "CN", "Population": 0.0, "Lat": 23.70789, "Lon": 109.18215}], "Xingcheng": [{"Name": "Xingcheng", "Country Code": "CN", "Population": 98968.0, "Lat": 40.61667, "Lon": 120.71667}], "Xingdaohu": [{"Name": "Xingdaohu", "Country Code": "CN", "Population": 24048.0, "Lat": 21.71479, "Lon": 109.13207}], "Xingfeng": [{"Name": "Xingfeng", "Country Code": "CN", "Population": 23922.0, "Lat": 34.86111, "Lon": 105.8375}, {"Name": "Xingfeng", "Country Code": "CN", "Population": 0.0, "Lat": 39.72965, "Lon": 116.33661}], "Xingfulu": [{"Name": "Xingfulu", "Country Code": "CN", "Population": 0.0, "Lat": 43.78246, "Lon": 87.63682}], "Xingguo": [{"Name": "Xingguo", "Country Code": "CN", "Population": 0.0, "Lat": 29.92253, "Lon": 115.30208}, {"Name": "Xingguo", "Country Code": "CN", "Population": 95211.0, "Lat": 34.85861, "Lon": 105.66861}], "Xinghe Chengguanzhen": [{"Name": "Xinghe Chengguanzhen", "Country Code": "CN", "Population": 0.0, "Lat": 40.87556, "Lon": 113.88389}], "Xinghua": [{"Name": "Xinghua", "Country Code": "CN", "Population": 2110.0, "Lat": 33.86151, "Lon": 106.36176}, {"Name": "Xinghua", "Country Code": "CN", "Population": 10342.0, "Lat": 34.08026, "Lon": 104.58402}, {"Name": "Xinghua", "Country Code": "CN", "Population": 105918.0, "Lat": 32.93917, "Lon": 119.83417}, {"Name": "Xinghua", "Country Code": "CN", "Population": 0.0, "Lat": 48.01449, "Lon": 122.69839}], "Xinglong": [{"Name": "Xinglong", "Country Code": "CN", "Population": 20489.0, "Lat": 29.1685, "Lon": 107.0064}, {"Name": "Xinglong", "Country Code": "CN", "Population": 20333.0, "Lat": 29.88931, "Lon": 106.70622}, {"Name": "Xinglong", "Country Code": "CN", "Population": 19803.0, "Lat": 34.03821, "Lon": 105.34422}, {"Name": "Xinglong", "Country Code": "CN", "Population": 11543.0, "Lat": 29.25841, "Lon": 109.03714}, {"Name": "Xinglong", "Country Code": "CN", "Population": 0.0, "Lat": 40.41881, "Lon": 117.48995}, {"Name": "Xinglong", "Country Code": "CN", "Population": 41411.0, "Lat": 30.65723, "Lon": 109.44599}], "Xinglongshan": [{"Name": "Xinglongshan", "Country Code": "CN", "Population": 58432.0, "Lat": 43.95611, "Lon": 125.46611}], "Xinglou": [{"Name": "Xinglou", "Country Code": "CN", "Population": 49653.0, "Lat": 34.56667, "Lon": 117.82778}], "Xingning": [{"Name": "Xingning", "Country Code": "CN", "Population": 274499.0, "Lat": 24.1483, "Lon": 115.72272}, {"Name": "Xingning", "Country Code": "CN", "Population": 0.0, "Lat": 22.87589, "Lon": 108.41992}], "Xingong": [{"Name": "Xingong", "Country Code": "CN", "Population": 0.0, "Lat": 49.29031, "Lon": 120.70609}], "Xingpinglu": [{"Name": "Xingpinglu", "Country Code": "CN", "Population": 0.0, "Lat": 36.72752, "Lon": 104.81379}], "Xingren": [{"Name": "Xingren", "Country Code": "CN", "Population": 91579.0, "Lat": 25.43333, "Lon": 105.23333}], "Xingsha": [{"Name": "Xingsha", "Country Code": "CN", "Population": 0.0, "Lat": 28.23972, "Lon": 113.08778}], "Xingshan": [{"Name": "Xingshan", "Country Code": "CN", "Population": 0.0, "Lat": 47.35554, "Lon": 130.29568}], "Xingtai": [{"Name": "Xingtai", "Country Code": "CN", "Population": 798770.0, "Lat": 37.06306, "Lon": 114.49417}], "Xinguan": [{"Name": "Xinguan", "Country Code": "CN", "Population": 0.0, "Lat": 39.45527, "Lon": 111.53001}], "Xinguara": [{"Name": "Xinguara", "Country Code": "BR", "Population": 43530.0, "Lat": -7.09829, "Lon": -49.9435}], "Xingye Xian": [{"Name": "Xingye Xian", "Country Code": "CN", "Population": 0.0, "Lat": 22.74342, "Lon": 109.87508}], "Xingyi": [{"Name": "Xingyi", "Country Code": "CN", "Population": 322890.0, "Lat": 25.09617, "Lon": 104.90639}, {"Name": "Xingyi", "Country Code": "CN", "Population": 30629.0, "Lat": 29.95552, "Lon": 107.81646}], "Xinhe": [{"Name": "Xinhe", "Country Code": "CN", "Population": 48712.0, "Lat": 34.18613, "Lon": 117.98775}, {"Name": "Xinhe", "Country Code": "CN", "Population": 69884.0, "Lat": 36.925, "Lon": 119.59306}, {"Name": "Xinhe", "Country Code": "CN", "Population": 0.0, "Lat": 37.52441, "Lon": 115.24288}, {"Name": "Xinhe", "Country Code": "CN", "Population": 0.0, "Lat": 41.55028, "Lon": 82.61667}], "Xinhua": [{"Name": "Xinhua", "Country Code": "CN", "Population": 0.0, "Lat": 23.6431, "Lon": 105.65317}, {"Name": "Xinhua", "Country Code": "CN", "Population": 7081.0, "Lat": 29.32363, "Lon": 108.60395}, {"Name": "Xinhua", "Country Code": "CN", "Population": 16336.0, "Lat": 24.75252, "Lon": 98.48296}, {"Name": "Xinhua", "Country Code": "CN", "Population": 0.0, "Lat": 26.88838, "Lon": 102.93324}, {"Name": "Xinhua", "Country Code": "CN", "Population": 0.0, "Lat": 38.30299, "Lon": 116.8696}], "Xinhualu": [{"Name": "Xinhualu", "Country Code": "CN", "Population": 0.0, "Lat": 34.39633, "Lon": 113.72466}], "Xinhuang": [{"Name": "Xinhuang", "Country Code": "CN", "Population": 0.0, "Lat": 27.37359, "Lon": 109.13376}], "Xinhui": [{"Name": "Xinhui", "Country Code": "CN", "Population": 0.0, "Lat": 42.28389, "Lon": 119.89833}], "Xining": [{"Name": "Xining", "Country Code": "CN", "Population": 1677177.0, "Lat": 36.62554, "Lon": 101.75739}], "Xinji": [{"Name": "Xinji", "Country Code": "CN", "Population": 0.0, "Lat": 31.6232, "Lon": 114.874}, {"Name": "Xinji", "Country Code": "CN", "Population": 145911.0, "Lat": 37.92595, "Lon": 115.21907}], "Xinjia": [{"Name": "Xinjia", "Country Code": "CN", "Population": 0.0, "Lat": 37.6574, "Lon": 120.485}], "Xinkaikou": [{"Name": "Xinkaikou", "Country Code": "CN", "Population": 2101.0, "Lat": 39.67889, "Lon": 117.19028}], "Xinle": [{"Name": "Xinle", "Country Code": "CN", "Population": 99347.0, "Lat": 38.34898, "Lon": 114.68531}, {"Name": "Xinle", "Country Code": "CN", "Population": 3256.0, "Lat": 29.92679, "Lon": 108.4677}], "Xinli": [{"Name": "Xinli", "Country Code": "CN", "Population": 0.0, "Lat": 39.84417, "Lon": 108.73472}, {"Name": "Xinli", "Country Code": "CN", "Population": 2150.0, "Lat": 39.08472, "Lon": 117.33556}], "Xinlin": [{"Name": "Xinlin", "Country Code": "CN", "Population": 0.0, "Lat": 51.7, "Lon": 124.33333}], "Xinling": [{"Name": "Xinling", "Country Code": "CN", "Population": 0.0, "Lat": 31.04371, "Lon": 110.33213}], "Xinluoqu": [{"Name": "Xinluoqu", "Country Code": "CN", "Population": 0.0, "Lat": 25.10222, "Lon": 117.03028}], "Xinmatou": [{"Name": "Xinmatou", "Country Code": "CN", "Population": 0.0, "Lat": 36.81802, "Lon": 115.17047}], "Xinmian": [{"Name": "Xinmian", "Country Code": "CN", "Population": 0.0, "Lat": 29.23992, "Lon": 102.37208}], "Xinmiao": [{"Name": "Xinmiao", "Country Code": "CN", "Population": 34299.0, "Lat": 29.65528, "Lon": 107.04988}], "Xinmin": [{"Name": "Xinmin", "Country Code": "CN", "Population": 21912.0, "Lat": 30.90343, "Lon": 109.46682}, {"Name": "Xinmin", "Country Code": "CN", "Population": 74139.0, "Lat": 41.99083, "Lon": 122.82528}, {"Name": "Xinmin", "Country Code": "CN", "Population": 28033.0, "Lat": 30.39759, "Lon": 107.3895}], "Xinning": [{"Name": "Xinning", "Country Code": "CN", "Population": 0.0, "Lat": 35.49506, "Lon": 107.92038}], "Xino Nero": [{"Name": "Xin\u00f3 Ner\u00f3", "Country Code": "GR", "Population": 1081.0, "Lat": 40.69028, "Lon": 21.62324}], "Xinos": [{"Name": "Xinos", "Country Code": "GR", "Population": 0.0, "Lat": 37.05724, "Lon": 22.0055}], "Xinqing": [{"Name": "Xinqing", "Country Code": "CN", "Population": 55415.0, "Lat": 48.28701, "Lon": 129.52337}], "Xinshan": [{"Name": "Xinshan", "Country Code": "CN", "Population": 0.0, "Lat": 25.13784, "Lon": 115.38625}], "Xinshancun": [{"Name": "Xinshancun", "Country Code": "CN", "Population": 0.0, "Lat": 29.486, "Lon": 106.47861}], "Xinsheng": [{"Name": "Xinsheng", "Country Code": "CN", "Population": 27741.0, "Lat": 30.84367, "Lon": 107.72413}, {"Name": "Xinsheng", "Country Code": "CN", "Population": 13872.0, "Lat": 29.10488, "Lon": 106.63274}, {"Name": "Xinsheng", "Country Code": "CN", "Population": 15743.0, "Lat": 29.95673, "Lon": 105.75092}], "Xinshi": [{"Name": "Xinshi", "Country Code": "CN", "Population": 98422.0, "Lat": 31.04704, "Lon": 113.14098}, {"Name": "Xinshi", "Country Code": "CN", "Population": 21578.0, "Lat": 29.95996, "Lon": 107.10408}], "Xinshiba": [{"Name": "Xinshiba", "Country Code": "CN", "Population": 0.0, "Lat": 28.97091, "Lon": 102.77126}], "Xinshui": [{"Name": "Xinshui", "Country Code": "CN", "Population": 0.0, "Lat": 36.47839, "Lon": 110.75522}], "Xintai": [{"Name": "Xintai", "Country Code": "CN", "Population": 222459.0, "Lat": 35.90056, "Lon": 117.75194}], "Xintian": [{"Name": "Xintian", "Country Code": "CN", "Population": 34145.0, "Lat": 30.69866, "Lon": 108.40193}, {"Name": "Xintian", "Country Code": "CN", "Population": 0.0, "Lat": 35.61358, "Lon": 111.3566}, {"Name": "Xintian", "Country Code": "CN", "Population": 18249.0, "Lat": 29.19634, "Lon": 108.2705}], "Xinxiang": [{"Name": "Xinxiang", "Country Code": "CN", "Population": 1047088.0, "Lat": 35.19033, "Lon": 113.80151}, {"Name": "Xinxiang", "Country Code": "CN", "Population": 6683.0, "Lat": 30.49999, "Lon": 108.27278}], "Xinxing": [{"Name": "Xinxing", "Country Code": "CN", "Population": 0.0, "Lat": 39.86694, "Lon": 124.12304}, {"Name": "Xinxing", "Country Code": "CN", "Population": 38200.0, "Lat": 36.04917, "Lon": 119.54139}, {"Name": "Xinxing", "Country Code": "CN", "Population": 0.0, "Lat": 45.81362, "Lon": 130.92454}, {"Name": "Xinxing", "Country Code": "CN", "Population": 97483.0, "Lat": 34.77597, "Lon": 105.32216}], "Xinyang": [{"Name": "Xinyang", "Country Code": "CN", "Population": 1230042.0, "Lat": 32.12278, "Lon": 114.06556}], "Xinyi": [{"Name": "Xinyi", "Country Code": "CN", "Population": 300511.0, "Lat": 34.38424, "Lon": 118.34617}, {"Name": "Xinyi", "Country Code": "CN", "Population": 98259.0, "Lat": 22.37303, "Lon": 110.94746}], "Xinying": [{"Name": "Xinying", "Country Code": "TW", "Population": 0.0, "Lat": 23.30694, "Lon": 120.31056}], "Xinyingpan": [{"Name": "Xinyingpan", "Country Code": "CN", "Population": 21008.0, "Lat": 27.16757, "Lon": 100.92005}], "Xinyu": [{"Name": "Xinyu", "Country Code": "CN", "Population": 839488.0, "Lat": 27.80429, "Lon": 114.93335}, {"Name": "Xinyu", "Country Code": "CN", "Population": 0.0, "Lat": 27.83906, "Lon": 114.84591}], "Xinyuan": [{"Name": "Xinyuan", "Country Code": "CN", "Population": 282718.0, "Lat": 43.42649, "Lon": 83.24959}, {"Name": "Xinyuan", "Country Code": "CN", "Population": 0.0, "Lat": 37.3, "Lon": 99.0}], "Xinzhai": [{"Name": "Xinzhai", "Country Code": "CN", "Population": 11242.0, "Lat": 33.64387, "Lon": 104.68386}, {"Name": "Xinzhai", "Country Code": "CN", "Population": 100168.0, "Lat": 36.4, "Lon": 118.61667}], "Xinzhan": [{"Name": "Xinzhan", "Country Code": "CN", "Population": 2400.0, "Lat": 28.38833, "Lon": 106.85667}], "Xinzheng": [{"Name": "Xinzheng", "Country Code": "CN", "Population": 0.0, "Lat": 31.27491, "Lon": 106.28714}], "Xinzhi": [{"Name": "Xinzhi", "Country Code": "CN", "Population": 72303.0, "Lat": 36.49889, "Lon": 111.70472}], "Xinzhou": [{"Name": "Xinzhou", "Country Code": "CN", "Population": 78767.0, "Lat": 30.86667, "Lon": 114.8}, {"Name": "Xinzhou", "Country Code": "CN", "Population": 67316.0, "Lat": 19.71446, "Lon": 109.31146}, {"Name": "Xinzhou", "Country Code": "CN", "Population": 0.0, "Lat": 24.87234, "Lon": 105.35117}, {"Name": "Xinzhou", "Country Code": "CN", "Population": 544683.0, "Lat": 38.40917, "Lon": 112.73333}], "Xinzhuang": [{"Name": "Xinzhuang", "Country Code": "CN", "Population": 5191.0, "Lat": 39.0249, "Lon": 117.34377}], "Xinzo de Limia": [{"Name": "Xinzo de Limia", "Country Code": "ES", "Population": 10161.0, "Lat": 42.0635, "Lon": -7.72459}], "Xiongjia": [{"Name": "Xiongjia", "Country Code": "CN", "Population": 33176.0, "Lat": 30.90155, "Lon": 108.43367}], "Xiongshan": [{"Name": "Xiongshan", "Country Code": "CN", "Population": 0.0, "Lat": 27.36439, "Lon": 118.85711}], "Xiongzhou": [{"Name": "Xiongzhou", "Country Code": "CN", "Population": 0.0, "Lat": 32.34359, "Lon": 118.84986}, {"Name": "Xiongzhou", "Country Code": "CN", "Population": 79050.0, "Lat": 25.11667, "Lon": 114.3}, {"Name": "Xiongzhou", "Country Code": "CN", "Population": 0.0, "Lat": 38.99159, "Lon": 116.10053}], "Xiping": [{"Name": "Xiping", "Country Code": "CN", "Population": 15165.0, "Lat": 34.6057, "Lon": 105.115}, {"Name": "Xiping", "Country Code": "CN", "Population": 0.0, "Lat": 25.59784, "Lon": 103.79613}, {"Name": "Xiping", "Country Code": "CN", "Population": 0.0, "Lat": 40.03952, "Lon": 113.60455}], "Xipo": [{"Name": "Xipo", "Country Code": "CN", "Population": 5075.0, "Lat": 33.84772, "Lon": 106.43039}], "Xipu": [{"Name": "Xipu", "Country Code": "CN", "Population": 0.0, "Lat": 23.69906, "Lon": 117.42511}], "Xiqu": [{"Name": "Xiqu", "Country Code": "CN", "Population": 0.0, "Lat": 26.60566, "Lon": 101.59828}], "Xique Xique": [{"Name": "Xique Xique", "Country Code": "BR", "Population": 35433.0, "Lat": -10.82294, "Lon": -42.72815}], "Xiquila": [{"Name": "Xiquila", "Country Code": "MX", "Population": 2038.0, "Lat": 21.07803, "Lon": -98.44315}], "Xireg": [{"Name": "Xireg", "Country Code": "CN", "Population": 0.0, "Lat": 36.91866, "Lon": 98.44463}], "Xiritala": [{"Name": "Xiritala", "Country Code": "CN", "Population": 0.0, "Lat": 43.93889, "Lon": 116.07021}], "Xirivella": [{"Name": "Xirivella", "Country Code": "ES", "Population": 30002.0, "Lat": 39.46588, "Lon": -0.42589}], "Xiropotamos": [{"Name": "Xirop\u00f3tamos", "Country Code": "GR", "Population": 2670.0, "Lat": 41.19206, "Lon": 24.10385}], "Xisa": [{"Name": "Xisa", "Country Code": "CN", "Population": 0.0, "Lat": 23.45, "Lon": 104.70775}], "Xishan": [{"Name": "Xishan", "Country Code": "CN", "Population": 98162.0, "Lat": 27.66667, "Lon": 113.5}, {"Name": "Xishan", "Country Code": "CN", "Population": 1452.0, "Lat": 25.68528, "Lon": 108.96389}], "Xitangtuo": [{"Name": "Xitangtuo", "Country Code": "CN", "Population": 5684.0, "Lat": 39.3224, "Lon": 117.48821}], "Xiteje de Zapata": [{"Name": "Xiteje de Zapata", "Country Code": "MX", "Population": 1004.0, "Lat": 20.09728, "Lon": -99.38872}], "Xitlama": [{"Name": "Xitlama", "Country Code": "MX", "Population": 3198.0, "Lat": 18.30344, "Lon": -97.01743}], "Xituo": [{"Name": "Xituo", "Country Code": "CN", "Population": 25585.0, "Lat": 30.40793, "Lon": 108.21732}], "Xiufeng": [{"Name": "Xiufeng", "Country Code": "CN", "Population": 0.0, "Lat": 25.27608, "Lon": 110.25865}], "Xiugu": [{"Name": "Xiugu", "Country Code": "CN", "Population": 81153.0, "Lat": 27.91132, "Lon": 116.77637}], "Xiulin": [{"Name": "Xiulin", "Country Code": "CN", "Population": 122411.0, "Lat": 29.71667, "Lon": 112.4}], "Xiuqi": [{"Name": "Xiuqi", "Country Code": "CN", "Population": 13874.0, "Lat": 31.87737, "Lon": 108.78159}], "Xiushan": [{"Name": "Xiushan", "Country Code": "CN", "Population": 0.0, "Lat": 24.10999, "Lon": 102.76153}], "Xiushui": [{"Name": "Xiushui", "Country Code": "CN", "Population": 0.0, "Lat": 38.10379, "Lon": 113.38865}], "Xiuwu Chengguanzhen": [{"Name": "Xiuwu Chengguanzhen", "Country Code": "CN", "Population": 0.0, "Lat": 35.23111, "Lon": 113.43806}], "Xiuyan": [{"Name": "Xiuyan", "Country Code": "CN", "Population": 71614.0, "Lat": 40.29278, "Lon": 123.27444}], "Xiuying": [{"Name": "Xiuying", "Country Code": "CN", "Population": 290000.0, "Lat": 20.00073, "Lon": 110.29359}], "Xiva": [{"Name": "Xiva", "Country Code": "UZ", "Population": 93400.0, "Lat": 41.38555, "Lon": 60.36408}], "Xiwai": [{"Name": "Xiwai", "Country Code": "CN", "Population": 0.0, "Lat": 31.21682, "Lon": 107.47525}], "Xiwule": [{"Name": "Xiwule", "Country Code": "CN", "Population": 4312.0, "Lat": 36.98171, "Lon": 81.36469}], "Xixi": [{"Name": "Xixi", "Country Code": "CN", "Population": 2170.0, "Lat": 27.69375, "Lon": 110.95333}], "Xixiang": [{"Name": "Xixiang", "Country Code": "CN", "Population": 60745.0, "Lat": 35.16278, "Lon": 112.865}, {"Name": "Xixiang", "Country Code": "CN", "Population": 99867.0, "Lat": 32.98703, "Lon": 107.764}], "Xixiangtang": [{"Name": "Xixiangtang", "Country Code": "CN", "Population": 0.0, "Lat": 22.83761, "Lon": 108.31164}], "Xixin": [{"Name": "Xixin", "Country Code": "CN", "Population": 3541.0, "Lat": 29.9189, "Lon": 108.39533}], "Xixona": [{"Name": "Xixona", "Country Code": "ES", "Population": 6865.0, "Lat": 38.54086, "Lon": -0.50263}], "Xiyan": [{"Name": "Xiyan", "Country Code": "CN", "Population": 3060.0, "Lat": 26.61639, "Lon": 110.47361}], "Xiyu": [{"Name": "Xiyu", "Country Code": "CN", "Population": 24452.0, "Lat": 34.05163, "Lon": 105.3036}], "Xiyuzhuang": [{"Name": "Xiyuzhuang", "Country Code": "CN", "Population": 0.0, "Lat": 39.16631, "Lon": 117.15679}], "Xizhi": [{"Name": "Xizhi", "Country Code": "TW", "Population": 204619.0, "Lat": 25.06615, "Lon": 121.65985}], "Xizi": [{"Name": "X\u0131z\u0131", "Country Code": "AZ", "Population": 1024.0, "Lat": 40.90847, "Lon": 49.07481}], "Xmaben": [{"Name": "Xmab\u00e9n", "Country Code": "MX", "Population": 1228.0, "Lat": 19.2353, "Lon": -89.31426}], "Xo`jaobod": [{"Name": "Xo\u2018jaobod", "Country Code": "UZ", "Population": 16889.0, "Lat": 40.66886, "Lon": 72.56002}], "Xo`jayli Shahri": [{"Name": "Xo\u2018jayli Shahri", "Country Code": "UZ", "Population": 50000.0, "Lat": 42.40881, "Lon": 59.44544}], "Xoampolco": [{"Name": "Xoampolco", "Country Code": "MX", "Population": 1009.0, "Lat": 19.76055, "Lon": -97.22965}], "Xocali": [{"Name": "Xocal\u0131", "Country Code": "AZ", "Population": 5810.0, "Lat": 39.91297, "Lon": 46.79028}], "Xocchel": [{"Name": "Xocchel", "Country Code": "MX", "Population": 3229.0, "Lat": 20.83341, "Lon": -89.18322}], "Xocen": [{"Name": "Xocen", "Country Code": "MX", "Population": 2407.0, "Lat": 20.5977, "Lon": -88.1643}], "Xochapa": [{"Name": "Xochapa", "Country Code": "MX", "Population": 1565.0, "Lat": 17.38398, "Lon": -98.45103}], "Xochiapa": [{"Name": "Xochiapa", "Country Code": "MX", "Population": 0.0, "Lat": 17.66354, "Lon": -95.73494}], "Xochiapulco": [{"Name": "Xochiapulco", "Country Code": "MX", "Population": 1066.0, "Lat": 19.8211, "Lon": -97.65947}], "Xochiatipan de Castillo": [{"Name": "Xochiatipan de Castillo", "Country Code": "MX", "Population": 1532.0, "Lat": 20.8351, "Lon": -98.28556}], "Xochicalco (Cirenio Longares)": [{"Name": "Xochicalco (Cirenio Longares)", "Country Code": "MX", "Population": 1361.0, "Lat": 18.78722, "Lon": -99.29944}], "Xochicoatlan": [{"Name": "Xochicoatl\u00e1n", "Country Code": "MX", "Population": 1254.0, "Lat": 20.77676, "Lon": -98.67999}], "Xochicuautla": [{"Name": "Xochicuautla", "Country Code": "MX", "Population": 1464.0, "Lat": 20.05377, "Lon": -97.88912}], "Xochihuehuetlan": [{"Name": "Xochihuehuetl\u00e1n", "Country Code": "MX", "Population": 4859.0, "Lat": 17.90619, "Lon": -98.48818}], "Xochiltepec": [{"Name": "Xochiltepec", "Country Code": "MX", "Population": 1385.0, "Lat": 18.65095, "Lon": -98.3445}, {"Name": "Xochiltepec", "Country Code": "MX", "Population": 2563.0, "Lat": 15.1278, "Lon": -92.43388}], "Xochimanca": [{"Name": "Xochimanca", "Country Code": "MX", "Population": 5239.0, "Lat": 19.49052, "Lon": -98.82433}], "Xochimilco": [{"Name": "Xochimilco", "Country Code": "MX", "Population": 407885.0, "Lat": 19.25465, "Lon": -99.10356}, {"Name": "Xochimilco", "Country Code": "MX", "Population": 2572.0, "Lat": 18.84167, "Lon": -97.72583}, {"Name": "Xochimilco", "Country Code": "MX", "Population": 1334.0, "Lat": 20.86302, "Lon": -98.06967}], "Xochinanacatlan": [{"Name": "Xochinanacatl\u00e1n", "Country Code": "MX", "Population": 2365.0, "Lat": 20.19482, "Lon": -97.89765}], "Xochipala": [{"Name": "Xochipala", "Country Code": "MX", "Population": 3620.0, "Lat": 17.8118, "Lon": -99.63977}], "Xochistlahuaca": [{"Name": "Xochistlahuaca", "Country Code": "MX", "Population": 4152.0, "Lat": 16.79436, "Lon": -98.24106}], "Xochitepec": [{"Name": "Xochitepec", "Country Code": "MX", "Population": 1135.0, "Lat": 18.22833, "Lon": -98.87611}, {"Name": "Xochitepec", "Country Code": "MX", "Population": 1356.0, "Lat": 17.1825, "Lon": -99.22639}, {"Name": "Xochitepec", "Country Code": "MX", "Population": 19164.0, "Lat": 18.7808, "Lon": -99.23049}], "Xochitlan": [{"Name": "Xochitl\u00e1n", "Country Code": "MX", "Population": 1869.0, "Lat": 20.29585, "Lon": -99.18741},