{"Coyomeapan": [{"Name": "Coyomeapan", "Country Code": "MX", "Population": 1108.0, "Lat": 18.28206, "Lon": -96.99336}], "Coyote": [{"Name": "Coyote", "Country Code": "MX", "Population": 8856.0, "Lat": 25.6951, "Lon": -103.2842}], "Coyotepec": [{"Name": "Coyotepec", "Country Code": "MX", "Population": 35677.0, "Lat": 19.77722, "Lon": -99.21295}], "Coyotillos": [{"Name": "Coyotillos", "Country Code": "MX", "Population": 1808.0, "Lat": 20.59938, "Lon": -100.20898}, {"Name": "Coyotillos", "Country Code": "MX", "Population": 3084.0, "Lat": 19.9998, "Lon": -99.15817}], "Coyotitan": [{"Name": "Coyotit\u00e1n", "Country Code": "MX", "Population": 1676.0, "Lat": 23.79416, "Lon": -106.6008}], "Coyuca de Benitez": [{"Name": "Coyuca de Ben\u00edtez", "Country Code": "MX", "Population": 13566.0, "Lat": 17.00895, "Lon": -100.08714}], "Coyuca de Catalan": [{"Name": "Coyuca de Catal\u00e1n", "Country Code": "MX", "Population": 6857.0, "Lat": 18.32614, "Lon": -100.69898}], "Coyula": [{"Name": "Coyula", "Country Code": "MX", "Population": 29674.0, "Lat": 20.65881, "Lon": -103.22654}], "Coyuquilla Norte": [{"Name": "Coyuquilla Norte", "Country Code": "MX", "Population": 1507.0, "Lat": 17.38027, "Lon": -101.05631}], "Coyutla": [{"Name": "Coyutla", "Country Code": "MX", "Population": 8413.0, "Lat": 20.2472, "Lon": -97.65824}], "Cozad": [{"Name": "Cozad", "Country Code": "US", "Population": 3863.0, "Lat": 40.85973, "Lon": -99.98734}], "Cozar": [{"Name": "C\u00f3zar", "Country Code": "ES", "Population": 1305.0, "Lat": 38.66219, "Lon": -3.07205}], "Cozes": [{"Name": "Cozes", "Country Code": "FR", "Population": 1966.0, "Lat": 45.58371, "Lon": -0.83242}], "Cozia": [{"Name": "Cozia", "Country Code": "RO", "Population": 1133.0, "Lat": 47.00319, "Lon": 27.89434}], "Cozieni": [{"Name": "Cozieni", "Country Code": "RO", "Population": 2425.0, "Lat": 45.33333, "Lon": 26.48333}], "Cozma": [{"Name": "Cozma", "Country Code": "RO", "Population": 632.0, "Lat": 46.81667, "Lon": 24.53333}], "Cozmeni": [{"Name": "Cozmeni", "Country Code": "RO", "Population": 1407.0, "Lat": 46.22678, "Lon": 25.94209}], "Cozmesti": [{"Name": "Cozme\u0219ti", "Country Code": "RO", "Population": 382.0, "Lat": 46.73375, "Lon": 27.50164}, {"Name": "Cozme\u015fti", "Country Code": "RO", "Population": 3192.0, "Lat": 46.88333, "Lon": 27.98333}], "Cozotlan Norte": [{"Name": "Cozotl\u00e1n Norte", "Country Code": "MX", "Population": 1505.0, "Lat": 19.70833, "Lon": -98.86}], "Cozuelos de Fuentiduena": [{"Name": "Cozuelos de Fuentidue\u00f1a", "Country Code": "ES", "Population": 161.0, "Lat": 41.39086, "Lon": -4.09564}], "Cozumel": [{"Name": "Cozumel", "Country Code": "MX", "Population": 77236.0, "Lat": 20.50038, "Lon": -86.94272}], "Cozzana": [{"Name": "Cozzana", "Country Code": "IT", "Population": 1435.0, "Lat": 40.92025, "Lon": 17.22259}], "Cozzo": [{"Name": "Cozzo", "Country Code": "IT", "Population": 300.0, "Lat": 45.19213, "Lon": 8.61112}], "Crab Orchard": [{"Name": "Crab Orchard", "Country Code": "US", "Population": 2678.0, "Lat": 37.74067, "Lon": -81.23066}], "Crabtree": [{"Name": "Crabtree", "Country Code": "CA", "Population": 2248.0, "Lat": 45.96677, "Lon": -73.46586}], "Cracaoani": [{"Name": "Cr\u0103c\u0103oani", "Country Code": "RO", "Population": 2092.0, "Lat": 47.09836, "Lon": 26.31111}], "Cracaul Negru": [{"Name": "Crac\u0103ul Negru", "Country Code": "RO", "Population": 1246.0, "Lat": 47.09363, "Lon": 26.24061}], "Crace": [{"Name": "Crace", "Country Code": "AU", "Population": 4419.0, "Lat": -35.20282, "Lon": 149.10736}], "Crach": [{"Name": "Crach", "Country Code": "FR", "Population": 3241.0, "Lat": 47.617, "Lon": -3.00165}], "Craciunei": [{"Name": "Cr\u0103ciunei", "Country Code": "RO", "Population": 1050.0, "Lat": 44.14575, "Lon": 24.66309}], "Craciunelu de Jos": [{"Name": "Cr\u0103ciunelu de Jos", "Country Code": "RO", "Population": 4297.0, "Lat": 46.18333, "Lon": 23.83333}], "Craciunesti": [{"Name": "Cr\u0103ciune\u015fti", "Country Code": "RO", "Population": 4283.0, "Lat": 46.4793, "Lon": 24.58234}, {"Name": "Cr\u0103ciune\u0219ti", "Country Code": "RO", "Population": 1525.0, "Lat": 47.95551, "Lon": 23.98267}], "Craco-Sant'Angelo": [{"Name": "Craco-Sant'Angelo", "Country Code": "IT", "Population": 73.0, "Lat": 40.37992, "Lon": 16.43708}], "Cradley Heath": [{"Name": "Cradley Heath", "Country Code": "GB", "Population": 5001.0, "Lat": 52.47214, "Lon": -2.08212}], "Cradock": [{"Name": "Cradock", "Country Code": "ZA", "Population": 43936.0, "Lat": -32.16422, "Lon": 25.61918}], "Crafers": [{"Name": "Crafers", "Country Code": "AU", "Population": 1905.0, "Lat": -35.0, "Lon": 138.7}], "Crafers West": [{"Name": "Crafers West", "Country Code": "AU", "Population": 1181.0, "Lat": -34.99136, "Lon": 138.68205}], "Crafton": [{"Name": "Crafton", "Country Code": "US", "Population": 5876.0, "Lat": 40.43507, "Lon": -80.06617}], "Craidorolt": [{"Name": "Craidorol\u0163", "Country Code": "RO", "Population": 2151.0, "Lat": 47.61667, "Lon": 22.7}], "Craiesti": [{"Name": "Cr\u0103ie\u015fti", "Country Code": "RO", "Population": 1011.0, "Lat": 46.3, "Lon": 24.18333}, {"Name": "Cr\u0103ie\u0219ti", "Country Code": "RO", "Population": 1052.0, "Lat": 45.94314, "Lon": 27.81136}, {"Name": "Cr\u0103ie\u0219ti", "Country Code": "RO", "Population": 774.0, "Lat": 46.75771, "Lon": 24.42499}], "Craig": [{"Name": "Craig", "Country Code": "US", "Population": 1248.0, "Lat": 55.47639, "Lon": -133.14833}, {"Name": "Craig", "Country Code": "US", "Population": 8844.0, "Lat": 40.51525, "Lon": -107.54645}], "Craig Beach": [{"Name": "Craig Beach", "Country Code": "US", "Population": 1143.0, "Lat": 41.117, "Lon": -80.98342}], "Craigavon": [{"Name": "Craigavon", "Country Code": "GB", "Population": 59236.0, "Lat": 54.44709, "Lon": -6.387}], "Craigburn Farm": [{"Name": "Craigburn Farm", "Country Code": "AU", "Population": 2336.0, "Lat": -35.04046, "Lon": 138.6049}], "Craigie": [{"Name": "Craigie", "Country Code": "AU", "Population": 5713.0, "Lat": -31.78727, "Lon": 115.76989}], "Craigieburn": [{"Name": "Craigieburn", "Country Code": "AU", "Population": 65178.0, "Lat": -37.6, "Lon": 144.95}, {"Name": "Craigieburn", "Country Code": "ZA", "Population": 13543.0, "Lat": -30.19709, "Lon": 30.75222}], "Craiglie": [{"Name": "Craiglie", "Country Code": "AU", "Population": 1098.0, "Lat": -16.53789, "Lon": 145.46963}], "Craigmore": [{"Name": "Craigmore", "Country Code": "AU", "Population": 10943.0, "Lat": -34.70064, "Lon": 138.70956}], "Craignish": [{"Name": "Craignish", "Country Code": "AU", "Population": 1777.0, "Lat": -25.28258, "Lon": 152.72429}], "Craigsville": [{"Name": "Craigsville", "Country Code": "US", "Population": 2213.0, "Lat": 38.33067, "Lon": -80.65315}], "Crail": [{"Name": "Crail", "Country Code": "GB", "Population": 1670.0, "Lat": 56.26042, "Lon": -2.62676}], "Crailsheim": [{"Name": "Crailsheim", "Country Code": "DE", "Population": 32262.0, "Lat": 49.13444, "Lon": 10.07193}], "Crainville": [{"Name": "Crainville", "Country Code": "US", "Population": 1381.0, "Lat": 37.75199, "Lon": -89.06785}], "Craiova": [{"Name": "Craiova", "Country Code": "RO", "Population": 305689.0, "Lat": 44.31667, "Lon": 23.8}], "Craiva": [{"Name": "Craiva", "Country Code": "RO", "Population": 585.0, "Lat": 46.58333, "Lon": 21.96667}], "Cramerton": [{"Name": "Cramerton", "Country Code": "US", "Population": 4328.0, "Lat": 35.23875, "Lon": -81.07508}], "Cramlington": [{"Name": "Cramlington", "Country Code": "GB", "Population": 33180.0, "Lat": 55.08652, "Lon": -1.58598}], "Crampoia": [{"Name": "Cr\u00e2mpoia", "Country Code": "RO", "Population": 3212.0, "Lat": 44.30215, "Lon": 24.74513}], "Cran-Gevrier": [{"Name": "Cran-Gevrier", "Country Code": "FR", "Population": 19354.0, "Lat": 45.9, "Lon": 6.1}], "Cranberry Township": [{"Name": "Cranberry Township", "Country Code": "US", "Population": 28098.0, "Lat": 40.68496, "Lon": -80.10714}], "Cranbourne": [{"Name": "Cranbourne", "Country Code": "AU", "Population": 21281.0, "Lat": -38.11342, "Lon": 145.28326}], "Cranbourne East": [{"Name": "Cranbourne East", "Country Code": "AU", "Population": 24679.0, "Lat": -38.11531, "Lon": 145.29814}], "Cranbourne North": [{"Name": "Cranbourne North", "Country Code": "AU", "Population": 24683.0, "Lat": -38.07758, "Lon": 145.29871}], "Cranbourne South": [{"Name": "Cranbourne South", "Country Code": "AU", "Population": 1610.0, "Lat": -38.13502, "Lon": 145.23958}], "Cranbourne West": [{"Name": "Cranbourne West", "Country Code": "AU", "Population": 19969.0, "Lat": -38.0965, "Lon": 145.26707}], "Cranbrook": [{"Name": "Cranbrook", "Country Code": "AU", "Population": 5826.0, "Lat": -19.30553, "Lon": 146.75286}, {"Name": "Cranbrook", "Country Code": "CA", "Population": 20047.0, "Lat": 49.49991, "Lon": -115.76879}, {"Name": "Cranbrook", "Country Code": "GB", "Population": 4368.0, "Lat": 51.09662, "Lon": 0.53567}], "Cranbury": [{"Name": "Cranbury", "Country Code": "US", "Population": 2181.0, "Lat": 40.31622, "Lon": -74.51376}], "Crandall": [{"Name": "Crandall", "Country Code": "US", "Population": 3238.0, "Lat": 32.62791, "Lon": -96.45582}], "Crandola Valsassina": [{"Name": "Crandola Valsassina", "Country Code": "IT", "Population": 252.0, "Lat": 46.02329, "Lon": 9.37914}], "Crandon": [{"Name": "Crandon", "Country Code": "US", "Population": 1863.0, "Lat": 45.57191, "Lon": -88.90289}], "Crandon Lakes": [{"Name": "Crandon Lakes", "Country Code": "US", "Population": 1178.0, "Lat": 41.12426, "Lon": -74.83989}], "Crane": [{"Name": "Crane", "Country Code": "BB", "Population": 935.0, "Lat": 13.10487, "Lon": -59.44861}, {"Name": "Crane", "Country Code": "US", "Population": 1352.0, "Lat": 36.90534, "Lon": -93.57158}, {"Name": "Crane", "Country Code": "US", "Population": 3895.0, "Lat": 31.39736, "Lon": -102.35014}], "Cranebrook": [{"Name": "Cranebrook", "Country Code": "AU", "Population": 15649.0, "Lat": -33.7061, "Lon": 150.7094}], "Cranendonck": [{"Name": "Cranendonck", "Country Code": "NL", "Population": 19966.0, "Lat": 51.30417, "Lon": 5.58889}], "Cranfield": [{"Name": "Cranfield", "Country Code": "GB", "Population": 5369.0, "Lat": 52.06869, "Lon": -0.60884}], "Cranford": [{"Name": "Cranford", "Country Code": "GB", "Population": 12330.0, "Lat": 51.47695, "Lon": -0.41345}, {"Name": "Cranford", "Country Code": "US", "Population": 22627.0, "Lat": 40.65844, "Lon": -74.29959}], "Crangeni": [{"Name": "Cr\u00e2ngeni", "Country Code": "RO", "Population": 3529.0, "Lat": 44.03333, "Lon": 24.78333}], "Crangu": [{"Name": "Cr\u00e2ngu", "Country Code": "RO", "Population": 1242.0, "Lat": 43.84611, "Lon": 25.0735}], "Crangurile de Sus": [{"Name": "Cr\u00e2ngurile de Sus", "Country Code": "RO", "Population": 3428.0, "Lat": 44.76667, "Lon": 25.23333}], "Cranham": [{"Name": "Cranham", "Country Code": "GB", "Population": 2836.0, "Lat": 51.56565, "Lon": 0.2659}], "Cranleigh": [{"Name": "Cranleigh", "Country Code": "GB", "Population": 11082.0, "Lat": 51.14209, "Lon": -0.48374}], "Cranley": [{"Name": "Cranley", "Country Code": "AU", "Population": 1392.0, "Lat": -27.51504, "Lon": 151.923}], "Crans-Montana": [{"Name": "Crans-Montana", "Country Code": "CH", "Population": 10218.0, "Lat": 46.31316, "Lon": 7.47914}], "Cransac": [{"Name": "Cransac", "Country Code": "FR", "Population": 1714.0, "Lat": 44.52411, "Lon": 2.2837}], "Cranston": [{"Name": "Cranston", "Country Code": "US", "Population": 81073.0, "Lat": 41.77982, "Lon": -71.43728}], "Cranves-Sales": [{"Name": "Cranves-Sales", "Country Code": "FR", "Population": 4876.0, "Lat": 46.18799, "Lon": 6.29903}], "Cranwell": [{"Name": "Cranwell", "Country Code": "GB", "Population": 1372.0, "Lat": 53.03681, "Lon": -0.46176}], "Craon": [{"Name": "Craon", "Country Code": "FR", "Population": 5130.0, "Lat": 47.84811, "Lon": -0.95002}], "Craponne": [{"Name": "Craponne", "Country Code": "FR", "Population": 8460.0, "Lat": 45.74526, "Lon": 4.72322}], "Craponne-sur-Arzon": [{"Name": "Craponne-sur-Arzon", "Country Code": "FR", "Population": 2794.0, "Lat": 45.33092, "Lon": 3.84817}], "Cras": [{"Name": "Cras", "Country Code": "IT", "Population": 17.0, "Lat": 46.17403, "Lon": 13.62287}], "Crasna": [{"Name": "Crasna", "Country Code": "RO", "Population": 6233.0, "Lat": 47.16667, "Lon": 22.9}, {"Name": "Crasna", "Country Code": "RO", "Population": 5466.0, "Lat": 45.16667, "Lon": 23.5}], "Crasna Viseului": [{"Name": "Crasna Vi\u0219eului", "Country Code": "RO", "Population": 2011.0, "Lat": 47.82869, "Lon": 24.23}], "Crasnoe": [{"Name": "Crasnoe", "Country Code": "MD", "Population": 4200.0, "Lat": 46.643, "Lon": 29.823}], "Crater": [{"Name": "Crater", "Country Code": "YE", "Population": 0.0, "Lat": 12.77522, "Lon": 45.03862}], "Crateus": [{"Name": "Crate\u00fas", "Country Code": "BR", "Population": 52933.0, "Lat": -5.17833, "Lon": -40.6775}], "Crato": [{"Name": "Crato", "Country Code": "BR", "Population": 88786.0, "Lat": -7.23417, "Lon": -39.40944}], "Crauthem": [{"Name": "Crauthem", "Country Code": "LU", "Population": 1278.0, "Lat": 49.53556, "Lon": 6.14694}], "Crava": [{"Name": "Crava", "Country Code": "IT", "Population": 655.0, "Lat": 44.43001, "Lon": 7.74493}], "Cravagliana": [{"Name": "Cravagliana", "Country Code": "IT", "Population": 49.0, "Lat": 45.84827, "Lon": 8.20182}], "Cravanche": [{"Name": "Cravanche", "Country Code": "FR", "Population": 1947.0, "Lat": 47.65346, "Lon": 6.83197}], "Cravanzana": [{"Name": "Cravanzana", "Country Code": "IT", "Population": 235.0, "Lat": 44.57448, "Lon": 8.12731}], "Craveggia": [{"Name": "Craveggia", "Country Code": "IT", "Population": 484.0, "Lat": 46.14124, "Lon": 8.48907}], "Craven Arms": [{"Name": "Craven Arms", "Country Code": "GB", "Population": 2595.0, "Lat": 52.44308, "Lon": -2.83562}], "Cravinhos": [{"Name": "Cravinhos", "Country Code": "BR", "Population": 32689.0, "Lat": -21.34028, "Lon": -47.72944}], "Cravo Norte": [{"Name": "Cravo Norte", "Country Code": "CO", "Population": 4787.0, "Lat": 6.30173, "Lon": -70.20415}], "Crawfordsville": [{"Name": "Crawfordsville", "Country Code": "US", "Population": 16024.0, "Lat": 40.04115, "Lon": -86.87445}], "Crawfordville": [{"Name": "Crawfordville", "Country Code": "US", "Population": 508.0, "Lat": 33.55402, "Lon": -82.89598}, {"Name": "Crawfordville", "Country Code": "US", "Population": 3702.0, "Lat": 30.17604, "Lon": -84.37518}], "Crawinkel": [{"Name": "Crawinkel", "Country Code": "DE", "Population": 1640.0, "Lat": 50.78333, "Lon": 10.78333}], "Crawley": [{"Name": "Crawley", "Country Code": "AU", "Population": 4202.0, "Lat": -31.98418, "Lon": 115.81603}, {"Name": "Crawley", "Country Code": "GB", "Population": 180508.0, "Lat": 51.11303, "Lon": -0.18312}], "Crawley Down": [{"Name": "Crawley Down", "Country Code": "GB", "Population": 4300.0, "Lat": 51.12061, "Lon": -0.0773}], "Cray": [{"Name": "Cray", "Country Code": "GB", "Population": 0.0, "Lat": 51.9, "Lon": -3.61667}], "Creaca": [{"Name": "Creaca", "Country Code": "RO", "Population": 2987.0, "Lat": 47.2, "Lon": 23.25}], "Creances": [{"Name": "Cr\u00e9ances", "Country Code": "FR", "Population": 2052.0, "Lat": 49.19873, "Lon": -1.56938}], "Creazzo": [{"Name": "Creazzo", "Country Code": "IT", "Population": 10124.0, "Lat": 45.53154, "Lon": 11.47789}], "Crecchio": [{"Name": "Crecchio", "Country Code": "IT", "Population": 523.0, "Lat": 42.29778, "Lon": 14.32656}], "Creches-sur-Saone": [{"Name": "Cr\u00eaches-sur-Sa\u00f4ne", "Country Code": "FR", "Population": 2793.0, "Lat": 46.24475, "Lon": 4.78678}], "Crecy-en-Ponthieu": [{"Name": "Cr\u00e9cy-en-Ponthieu", "Country Code": "FR", "Population": 1549.0, "Lat": 50.25193, "Lon": 1.88085}], "Crecy-sur-Serre": [{"Name": "Cr\u00e9cy-sur-Serre", "Country Code": "FR", "Population": 1581.0, "Lat": 49.69594, "Lon": 3.62453}], "Credaro": [{"Name": "Credaro", "Country Code": "IT", "Population": 2250.0, "Lat": 45.66058, "Lon": 9.93106}], "Credenhill": [{"Name": "Credenhill", "Country Code": "GB", "Population": 2271.0, "Lat": 52.08351, "Lon": -2.80804}], "Credera": [{"Name": "Credera", "Country Code": "IT", "Population": 718.0, "Lat": 45.30301, "Lon": 9.65498}], "Credin": [{"Name": "Cr\u00e9din", "Country Code": "FR", "Population": 1478.0, "Lat": 48.03446, "Lon": -2.76759}], "Crediton": [{"Name": "Crediton", "Country Code": "GB", "Population": 7835.0, "Lat": 50.78333, "Lon": -3.65}], "Creech Saint Michael": [{"Name": "Creech Saint Michael", "Country Code": "GB", "Population": 1795.0, "Lat": 51.02333, "Lon": -3.03833}], "Creede": [{"Name": "Creede", "Country Code": "US", "Population": 405.0, "Lat": 37.84917, "Lon": -106.92643}], "Creedmoor": [{"Name": "Creedmoor", "Country Code": "US", "Population": 4425.0, "Lat": 36.12237, "Lon": -78.68611}], "Creel": [{"Name": "Creel", "Country Code": "MX", "Population": 5026.0, "Lat": 27.75054, "Lon": -107.6352}], "Creglingen": [{"Name": "Creglingen", "Country Code": "DE", "Population": 4828.0, "Lat": 49.46937, "Lon": 10.03119}], "Cregy-les-Meaux": [{"Name": "Cr\u00e9gy-l\u00e8s-Meaux", "Country Code": "FR", "Population": 4061.0, "Lat": 48.97648, "Lon": 2.87483}], "Crehange": [{"Name": "Cr\u00e9hange", "Country Code": "FR", "Population": 4002.0, "Lat": 49.05897, "Lon": 6.58178}], "Crehen": [{"Name": "Cr\u00e9hen", "Country Code": "FR", "Population": 1576.0, "Lat": 48.54526, "Lon": -2.21373}], "Creighton": [{"Name": "Creighton", "Country Code": "US", "Population": 1120.0, "Lat": 42.46667, "Lon": -97.90618}, {"Name": "Creighton", "Country Code": "ZA", "Population": 0.0, "Lat": -30.0272, "Lon": 29.83955}], "Creil": [{"Name": "Creil", "Country Code": "FR", "Population": 31863.0, "Lat": 49.25672, "Lon": 2.48477}], "Creissan": [{"Name": "Creissan", "Country Code": "FR", "Population": 1103.0, "Lat": 43.37482, "Lon": 3.01063}], "Creissels": [{"Name": "Creissels", "Country Code": "FR", "Population": 1569.0, "Lat": 44.08564, "Lon": 3.06163}], "Creixell": [{"Name": "Creixell", "Country Code": "ES", "Population": 2510.0, "Lat": 41.16618, "Lon": 1.44032}], "Crema": [{"Name": "Crema", "Country Code": "IT", "Population": 31481.0, "Lat": 45.36264, "Lon": 9.68176}], "Cremella": [{"Name": "Cremella", "Country Code": "IT", "Population": 1694.0, "Lat": 45.73858, "Lon": 9.30064}], "Cremenaga": [{"Name": "Cremenaga", "Country Code": "IT", "Population": 768.0, "Lat": 45.98938, "Lon": 8.80333}], "Cremenes": [{"Name": "Cr\u00e9menes", "Country Code": "ES", "Population": 867.0, "Lat": 42.90357, "Lon": -5.14374}], "Cremeno": [{"Name": "Cremeno", "Country Code": "IT", "Population": 663.0, "Lat": 45.93492, "Lon": 9.47099}], "Cremia": [{"Name": "Cremia", "Country Code": "IT", "Population": 761.0, "Lat": 46.08649, "Lon": 9.27114}], "Cremieu": [{"Name": "Cr\u00e9mieu", "Country Code": "FR", "Population": 3427.0, "Lat": 45.72557, "Lon": 5.24911}], "Cremlingen": [{"Name": "Cremlingen", "Country Code": "DE", "Population": 12808.0, "Lat": 52.24794, "Lon": 10.65506}], "Cremolino": [{"Name": "Cremolino", "Country Code": "IT", "Population": 202.0, "Lat": 44.63674, "Lon": 8.58584}], "Cremona": [{"Name": "Cremona", "Country Code": "IT", "Population": 71223.0, "Lat": 45.13325, "Lon": 10.02129}], "Cremorne": [{"Name": "Cremorne", "Country Code": "AU", "Population": 1564.0, "Lat": -37.8318, "Lon": 144.9938}, {"Name": "Cremorne", "Country Code": "AU", "Population": 11069.0, "Lat": -33.82679, "Lon": 151.22633}], "Cremorne Point": [{"Name": "Cremorne Point", "Country Code": "AU", "Population": 2392.0, "Lat": -33.84008, "Lon": 151.22698}], "Cremosano": [{"Name": "Cremosano", "Country Code": "IT", "Population": 1485.0, "Lat": 45.39467, "Lon": 9.63826}], "Creney-pres-Troyes": [{"Name": "Creney-pr\u00e8s-Troyes", "Country Code": "FR", "Population": 1551.0, "Lat": 48.33333, "Lon": 4.13333}], "Crensovci": [{"Name": "\u010cren\u0161ovci", "Country Code": "SI", "Population": 1178.0, "Lat": 46.55794, "Lon": 16.3041}], "Creola": [{"Name": "Creola", "Country Code": "US", "Population": 1955.0, "Lat": 30.89185, "Lon": -88.03972}], "Creon": [{"Name": "Cr\u00e9on", "Country Code": "FR", "Population": 3139.0, "Lat": 44.77456, "Lon": -0.34817}], "Crepaja": [{"Name": "Crepaja", "Country Code": "RS", "Population": 5369.0, "Lat": 45.00984, "Lon": 20.63702}], "Crepaldo": [{"Name": "Crepaldo", "Country Code": "IT", "Population": 2455.0, "Lat": 45.59495, "Lon": 12.69655}], "Crepy": [{"Name": "Cr\u00e9py", "Country Code": "FR", "Population": 1739.0, "Lat": 49.6, "Lon": 3.51667}], "Crepy-en-Valois": [{"Name": "Cr\u00e9py-en-Valois", "Country Code": "FR", "Population": 15694.0, "Lat": 49.23359, "Lon": 2.88807}], "Cres": [{"Name": "Cres", "Country Code": "HR", "Population": 2185.0, "Lat": 44.96092, "Lon": 14.41246}], "Cresaptown": [{"Name": "Cresaptown", "Country Code": "US", "Population": 4592.0, "Lat": 39.59287, "Lon": -78.83335}], "Crescencio Morales (San Mateo)": [{"Name": "Crescencio Morales (San Mateo)", "Country Code": "MX", "Population": 1709.0, "Lat": 19.49111, "Lon": -100.24306}], "Crescent": [{"Name": "Crescent", "Country Code": "US", "Population": 1527.0, "Lat": 35.95254, "Lon": -97.59477}], "Crescent City": [{"Name": "Crescent City", "Country Code": "US", "Population": 1540.0, "Lat": 29.43025, "Lon": -81.51063}, {"Name": "Crescent City", "Country Code": "US", "Population": 6774.0, "Lat": 41.75595, "Lon": -124.20175}], "Crescent Head": [{"Name": "Crescent Head", "Country Code": "AU", "Population": 1641.0, "Lat": -31.1887, "Lon": 152.97301}], "Crescent Springs": [{"Name": "Crescent Springs", "Country Code": "US", "Population": 4010.0, "Lat": 39.05145, "Lon": -84.58161}], "Crescentino": [{"Name": "Crescentino", "Country Code": "IT", "Population": 6003.0, "Lat": 45.19941, "Lon": 8.08635}], "Cresco": [{"Name": "Cresco", "Country Code": "US", "Population": 3833.0, "Lat": 43.38136, "Lon": -92.11405}, {"Name": "Cresco", "Country Code": "US", "Population": 4240.0, "Lat": 41.15398, "Lon": -75.28046}], "Cresevo": [{"Name": "Cresevo", "Country Code": "MK", "Population": 1479.0, "Lat": 42.05083, "Lon": 21.50972}], "Crespadoro": [{"Name": "Crespadoro", "Country Code": "IT", "Population": 475.0, "Lat": 45.62019, "Lon": 11.22589}], "Crespano del Grappa": [{"Name": "Crespano del Grappa", "Country Code": "IT", "Population": 4315.0, "Lat": 45.82793, "Lon": 11.83358}], "Crespellano": [{"Name": "Crespellano", "Country Code": "IT", "Population": 4438.0, "Lat": 44.51196, "Lon": 11.13224}], "Crespia": [{"Name": "Crespi\u00e0", "Country Code": "ES", "Population": 224.0, "Lat": 42.18333, "Lon": 2.8}], "Crespiatica": [{"Name": "Crespiatica", "Country Code": "IT", "Population": 2008.0, "Lat": 45.35136, "Lon": 9.57659}], "Crespieres": [{"Name": "Crespi\u00e8res", "Country Code": "FR", "Population": 1554.0, "Lat": 48.88317, "Lon": 1.92151}], "Crespin": [{"Name": "Crespin", "Country Code": "FR", "Population": 4361.0, "Lat": 50.4211, "Lon": 3.66137}], "Crespina": [{"Name": "Crespina", "Country Code": "IT", "Population": 592.0, "Lat": 43.57304, "Lon": 10.56431}], "Crespino": [{"Name": "Crespino", "Country Code": "IT", "Population": 1186.0, "Lat": 44.98527, "Lon": 11.88958}], "Crespo": [{"Name": "Crespo", "Country Code": "AR", "Population": 18296.0, "Lat": -32.03077, "Lon": -60.30619}], "Crespos": [{"Name": "Crespos", "Country Code": "ES", "Population": 632.0, "Lat": 40.87128, "Lon": -4.97094}], "Cressa": [{"Name": "Cressa", "Country Code": "IT", "Population": 660.0, "Lat": 45.64762, "Lon": 8.50942}], "Cresserons": [{"Name": "Cresserons", "Country Code": "FR", "Population": 1255.0, "Lat": 49.28701, "Lon": -0.35569}], "Cressier": [{"Name": "Cressier", "Country Code": "CH", "Population": 1912.0, "Lat": 47.04907, "Lon": 7.03455}], "Cresskill": [{"Name": "Cresskill", "Country Code": "US", "Population": 8812.0, "Lat": 40.94149, "Lon": -73.9593}], "Cresson": [{"Name": "Cresson", "Country Code": "US", "Population": 1633.0, "Lat": 40.45979, "Lon": -78.59168}], "Cressona": [{"Name": "Cressona", "Country Code": "US", "Population": 1625.0, "Lat": 40.62676, "Lon": -76.19272}], "Cresswell": [{"Name": "Cresswell", "Country Code": "GB", "Population": 0.0, "Lat": 55.21667, "Lon": -1.55}], "Cressy": [{"Name": "Cressy", "Country Code": "AU", "Population": 1077.0, "Lat": -41.68561, "Lon": 147.07792}], "Crest": [{"Name": "Crest", "Country Code": "FR", "Population": 8517.0, "Lat": 44.72639, "Lon": 5.01517}, {"Name": "Crest", "Country Code": "US", "Population": 2593.0, "Lat": 32.80727, "Lon": -116.86808}], "Crest Hill": [{"Name": "Crest Hill", "Country Code": "US", "Population": 21153.0, "Lat": 41.55475, "Lon": -88.09867}], "Crested Butte": [{"Name": "Crested Butte", "Country Code": "US", "Population": 1579.0, "Lat": 38.86971, "Lon": -106.98782}], "Crestline": [{"Name": "Crestline", "Country Code": "US", "Population": 4438.0, "Lat": 40.78756, "Lon": -82.73657}, {"Name": "Crestline", "Country Code": "US", "Population": 10770.0, "Lat": 34.24195, "Lon": -117.2856}], "Crestmead": [{"Name": "Crestmead", "Country Code": "AU", "Population": 12067.0, "Lat": -27.68759, "Lon": 153.08444}], "Creston": [{"Name": "Creston", "Country Code": "CA", "Population": 5351.0, "Lat": 49.09987, "Lon": -116.50211}, {"Name": "Creston", "Country Code": "US", "Population": 7854.0, "Lat": 41.0586, "Lon": -94.36135}, {"Name": "Creston", "Country Code": "US", "Population": 2181.0, "Lat": 40.987, "Lon": -81.89375}], "Crestview": [{"Name": "Crestview", "Country Code": "US", "Population": 23270.0, "Lat": 30.76213, "Lon": -86.57051}], "Crestview Hills": [{"Name": "Crestview Hills", "Country Code": "US", "Population": 3340.0, "Lat": 39.02728, "Lon": -84.58494}], "Crestwood": [{"Name": "Crestwood", "Country Code": "AU", "Population": 4556.0, "Lat": -35.34844, "Lon": 149.21758}, {"Name": "Crestwood", "Country Code": "US", "Population": 10984.0, "Lat": 41.64463, "Lon": -87.74154}, {"Name": "Crestwood", "Country Code": "US", "Population": 4847.0, "Lat": 38.32424, "Lon": -85.47246}, {"Name": "Crestwood", "Country Code": "US", "Population": 11966.0, "Lat": 38.557, "Lon": -90.38178}], "Crestwood Village": [{"Name": "Crestwood Village", "Country Code": "US", "Population": 7907.0, "Lat": 39.94817, "Lon": -74.3607}], "Creswell": [{"Name": "Creswell", "Country Code": "GB", "Population": 5417.0, "Lat": 53.26287, "Lon": -1.21987}, {"Name": "Creswell", "Country Code": "US", "Population": 5199.0, "Lat": 43.9179, "Lon": -123.02453}], "Creswick": [{"Name": "Creswick", "Country Code": "AU", "Population": 3164.0, "Lat": -37.42404, "Lon": 143.8947}], "Crete": [{"Name": "Crete", "Country Code": "US", "Population": 8191.0, "Lat": 41.44448, "Lon": -87.63143}, {"Name": "Crete", "Country Code": "US", "Population": 7037.0, "Lat": 40.62778, "Lon": -96.96142}], "Creteil": [{"Name": "Cr\u00e9teil", "Country Code": "FR", "Population": 84833.0, "Lat": 48.79266, "Lon": 2.46569}], "Creteni": [{"Name": "Cre\u0163eni", "Country Code": "RO", "Population": 2602.0, "Lat": 44.68333, "Lon": 24.18333}], "Cretesti": [{"Name": "Cre\u021be\u0219ti", "Country Code": "RO", "Population": 2683.0, "Lat": 44.28238, "Lon": 26.1353}, {"Name": "Cre\u021be\u0219ti", "Country Code": "RO", "Population": 561.0, "Lat": 46.63333, "Lon": 27.95}], "Creto": [{"Name": "Creto", "Country Code": "IT", "Population": 804.0, "Lat": 45.9411, "Lon": 10.64027}], "Cretone": [{"Name": "Cretone", "Country Code": "IT", "Population": 1120.0, "Lat": 42.07116, "Lon": 12.70365}], "Creully": [{"Name": "Creully", "Country Code": "FR", "Population": 1490.0, "Lat": 49.28478, "Lon": -0.53976}], "Creussen": [{"Name": "Creu\u00dfen", "Country Code": "DE", "Population": 4871.0, "Lat": 49.84495, "Lon": 11.62683}], "Creutzwald": [{"Name": "Creutzwald", "Country Code": "FR", "Population": 14416.0, "Lat": 49.20531, "Lon": 6.69668}], "Creuzburg": [{"Name": "Creuzburg", "Country Code": "DE", "Population": 2658.0, "Lat": 51.05288, "Lon": 10.2475}], "Creuzier-le-Vieux": [{"Name": "Creuzier-le-Vieux", "Country Code": "FR", "Population": 3099.0, "Lat": 46.16253, "Lon": 3.43311}], "Crevacuore": [{"Name": "Crevacuore", "Country Code": "IT", "Population": 1467.0, "Lat": 45.68548, "Lon": 8.24404}], "Crevalcore": [{"Name": "Crevalcore", "Country Code": "IT", "Population": 9017.0, "Lat": 44.71966, "Lon": 11.14765}], "Creve Coeur": [{"Name": "Cr\u00e8ve Coeur", "Country Code": "MU", "Population": 3097.0, "Lat": -20.19346, "Lon": 57.56328}, {"Name": "Creve Coeur", "Country Code": "US", "Population": 18276.0, "Lat": 38.66089, "Lon": -90.42262}, {"Name": "Creve Coeur", "Country Code": "US", "Population": 5272.0, "Lat": 40.64726, "Lon": -89.59121}], "Crevecoeur-le-Grand": [{"Name": "Cr\u00e8vec\u0153ur-le-Grand", "Country Code": "FR", "Population": 3176.0, "Lat": 49.6, "Lon": 2.08333}], "Crevedia": [{"Name": "Crevedia", "Country Code": "RO", "Population": 6674.0, "Lat": 44.6, "Lon": 25.93333}], "Crevedia Mare": [{"Name": "Crevedia Mare", "Country Code": "RO", "Population": 4927.0, "Lat": 44.42917, "Lon": 25.62556}], "Crevenicu": [{"Name": "Crevenicu", "Country Code": "RO", "Population": 1693.0, "Lat": 44.24083, "Lon": 25.58861}], "Crevillente": [{"Name": "Crevillente", "Country Code": "ES", "Population": 28957.0, "Lat": 38.24994, "Lon": -0.80975}], "Crevin": [{"Name": "Crevin", "Country Code": "FR", "Population": 1872.0, "Lat": 47.93735, "Lon": -1.66245}], "Crevoladossola": [{"Name": "Crevoladossola", "Country Code": "IT", "Population": 4216.0, "Lat": 46.14858, "Lon": 8.29742}], "Crewe": [{"Name": "Crewe", "Country Code": "GB", "Population": 75556.0, "Lat": 53.09787, "Lon": -2.44161}, {"Name": "Crewe", "Country Code": "US", "Population": 2241.0, "Lat": 37.17321, "Lon": -78.12333}], "Crewkerne": [{"Name": "Crewkerne", "Country Code": "GB", "Population": 7826.0, "Lat": 50.88298, "Lon": -2.79588}], "Creys-Mepieu": [{"Name": "Creys-M\u00e9pieu", "Country Code": "FR", "Population": 1180.0, "Lat": 45.73333, "Lon": 5.48333}], "Creysse": [{"Name": "Creysse", "Country Code": "FR", "Population": 2390.0, "Lat": 44.85514, "Lon": 0.56551}], "Crezancy": [{"Name": "Cr\u00e9zancy", "Country Code": "FR", "Population": 1257.0, "Lat": 49.04833, "Lon": 3.51047}], "Crib Point": [{"Name": "Crib Point", "Country Code": "AU", "Population": 3095.0, "Lat": -38.35, "Lon": 145.2}], "Cricau": [{"Name": "Cric\u0103u", "Country Code": "RO", "Population": 2052.0, "Lat": 46.18333, "Lon": 23.56667}], "Criccieth": [{"Name": "Criccieth", "Country Code": "GB", "Population": 1753.0, "Lat": 52.92053, "Lon": -4.2346}], "Crichi": [{"Name": "Crichi", "Country Code": "IT", "Population": 2176.0, "Lat": 38.95296, "Lon": 16.64178}], "Criciova": [{"Name": "Criciova", "Country Code": "RO", "Population": 1698.0, "Lat": 45.63333, "Lon": 22.06667}], "Criciuma": [{"Name": "Crici\u00fama", "Country Code": "BR", "Population": 161954.0, "Lat": -28.6775, "Lon": -49.36972}], "Crick": [{"Name": "Crick", "Country Code": "GB", "Population": 1886.0, "Lat": 52.34808, "Lon": -1.13708}], "Cricket": [{"Name": "Cricket", "Country Code": "US", "Population": 1855.0, "Lat": 36.17152, "Lon": -81.19398}], "Crickhowell": [{"Name": "Crickhowell", "Country Code": "GB", "Population": 2063.0, "Lat": 51.85992, "Lon": -3.13771}], "Cricklade": [{"Name": "Cricklade", "Country Code": "GB", "Population": 4030.0, "Lat": 51.64061, "Lon": -1.85738}], "Cricklewood": [{"Name": "Cricklewood", "Country Code": "GB", "Population": 65000.0, "Lat": 51.5567, "Lon": -0.21549}], "Cricova": [{"Name": "Cricova", "Country Code": "MD", "Population": 7400.0, "Lat": 47.13835, "Lon": 28.86156}], "Cridersville": [{"Name": "Cridersville", "Country Code": "US", "Population": 1828.0, "Lat": 40.65422, "Lon": -84.15078}], "Crieff": [{"Name": "Crieff", "Country Code": "GB", "Population": 7430.0, "Lat": 56.37268, "Lon": -3.83891}], "Criel-sur-Mer": [{"Name": "Criel-sur-Mer", "Country Code": "FR", "Population": 2805.0, "Lat": 50.01508, "Lon": 1.31459}], "Crigglestone": [{"Name": "Crigglestone", "Country Code": "GB", "Population": 0.0, "Lat": 53.6424, "Lon": -1.52916}], "Crikvenica": [{"Name": "Crikvenica", "Country Code": "HR", "Population": 6239.0, "Lat": 45.17722, "Lon": 14.69278}], "Crimmitschau": [{"Name": "Crimmitschau", "Country Code": "DE", "Population": 22442.0, "Lat": 50.81644, "Lon": 12.39045}], "Crimora": [{"Name": "Crimora", "Country Code": "US", "Population": 2209.0, "Lat": 38.15402, "Lon": -78.8503}], "Cringila": [{"Name": "Cringila", "Country Code": "AU", "Population": 2176.0, "Lat": -34.47131, "Lon": 150.86755}], "Cringleford": [{"Name": "Cringleford", "Country Code": "GB", "Population": 2105.0, "Lat": 52.60482, "Lon": 1.24334}], "Crinitz": [{"Name": "Crinitz", "Country Code": "DE", "Population": 1504.0, "Lat": 51.73333, "Lon": 13.76667}], "Cripple Creek": [{"Name": "Cripple Creek", "Country Code": "US", "Population": 1155.0, "Lat": 38.74666, "Lon": -105.17831}], "Criquebeuf-sur-Seine": [{"Name": "Criquebeuf-sur-Seine", "Country Code": "FR", "Population": 1085.0, "Lat": 49.30563, "Lon": 1.09964}], "Criquetot-l'Esneval": [{"Name": "Criquetot-l'Esneval", "Country Code": "FR", "Population": 2303.0, "Lat": 49.64555, "Lon": 0.26571}], "Crisan": [{"Name": "Cri\u015fan", "Country Code": "RO", "Population": 1392.0, "Lat": 44.96667, "Lon": 29.46667}, {"Name": "Cri\u0219an", "Country Code": "RO", "Population": 469.0, "Lat": 45.17462, "Lon": 29.38598}], "Criscior": [{"Name": "Cri\u015fcior", "Country Code": "RO", "Population": 4232.0, "Lat": 46.11667, "Lon": 22.86667}], "Criseni": [{"Name": "Cri\u015feni", "Country Code": "RO", "Population": 2390.0, "Lat": 47.23333, "Lon": 23.05}], "Crisfield": [{"Name": "Crisfield", "Country Code": "US", "Population": 2655.0, "Lat": 37.98346, "Lon": -75.85382}], "Crisnee": [{"Name": "Crisn\u00e9e", "Country Code": "BE", "Population": 2587.0, "Lat": 50.71703, "Lon": 5.39802}], "Crisolles": [{"Name": "Crisolles", "Country Code": "FR", "Population": 1026.0, "Lat": 49.6225, "Lon": 3.01451}], "Crisostomos": [{"Name": "Cris\u00f3stomos", "Country Code": "MX", "Population": 1352.0, "Lat": 22.22961, "Lon": -101.99615}], "Crispano": [{"Name": "Crispano", "Country Code": "IT", "Population": 12249.0, "Lat": 40.95251, "Lon": 14.28993}], "Crispi Cavour": [{"Name": "Crispi Cavour", "Country Code": "IT", "Population": 1123.0, "Lat": 45.5819, "Lon": 11.50113}], "Crispiano": [{"Name": "Crispiano", "Country Code": "IT", "Population": 12429.0, "Lat": 40.60379, "Lon": 17.2329}], "Crissey": [{"Name": "Crissey", "Country Code": "FR", "Population": 2166.0, "Lat": 46.81652, "Lon": 4.88185}], "Crissier": [{"Name": "Crissier", "Country Code": "CH", "Population": 6612.0, "Lat": 46.54586, "Lon": 6.57567}], "Crissolo": [{"Name": "Crissolo", "Country Code": "IT", "Population": 210.0, "Lat": 44.69953, "Lon": 7.15602}], "Cristalina": [{"Name": "Cristalina", "Country Code": "BR", "Population": 60210.0, "Lat": -16.76769, "Lon": -47.6153}], "Cristelo": [{"Name": "Cristelo", "Country Code": "PT", "Population": 1875.0, "Lat": 41.47964, "Lon": -8.69785}], "Cristeros [Fraccionamiento]": [{"Name": "Cristeros [Fraccionamiento]", "Country Code": "MX", "Population": 3592.0, "Lat": 21.32111, "Lon": -101.97333}], "Cristesti": [{"Name": "Criste\u015fti", "Country Code": "RO", "Population": 4273.0, "Lat": 47.26667, "Lon": 26.56667}, {"Name": "Criste\u015fti", "Country Code": "RO", "Population": 5507.0, "Lat": 46.5, "Lon": 24.48333}, {"Name": "Criste\u015fti", "Country Code": "RO", "Population": 4745.0, "Lat": 47.63333, "Lon": 26.73333}, {"Name": "Criste\u0219ti", "Country Code": "RO", "Population": 1284.0, "Lat": 47.16224, "Lon": 27.08155}], "Cristestii Ciceului": [{"Name": "Criste\u0219tii Ciceului", "Country Code": "RO", "Population": 1130.0, "Lat": 47.19326, "Lon": 24.09605}], "Cristian": [{"Name": "Cristian", "Country Code": "RO", "Population": 3437.0, "Lat": 45.78333, "Lon": 24.03333}, {"Name": "Cristian", "Country Code": "RO", "Population": 3849.0, "Lat": 45.61667, "Lon": 25.46667}], "Cristina": [{"Name": "Cristina", "Country Code": "ES", "Population": 568.0, "Lat": 38.83745, "Lon": -6.09867}], "Cristinapolis": [{"Name": "Cristin\u00e1polis", "Country Code": "BR", "Population": 6430.0, "Lat": -11.47556, "Lon": -37.75528}], "Cristinesti": [{"Name": "Cristine\u015fti", "Country Code": "RO", "Population": 3866.0, "Lat": 48.1, "Lon": 26.38333}], "Cristioru de Jos": [{"Name": "Cri\u015ftioru de Jos", "Country Code": "RO", "Population": 357.0, "Lat": 46.41937, "Lon": 22.53457}], "Cristo Rey": [{"Name": "Cristo Rey", "Country Code": "DO", "Population": 14325.0, "Lat": 18.5, "Lon": -69.93333}, {"Name": "Cristo Rey", "Country Code": "MX", "Population": 1934.0, "Lat": 22.58167, "Lon": -105.72444}], "Cristobal": [{"Name": "Crist\u00f3bal", "Country Code": "DO", "Population": 2735.0, "Lat": 18.29405, "Lon": -71.29298}, {"Name": "Crist\u00f3bal", "Country Code": "ES", "Population": 210.0, "Lat": 40.46923, "Lon": -5.88967}, {"Name": "Crist\u00f3bal", "Country Code": "PA", "Population": 2366.0, "Lat": 9.35222, "Lon": -79.90444}], "Cristobal Colon": [{"Name": "Crist\u00f3bal Col\u00f3n", "Country Code": "MX", "Population": 1623.0, "Lat": 17.19194, "Lon": -91.62917}], "Cristobal Obregon": [{"Name": "Crist\u00f3bal Obreg\u00f3n", "Country Code": "MX", "Population": 4664.0, "Lat": 16.43246, "Lon": -93.45689}], "Cristolt": [{"Name": "Cristol\u0163", "Country Code": "RO", "Population": 1516.0, "Lat": 47.2, "Lon": 23.43333}], "Cristur": [{"Name": "Cristur", "Country Code": "RO", "Population": 1376.0, "Lat": 45.82936, "Lon": 22.94323}], "Cristuru Secuiesc": [{"Name": "Cristuru Secuiesc", "Country Code": "RO", "Population": 9554.0, "Lat": 46.28333, "Lon": 25.03333}], "Crittenden": [{"Name": "Crittenden", "Country Code": "US", "Population": 3848.0, "Lat": 38.78284, "Lon": -84.60522}], "Criuleni": [{"Name": "Criuleni", "Country Code": "MD", "Population": 6932.0, "Lat": 47.21307, "Lon": 29.15926}], "Crivat": [{"Name": "Criv\u0103\u021b", "Country Code": "RO", "Population": 2747.0, "Lat": 44.19338, "Lon": 26.43846}], "Crivesti": [{"Name": "Crive\u0219ti", "Country Code": "RO", "Population": 1473.0, "Lat": 47.3243, "Lon": 26.7824}], "Crivillen": [{"Name": "Crivill\u00e9n", "Country Code": "ES", "Population": 110.0, "Lat": 40.88325, "Lon": -0.57666}], "Crivina": [{"Name": "Crivina", "Country Code": "RO", "Population": 3289.0, "Lat": 45.58333, "Lon": 25.98333}, {"Name": "Crivina", "Country Code": "RO", "Population": 1150.0, "Lat": 44.78636, "Lon": 26.05604}], "Crivitz": [{"Name": "Crivitz", "Country Code": "DE", "Population": 4970.0, "Lat": 53.57316, "Lon": 11.65194}], "Crixas": [{"Name": "Crix\u00e1s", "Country Code": "BR", "Population": 11559.0, "Lat": -14.54889, "Lon": -49.96917}], "Crizbav": [{"Name": "Crizbav", "Country Code": "RO", "Population": 1373.0, "Lat": 45.81515, "Lon": 25.46718}], "Crna Bara": [{"Name": "Crna Bara", "Country Code": "RS", "Population": 2606.0, "Lat": 44.87374, "Lon": 19.3948}], "Crna Trava": [{"Name": "Crna Trava", "Country Code": "RS", "Population": 0.0, "Lat": 42.80988, "Lon": 22.29881}], "Crna na Koroskem": [{"Name": "\u010crna na Koro\u0161kem", "Country Code": "SI", "Population": 2409.0, "Lat": 46.47045, "Lon": 14.85009}], "Crnac": [{"Name": "Crnac", "Country Code": "HR", "Population": 407.0, "Lat": 45.69611, "Lon": 17.93722}], "Crnici": [{"Name": "Crni\u0107i", "Country Code": "BA", "Population": 5789.0, "Lat": 43.13156, "Lon": 17.86452}], "Crniliste": [{"Name": "Crnili\u0161te", "Country Code": "MK", "Population": 1303.0, "Lat": 41.53025, "Lon": 21.41416}], "Crnomelj": [{"Name": "\u010crnomelj", "Country Code": "SI", "Population": 5496.0, "Lat": 45.57111, "Lon": 15.18889}], "Crocefieschi": [{"Name": "Crocefieschi", "Country Code": "IT", "Population": 458.0, "Lat": 44.58077, "Lon": 9.0236}], "Crocetta del Montello": [{"Name": "Crocetta del Montello", "Country Code": "IT", "Population": 5709.0, "Lat": 45.83667, "Lon": 12.03361}], "Crocetta-Nogare": [{"Name": "Crocetta-Nogar\u00e8", "Country Code": "IT", "Population": 3486.0, "Lat": 45.82707, "Lon": 12.03013}], "Crocker": [{"Name": "Crocker", "Country Code": "US", "Population": 1071.0, "Lat": 37.94893, "Lon": -92.26378}, {"Name": "Crocker", "Country Code": "US", "Population": 1268.0, "Lat": 47.08091, "Lon": -122.10383}], "Crockett": [{"Name": "Crockett", "Country Code": "US", "Population": 3094.0, "Lat": 38.05242, "Lon": -122.21302}, {"Name": "Crockett", "Country Code": "US", "Population": 6554.0, "Lat": 31.31824, "Lon": -95.45661}], "Crodo": [{"Name": "Crodo", "Country Code": "IT", "Population": 871.0, "Lat": 46.21726, "Lon": 8.32238}], "Croeserw": [{"Name": "Croeserw", "Country Code": "GB", "Population": 1595.0, "Lat": 51.64472, "Lon": -3.64028}], "Croft": [{"Name": "Croft", "Country Code": "GB", "Population": 1770.0, "Lat": 52.55668, "Lon": -1.24643}, {"Name": "Croft", "Country Code": "GB", "Population": 1492.0, "Lat": 53.43333, "Lon": -2.55}], "Crofton": [{"Name": "Crofton", "Country Code": "GB", "Population": 5258.0, "Lat": 53.65639, "Lon": -1.42968}, {"Name": "Crofton", "Country Code": "US", "Population": 27348.0, "Lat": 39.00178, "Lon": -76.68747}], "Crofton Downs": [{"Name": "Crofton Downs", "Country Code": "NZ", "Population": 1700.0, "Lat": -41.25729, "Lon": 174.76218}], "Crofton Park": [{"Name": "Crofton Park", "Country Code": "GB", "Population": 14937.0, "Lat": 51.45147, "Lon": -0.03438}], "Crofty": [{"Name": "Crofty", "Country Code": "GB", "Population": 1012.0, "Lat": 51.63448, "Lon": -4.12937}], "Crognaleto": [{"Name": "Crognaleto", "Country Code": "IT", "Population": 28.0, "Lat": 42.58771, "Lon": 13.4889}], "Croisilles": [{"Name": "Croisilles", "Country Code": "FR", "Population": 1176.0, "Lat": 50.19978, "Lon": 2.87935}], "Croissy-Beaubourg": [{"Name": "Croissy-Beaubourg", "Country Code": "FR", "Population": 2135.0, "Lat": 48.8283, "Lon": 2.66964}], "Croissy-sur-Seine": [{"Name": "Croissy-sur-Seine", "Country Code": "FR", "Population": 10751.0, "Lat": 48.87925, "Lon": 2.13836}], "Croitori": [{"Name": "Croitori", "Country Code": "RO", "Population": 1022.0, "Lat": 44.57512, "Lon": 25.41356}], "Croix": [{"Name": "Croix", "Country Code": "FR", "Population": 21361.0, "Lat": 50.67846, "Lon": 3.1493}], "Croix-des-Bouquets": [{"Name": "Croix-des-Bouquets", "Country Code": "HT", "Population": 229127.0, "Lat": 18.57677, "Lon": -72.22625}], "Crolles": [{"Name": "Crolles", "Country Code": "FR", "Population": 9026.0, "Lat": 45.27724, "Lon": 5.87837}], "Crombach": [{"Name": "Crombach", "Country Code": "BE", "Population": 2480.0, "Lat": 50.26, "Lon": 6.0675}], "Cromer": [{"Name": "Cromer", "Country Code": "AU", "Population": 7515.0, "Lat": -33.7312, "Lon": 151.26788}, {"Name": "Cromer", "Country Code": "GB", "Population": 8801.0, "Lat": 52.93123, "Lon": 1.29892}], "Cromford": [{"Name": "Cromford", "Country Code": "GB", "Population": 2073.0, "Lat": 53.10848, "Lon": -1.56014}], "Crompond": [{"Name": "Crompond", "Country Code": "US", "Population": 2292.0, "Lat": 41.288, "Lon": -73.848}], "Cromwell": [{"Name": "Cromwell", "Country Code": "NZ", "Population": 5160.0, "Lat": -45.03837, "Lon": 169.20008}, {"Name": "Cromwell", "Country Code": "US", "Population": 13750.0, "Lat": 41.5951, "Lon": -72.64537}], "Crondall": [{"Name": "Crondall", "Country Code": "GB", "Population": 1239.0, "Lat": 51.23285, "Lon": -0.86329}], "Crone": [{"Name": "Crone", "Country Code": "IT", "Population": 1498.0, "Lat": 45.73741, "Lon": 10.47503}], "Cronulla": [{"Name": "Cronulla", "Country Code": "AU", "Population": 17703.0, "Lat": -34.06251, "Lon": 151.14961}], "Crook": [{"Name": "Crook", "Country Code": "GB", "Population": 9498.0, "Lat": 54.71252, "Lon": -1.7497}], "Crooked Lake Park": [{"Name": "Crooked Lake Park", "Country Code": "US", "Population": 1722.0, "Lat": 27.82919, "Lon": -81.58397}], "Crooks": [{"Name": "Crooks", "Country Code": "US", "Population": 1329.0, "Lat": 43.6647, "Lon": -96.81089}], "Crookston": [{"Name": "Crookston", "Country Code": "US", "Population": 7787.0, "Lat": 47.77414, "Lon": -96.60812}], "Crooksville": [{"Name": "Crooksville", "Country Code": "US", "Population": 2498.0, "Lat": 39.76896, "Lon": -82.09209}], "Crookwell": [{"Name": "Crookwell", "Country Code": "AU", "Population": 2577.0, "Lat": -34.45925, "Lon": 149.47137}], "Croom": [{"Name": "Croom", "Country Code": "IE", "Population": 1159.0, "Lat": 52.51944, "Lon": -8.71778}, {"Name": "Croom", "Country Code": "US", "Population": 2631.0, "Lat": 38.75262, "Lon": -76.76386}], "Cropalati": [{"Name": "Cropalati", "Country Code": "IT", "Population": 1097.0, "Lat": 39.51673, "Lon": 16.72674}], "Cropani": [{"Name": "Cropani", "Country Code": "IT", "Population": 1456.0, "Lat": 38.9669, "Lon": 16.78022}], "Cropani Marina": [{"Name": "Cropani Marina", "Country Code": "IT", "Population": 1984.0, "Lat": 38.92376, "Lon": 16.8108}], "Cropseyville": [{"Name": "Cropseyville", "Country Code": "US", "Population": 1713.0, "Lat": 42.74897, "Lon": -73.55734}], "Cropwell Bishop": [{"Name": "Cropwell Bishop", "Country Code": "GB", "Population": 1853.0, "Lat": 52.9148, "Lon": -0.98482}], "Crosby": [{"Name": "Crosby", "Country Code": "GB", "Population": 52140.0, "Lat": 53.47778, "Lon": -3.03333}, {"Name": "Crosby", "Country Code": "IM", "Population": 0.0, "Lat": 54.18333, "Lon": -4.56667}, {"Name": "Crosby", "Country Code": "US", "Population": 2345.0, "Lat": 46.48218, "Lon": -93.95776}, {"Name": "Crosby", "Country Code": "US", "Population": 1408.0, "Lat": 48.9142, "Lon": -103.29491}, {"Name": "Crosby", "Country Code": "US", "Population": 2299.0, "Lat": 29.91189, "Lon": -95.06215}], "Crosbyton": [{"Name": "Crosbyton", "Country Code": "US", "Population": 1699.0, "Lat": 33.66008, "Lon": -101.23793}], "Crosia": [{"Name": "Crosia", "Country Code": "IT", "Population": 505.0, "Lat": 39.56822, "Lon": 16.77126}], "Crosio della Valle": [{"Name": "Crosio della Valle", "Country Code": "IT", "Population": 606.0, "Lat": 45.75997, "Lon": 8.77043}], "Crosne": [{"Name": "Crosne", "Country Code": "FR", "Population": 8592.0, "Lat": 48.71921, "Lon": 2.45728}], "Cross City": [{"Name": "Cross City", "Country Code": "US", "Population": 1707.0, "Lat": 29.63465, "Lon": -83.12694}], "Cross Hands": [{"Name": "Cross Hands", "Country Code": "GB", "Population": 4549.0, "Lat": 51.79306, "Lon": -4.0875}], "Cross Hills": [{"Name": "Cross Hills", "Country Code": "GB", "Population": 11731.0, "Lat": 53.90606, "Lon": -1.98492}], "Cross Lake": [{"Name": "Cross Lake", "Country Code": "US", "Population": 2141.0, "Lat": 46.65941, "Lon": -94.11387}], "Cross Lake 19A": [{"Name": "Cross Lake 19A", "Country Code": "CA", "Population": 2018.0, "Lat": 54.65135, "Lon": -97.76848}], "Cross Lanes": [{"Name": "Cross Lanes", "Country Code": "US", "Population": 9995.0, "Lat": 38.42037, "Lon": -81.79068}], "Cross Mountain": [{"Name": "Cross Mountain", "Country Code": "US", "Population": 3124.0, "Lat": 29.6455, "Lon": -98.65947}], "Cross Plains": [{"Name": "Cross Plains", "Country Code": "US", "Population": 4000.0, "Lat": 43.11444, "Lon": -89.65568}, {"Name": "Cross Plains", "Country Code": "US", "Population": 1722.0, "Lat": 36.54866, "Lon": -86.69611}], "Crossac": [{"Name": "Crossac", "Country Code": "FR", "Population": 2329.0, "Lat": 47.41235, "Lon": -2.16758}], "Crossett": [{"Name": "Crossett", "Country Code": "US", "Population": 5220.0, "Lat": 33.12818, "Lon": -91.96124}], "Crossfield": [{"Name": "Crossfield", "Country Code": "CA", "Population": 2512.0, "Lat": 51.43341, "Lon": -114.03528}], "Crossford": [{"Name": "Crossford", "Country Code": "GB", "Population": 2350.0, "Lat": 56.06303, "Lon": -3.49674}], "Crossgar": [{"Name": "Crossgar", "Country Code": "GB", "Population": 1667.0, "Lat": 54.39675, "Lon": -5.76061}], "Crossgates": [{"Name": "Crossgates", "Country Code": "GB", "Population": 2530.0, "Lat": 56.08366, "Lon": -3.37712}], "Crosshaven": [{"Name": "Crosshaven", "Country Code": "IE", "Population": 2577.0, "Lat": 51.79833, "Lon": -8.30083}], "Crosshouse": [{"Name": "Crosshouse", "Country Code": "GB", "Population": 2850.0, "Lat": 55.61258, "Lon": -4.55091}], "Crosskeys": [{"Name": "Crosskeys", "Country Code": "GB", "Population": 0.0, "Lat": 51.61917, "Lon": -3.12361}], "Crossmaglen": [{"Name": "Crossmaglen", "Country Code": "GB", "Population": 1415.0, "Lat": 54.08333, "Lon": -6.6}], "Crossmolina": [{"Name": "Crossmolina", "Country Code": "IE", "Population": 1044.0, "Lat": 54.1, "Lon": -9.31667}], "Crossville": [{"Name": "Crossville", "Country Code": "US", "Population": 11411.0, "Lat": 35.94896, "Lon": -85.0269}, {"Name": "Crossville", "Country Code": "US", "Population": 1848.0, "Lat": 34.28759, "Lon": -85.99414}], "Crostau": [{"Name": "Crostau", "Country Code": "DE", "Population": 1786.0, "Lat": 51.08462, "Lon": 14.45589}], "Croston": [{"Name": "Croston", "Country Code": "GB", "Population": 2917.0, "Lat": 53.66217, "Lon": -2.77523}], "Crostwitz": [{"Name": "Crostwitz", "Country Code": "DE", "Population": 1201.0, "Lat": 51.23832, "Lon": 14.24338}], "Croswell": [{"Name": "Croswell", "Country Code": "US", "Population": 2338.0, "Lat": 43.27558, "Lon": -82.62104}], "Croth": [{"Name": "Croth", "Country Code": "FR", "Population": 1329.0, "Lat": 48.84557, "Lon": 1.37861}], "Crothersville": [{"Name": "Crothersville", "Country Code": "US", "Population": 1597.0, "Lat": 38.80061, "Lon": -85.84164}], "Croton-on-Hudson": [{"Name": "Croton-on-Hudson", "Country Code": "US", "Population": 8269.0, "Lat": 41.20843, "Lon": -73.89125}], "Crotone": [{"Name": "Crotone", "Country Code": "IT", "Population": 64603.0, "Lat": 39.08077, "Lon": 17.12764}], "Crotta d'Adda": [{"Name": "Crotta d'Adda", "Country Code": "IT", "Population": 545.0, "Lat": 45.15888, "Lon": 9.85684}], "Crottendorf": [{"Name": "Crottendorf", "Country Code": "DE", "Population": 4705.0, "Lat": 50.51667, "Lon": 12.95}], "Crottet": [{"Name": "Crottet", "Country Code": "FR", "Population": 1629.0, "Lat": 46.27602, "Lon": 4.89388}], "Crouch End": [{"Name": "Crouch End", "Country Code": "GB", "Population": 10075.0, "Lat": 51.57971, "Lon": -0.12373}], "Crouy": [{"Name": "Crouy", "Country Code": "FR", "Population": 2643.0, "Lat": 49.40274, "Lon": 3.35834}], "Crouy-en-Thelle": [{"Name": "Crouy-en-Thelle", "Country Code": "FR", "Population": 1023.0, "Lat": 49.21487, "Lon": 2.32146}], "Crouy-sur-Ourcq": [{"Name": "Crouy-sur-Ourcq", "Country Code": "FR", "Population": 1681.0, "Lat": 49.0898, "Lon": 3.0753}], "Crova": [{"Name": "Crova", "Country Code": "IT", "Population": 370.0, "Lat": 45.33066, "Lon": 8.21083}], "Croviana": [{"Name": "Croviana", "Country Code": "IT", "Population": 689.0, "Lat": 46.3448, "Lon": 10.90313}], "Crovu": [{"Name": "Crovu", "Country Code": "RO", "Population": 1295.0, "Lat": 44.58947, "Lon": 25.53684}], "Crow Agency": [{"Name": "Crow Agency", "Country Code": "US", "Population": 1616.0, "Lat": 45.60164, "Lon": -107.46119}], "Crowborough": [{"Name": "Crowborough", "Country Code": "GB", "Population": 20607.0, "Lat": 51.06098, "Lon": 0.16342}], "Crowell": [{"Name": "Crowell", "Country Code": "US", "Population": 866.0, "Lat": 33.98397, "Lon": -99.72482}], "Crowland": [{"Name": "Crowland", "Country Code": "GB", "Population": 4211.0, "Lat": 52.67571, "Lon": -0.16849}], "Crowle": [{"Name": "Crowle", "Country Code": "GB", "Population": 3928.0, "Lat": 53.60753, "Lon": -0.83256}], "Crowley": [{"Name": "Crowley", "Country Code": "US", "Population": 13144.0, "Lat": 30.21409, "Lon": -92.37458}, {"Name": "Crowley", "Country Code": "US", "Population": 14853.0, "Lat": 32.57903, "Lon": -97.36252}], "Crown Heights": [{"Name": "Crown Heights", "Country Code": "US", "Population": 2840.0, "Lat": 41.63732, "Lon": -73.93792}], "Crown Point": [{"Name": "Crown Point", "Country Code": "US", "Population": 1903.0, "Lat": 43.95034, "Lon": -73.43707}, {"Name": "Crown Point", "Country Code": "US", "Population": 28879.0, "Lat": 41.41698, "Lon": -87.36531}], "Crownpoint": [{"Name": "Crownpoint", "Country Code": "US", "Population": 2278.0, "Lat": 35.67808, "Lon": -108.15118}], "Crownsville": [{"Name": "Crownsville", "Country Code": "US", "Population": 1757.0, "Lat": 39.02844, "Lon": -76.60135}], "Crows Nest": [{"Name": "Crows Nest", "Country Code": "AU", "Population": 4657.0, "Lat": -33.82494, "Lon": 151.20398}, {"Name": "Crows Nest", "Country Code": "AU", "Population": 2160.0, "Lat": -27.25993, "Lon": 152.05164}], "Crowthorne": [{"Name": "Crowthorne", "Country Code": "GB", "Population": 25522.0, "Lat": 51.37027, "Lon": -0.79219}], "Croxton": [{"Name": "Croxton", "Country Code": "GB", "Population": 0.0, "Lat": 53.5964, "Lon": -0.3483}], "Croy": [{"Name": "Croy", "Country Code": "GB", "Population": 1390.0, "Lat": 55.96064, "Lon": -4.03932}], "Croydon": [{"Name": "Croydon", "Country Code": "AU", "Population": 26502.0, "Lat": -37.8, "Lon": 145.28333}, {"Name": "Croydon", "Country Code": "AU", "Population": 10546.0, "Lat": -33.88333, "Lon": 151.11667}, {"Name": "Croydon", "Country Code": "GB", "Population": 173314.0, "Lat": 51.38333, "Lon": -0.1}, {"Name": "Croydon", "Country Code": "US", "Population": 9950.0, "Lat": 40.08733, "Lon": -74.9035}], "Croydon Hills": [{"Name": "Croydon Hills", "Country Code": "AU", "Population": 4839.0, "Lat": -37.77436, "Lon": 145.26612}], "Croydon North": [{"Name": "Croydon North", "Country Code": "AU", "Population": 7653.0, "Lat": -37.76741, "Lon": 145.29073}], "Croydon Park": [{"Name": "Croydon Park", "Country Code": "AU", "Population": 3941.0, "Lat": -34.88028, "Lon": 138.56779}], "Croydon South": [{"Name": "Croydon South", "Country Code": "AU", "Population": 4759.0, "Lat": -37.81553, "Lon": 145.27809}], "Crozet": [{"Name": "Crozet", "Country Code": "US", "Population": 5565.0, "Lat": 38.06958, "Lon": -78.70058}], "Crozon": [{"Name": "Crozon", "Country Code": "FR", "Population": 8123.0, "Lat": 48.24643, "Lon": -4.48993}], "Cruas": [{"Name": "Cruas", "Country Code": "FR", "Population": 2526.0, "Lat": 44.65706, "Lon": 4.76293}], "Cruce de Arinaga": [{"Name": "Cruce de Arinaga", "Country Code": "ES", "Population": 2700.0, "Lat": 27.87656, "Lon": -15.42798}], "Crucea": [{"Name": "Crucea", "Country Code": "RO", "Population": 3413.0, "Lat": 44.53333, "Lon": 28.23333}, {"Name": "Crucea", "Country Code": "RO", "Population": 2279.0, "Lat": 47.35, "Lon": 25.61667}, {"Name": "Crucea", "Country Code": "RO", "Population": 1333.0, "Lat": 47.16567, "Lon": 27.17093}], "Crucecita": [{"Name": "Crucecita", "Country Code": "MX", "Population": 15130.0, "Lat": 15.76889, "Lon": -96.135}], "Crucero": [{"Name": "Crucero", "Country Code": "PE", "Population": 0.0, "Lat": -14.35, "Lon": -70.0}], "Crucero Las Pilas": [{"Name": "Crucero Las Pilas", "Country Code": "MX", "Population": 1031.0, "Lat": 21.82722, "Lon": -102.76033}], "Cruces": [{"Name": "Cruces", "Country Code": "CU", "Population": 24906.0, "Lat": 22.34203, "Lon": -80.27021}], "Cruces de Anori": [{"Name": "Cruces de Anor\u00ed", "Country Code": "CO", "Population": 4762.0, "Lat": 7.18333, "Lon": -75.06667}], "Crucisor": [{"Name": "Cruci\u015for", "Country Code": "RO", "Population": 2471.0, "Lat": 47.68333, "Lon": 23.25}], "Crucoli": [{"Name": "Crucoli", "Country Code": "IT", "Population": 774.0, "Lat": 39.42713, "Lon": 17.00281}], "Cruden Bay": [{"Name": "Cruden Bay", "Country Code": "GB", "Population": 1670.0, "Lat": 57.41797, "Lon": -1.85313}], "Cruet": [{"Name": "Cruet", "Country Code": "FR", "Population": 1057.0, "Lat": 45.5289, "Lon": 6.0922}], "Crugers": [{"Name": "Crugers", "Country Code": "US", "Population": 1534.0, "Lat": 41.23343, "Lon": -73.92264}], "Crugnola": [{"Name": "Crugnola", "Country Code": "IT", "Population": 2069.0, "Lat": 45.72955, "Lon": 8.74525}], "Cruillas": [{"Name": "Cruillas", "Country Code": "MX", "Population": 759.0, "Lat": 24.75658, "Lon": -98.53739}], "Cruilles": [{"Name": "Cru\u00eflles", "Country Code": "ES", "Population": 1234.0, "Lat": 41.95, "Lon": 3.01667}], "Crumlin": [{"Name": "Crumlin", "Country Code": "GB", "Population": 5149.0, "Lat": 54.62054, "Lon": -6.21414}, {"Name": "Crumlin", "Country Code": "GB", "Population": 5947.0, "Lat": 51.67778, "Lon": -3.13528}, {"Name": "Crumlin", "Country Code": "IE", "Population": 11294.0, "Lat": 53.32154, "Lon": -6.31439}], "Crump": [{"Name": "Crump", "Country Code": "US", "Population": 1400.0, "Lat": 35.22175, "Lon": -88.31809}], "Crumpsall": [{"Name": "Crumpsall", "Country Code": "GB", "Population": 11363.0, "Lat": 53.51827, "Lon": -2.24447}], "Cruseilles": [{"Name": "Cruseilles", "Country Code": "FR", "Population": 3757.0, "Lat": 46.0298, "Lon": 6.10831}], "Cruset": [{"Name": "Cru\u0219e\u021b", "Country Code": "RO", "Population": 555.0, "Lat": 44.63333, "Lon": 23.66667}], "Crusnes": [{"Name": "Crusnes", "Country Code": "FR", "Population": 1642.0, "Lat": 49.43406, "Lon": 5.91557}], "Crusovu": [{"Name": "Cru\u0219ovu", "Country Code": "RO", "Population": 1552.0, "Lat": 43.92473, "Lon": 24.41486}], "Cruz": [{"Name": "Cruz", "Country Code": "BR", "Population": 8723.0, "Lat": -2.9211, "Lon": -40.17589}], "Cruz Alta": [{"Name": "Cruz Alta", "Country Code": "AR", "Population": 6862.0, "Lat": -33.00796, "Lon": -61.8083}, {"Name": "Cruz Alta", "Country Code": "BR", "Population": 65275.0, "Lat": -28.64397, "Lon": -53.60633}], "Cruz Bay": [{"Name": "Cruz Bay", "Country Code": "VI", "Population": 2743.0, "Lat": 18.33134, "Lon": -64.79375}], "Cruz Blanca": [{"Name": "Cruz Blanca", "Country Code": "MX", "Population": 1003.0, "Lat": 25.6746, "Lon": -108.3709}, {"Name": "Cruz Blanca", "Country Code": "MX", "Population": 1922.0, "Lat": 19.63744, "Lon": -97.16691}, {"Name": "Cruz Blanca", "Country Code": "PE", "Population": 0.0, "Lat": -11.09722, "Lon": -77.5925}], "Cruz Grande": [{"Name": "Cruz Grande", "Country Code": "MX", "Population": 11783.0, "Lat": 16.72241, "Lon": -99.12356}], "Cruz Quemada": [{"Name": "Cruz Quemada", "Country Code": "MX", "Population": 1694.0, "Lat": 16.99722, "Lon": -99.17964}], "Cruz Verde": [{"Name": "Cruz Verde", "Country Code": "MX", "Population": 1005.0, "Lat": 19.1375, "Lon": -97.10861}], "Cruz das Almas": [{"Name": "Cruz das Almas", "Country Code": "BR", "Population": 47844.0, "Lat": -12.67, "Lon": -39.10194}], "Cruz de Huanacaxtle": [{"Name": "Cruz de Huanacaxtle", "Country Code": "MX", "Population": 3171.0, "Lat": 20.75415, "Lon": -105.37734}], "Cruz de Machacamarca": [{"Name": "Cruz de Machacamarca", "Country Code": "BO", "Population": 0.0, "Lat": -18.88395, "Lon": -68.41989}], "Cruz de los Milagros": [{"Name": "Cruz de los Milagros", "Country Code": "AR", "Population": 1768.0, "Lat": -28.83611, "Lon": -59.00599}], "Cruz del Eje": [{"Name": "Cruz del Eje", "Country Code": "AR", "Population": 28166.0, "Lat": -30.72644, "Lon": -64.80387}], "Cruz del Milagro": [{"Name": "Cruz del Milagro", "Country Code": "MX", "Population": 2082.0, "Lat": 17.90833, "Lon": -95.01083}], "Cruz do Espirito Santo": [{"Name": "Cruz do Esp\u00edrito Santo", "Country Code": "BR", "Population": 5812.0, "Lat": -7.14, "Lon": -35.08639}], "Cruzeiro": [{"Name": "Cruzeiro", "Country Code": "BR", "Population": 72022.0, "Lat": -22.57316, "Lon": -44.97108}], "Cruzeiro do Oeste": [{"Name": "Cruzeiro do Oeste", "Country Code": "BR", "Population": 15057.0, "Lat": -23.785, "Lon": -53.07333}], "Cruzeiro do Sul": [{"Name": "Cruzeiro do Sul", "Country Code": "BR", "Population": 79819.0, "Lat": -7.62759, "Lon": -72.67756}], "Cruzilia": [{"Name": "Cruz\u00edlia", "Country Code": "BR", "Population": 12816.0, "Lat": -21.83861, "Lon": -44.80833}], "Cruzton": [{"Name": "Cruzt\u00f3n", "Country Code": "MX", "Population": 1756.0, "Lat": 16.76167, "Lon": -92.57917}], "Crymych": [{"Name": "Crymych", "Country Code": "GB", "Population": 704.0, "Lat": 51.97361, "Lon": -4.64722}], "Crynant": [{"Name": "Crynant", "Country Code": "GB", "Population": 1602.0, "Lat": 51.72889, "Lon": -3.74806}], "Crystal": [{"Name": "Crystal", "Country Code": "US", "Population": 22943.0, "Lat": 45.03274, "Lon": -93.36023}], "Crystal Brook": [{"Name": "Crystal Brook", "Country Code": "AU", "Population": 1508.0, "Lat": -33.35256, "Lon": 138.20955}], "Crystal City": [{"Name": "Crystal City", "Country Code": "US", "Population": 4847.0, "Lat": 38.22117, "Lon": -90.37901}, {"Name": "Crystal City", "Country Code": "US", "Population": 7496.0, "Lat": 28.67748, "Lon": -99.82811}], "Crystal Falls": [{"Name": "Crystal Falls", "Country Code": "US", "Population": 1414.0, "Lat": 46.09801, "Lon": -88.33402}], "Crystal Lake": [{"Name": "Crystal Lake", "Country Code": "US", "Population": 5514.0, "Lat": 28.03558, "Lon": -81.90841}, {"Name": "Crystal Lake", "Country Code": "US", "Population": 1945.0, "Lat": 41.93176, "Lon": -72.37842}, {"Name": "Crystal Lake", "Country Code": "US", "Population": 40448.0, "Lat": 42.24113, "Lon": -88.3162}], "Crystal Lakes": [{"Name": "Crystal Lakes", "Country Code": "US", "Population": 1483.0, "Lat": 39.88923, "Lon": -84.0266}], "Crystal Lawns": [{"Name": "Crystal Lawns", "Country Code": "US", "Population": 1872.0, "Lat": 41.57031, "Lon": -88.15812}], "Crystal Palace": [{"Name": "Crystal Palace", "Country Code": "GB", "Population": 12255.0, "Lat": 51.41934, "Lon": -0.07854}], "Crystal River": [{"Name": "Crystal River", "Country Code": "US", "Population": 3089.0, "Lat": 28.90248, "Lon": -82.5926}], "Crystal Springs": [{"Name": "Crystal Springs", "Country Code": "US", "Population": 4939.0, "Lat": 31.98738, "Lon": -90.35704}, {"Name": "Crystal Springs", "Country Code": "US", "Population": 1327.0, "Lat": 28.1814, "Lon": -82.15758}], "Csabrendek": [{"Name": "Csabrendek", "Country Code": "HU", "Population": 2948.0, "Lat": 47.01356, "Lon": 17.29108}], "Csakvar": [{"Name": "Cs\u00e1kv\u00e1r", "Country Code": "HU", "Population": 5259.0, "Lat": 47.39184, "Lon": 18.46501}], "Csanadapaca": [{"Name": "Csan\u00e1dap\u00e1ca", "Country Code": "HU", "Population": 2811.0, "Lat": 46.55, "Lon": 20.88333}], "Csanadpalota": [{"Name": "Csan\u00e1dpalota", "Country Code": "HU", "Population": 3224.0, "Lat": 46.25, "Lon": 20.73333}], "Csany": [{"Name": "Cs\u00e1ny", "Country Code": "HU", "Population": 2279.0, "Lat": 47.64829, "Lon": 19.82972}], "Csanytelek": [{"Name": "Csanytelek", "Country Code": "HU", "Population": 2937.0, "Lat": 46.59501, "Lon": 20.12342}], "Csaszar": [{"Name": "Cs\u00e1sz\u00e1r", "Country Code": "HU", "Population": 1922.0, "Lat": 47.498, "Lon": 18.14272}], "Csaszartoltes": [{"Name": "Cs\u00e1sz\u00e1rt\u00f6lt\u00e9s", "Country Code": "HU", "Population": 2649.0, "Lat": 46.42194, "Lon": 19.18361}], "Csavoly": [{"Name": "Cs\u00e1voly", "Country Code": "HU", "Population": 2080.0, "Lat": 46.18917, "Lon": 19.14667}], "Csemo": [{"Name": "Csem\u0151", "Country Code": "HU", "Population": 4411.0, "Lat": 47.11799, "Lon": 19.69092}], "Csengele": [{"Name": "Csengele", "Country Code": "HU", "Population": 2004.0, "Lat": 46.54234, "Lon": 19.86358}], "Csenger": [{"Name": "Csenger", "Country Code": "HU", "Population": 5225.0, "Lat": 47.83582, "Lon": 22.68096}], "Csengod": [{"Name": "Cseng\u0151d", "Country Code": "HU", "Population": 2291.0, "Lat": 46.71543, "Lon": 19.26802}], "Csepreg": [{"Name": "Csepreg", "Country Code": "HU", "Population": 3241.0, "Lat": 47.40098, "Lon": 16.70881}], "Cserkeszolo": [{"Name": "Cserkesz\u0151l\u0151", "Country Code": "HU", "Population": 2182.0, "Lat": 46.8632, "Lon": 20.18701}], "Cserszegtomaj": [{"Name": "Cserszegtomaj", "Country Code": "HU", "Population": 1941.0, "Lat": 46.80165, "Lon": 17.22096}], "Cseteny": [{"Name": "Cset\u00e9ny", "Country Code": "HU", "Population": 2039.0, "Lat": 47.31806, "Lon": 17.99208}], "Csobanka": [{"Name": "Csob\u00e1nka", "Country Code": "HU", "Population": 2881.0, "Lat": 47.64637, "Lon": 18.96189}], "Csokmo": [{"Name": "Cs\u00f6km\u0151", "Country Code": "HU", "Population": 2170.0, "Lat": 47.03333, "Lon": 21.3}], "Csokonyavisonta": [{"Name": "Csokonyavisonta", "Country Code": "HU", "Population": 1546.0, "Lat": 46.07705, "Lon": 17.44372}], "Csolnok": [{"Name": "Csolnok", "Country Code": "HU", "Population": 3381.0, "Lat": 47.69116, "Lon": 18.71611}], "Csomor": [{"Name": "Cs\u00f6m\u00f6r", "Country Code": "HU", "Population": 7544.0, "Lat": 47.55, "Lon": 19.23333}], "Csongrad": [{"Name": "Csongr\u00e1d", "Country Code": "HU", "Population": 18580.0, "Lat": 46.71332, "Lon": 20.14241}], "Csopak": [{"Name": "Csopak", "Country Code": "HU", "Population": 1604.0, "Lat": 46.97709, "Lon": 17.91819}], "Csorna": [{"Name": "Csorna", "Country Code": "HU", "Population": 10825.0, "Lat": 47.61155, "Lon": 17.25012}], "Csorvas": [{"Name": "Csorv\u00e1s", "Country Code": "HU", "Population": 5643.0, "Lat": 46.63333, "Lon": 20.83333}], "Csurgo": [{"Name": "Csurg\u00f3", "Country Code": "HU", "Population": 5682.0, "Lat": 46.25314, "Lon": 17.1006}], "Cu Chi": [{"Name": "C\u1ee7 Chi", "Country Code": "VN", "Population": 75000.0, "Lat": 10.97333, "Lon": 106.49325}], "Cu Lao Dung": [{"Name": "C\u00f9 Lao Dung", "Country Code": "VN", "Population": 0.0, "Lat": 9.67314, "Lon": 106.14874}], "Cua": [{"Name": "C\u00faa", "Country Code": "VE", "Population": 182558.0, "Lat": 10.16245, "Lon": -66.88248}], "Cuacnopalan": [{"Name": "Cuacnopalan", "Country Code": "MX", "Population": 8516.0, "Lat": 18.81758, "Lon": -97.51116}], "Cuacuila": [{"Name": "Cuacuila", "Country Code": "MX", "Population": 3050.0, "Lat": 20.17205, "Lon": -98.0315}], "Cuadrilla Vieja": [{"Name": "Cuadrilla Vieja", "Country Code": "MX", "Population": 1015.0, "Lat": 19.51205, "Lon": -99.98692}], "Cuadrilla de Dolores": [{"Name": "Cuadrilla de Dolores", "Country Code": "MX", "Population": 1234.0, "Lat": 19.14, "Lon": -100.06944}], "Cuadros": [{"Name": "Cuadros", "Country Code": "ES", "Population": 1810.0, "Lat": 42.71163, "Lon": -5.63828}], "Cuajinicuilapa": [{"Name": "Cuajinicuilapa", "Country Code": "MX", "Population": 10282.0, "Lat": 16.47347, "Lon": -98.41389}], "Cualac": [{"Name": "Cual\u00e1c", "Country Code": "MX", "Population": 1794.0, "Lat": 17.7435, "Lon": -98.66039}], "Cualedro": [{"Name": "Cualedro", "Country Code": "ES", "Population": 2254.0, "Lat": 41.98897, "Lon": -7.59464}], "Cuamba": [{"Name": "Cuamba", "Country Code": "MZ", "Population": 91780.0, "Lat": -14.80306, "Lon": 36.53722}], "Cuambog": [{"Name": "Cuambog", "Country Code": "PH", "Population": 6383.0, "Lat": 7.30861, "Lon": 125.84806}], "Cuamiles": [{"Name": "Cuamiles", "Country Code": "MX", "Population": 2741.0, "Lat": 21.92347, "Lon": -105.25405}], "Cuamio": [{"Name": "Cuamio", "Country Code": "MX", "Population": 2180.0, "Lat": 20.0339, "Lon": -101.15167}], "Cuanacaxtitlan": [{"Name": "Cuanacaxtitl\u00e1n", "Country Code": "MX", "Population": 3122.0, "Lat": 16.79953, "Lon": -98.63992}], "Cuanajo": [{"Name": "Cuanajo", "Country Code": "MX", "Population": 4758.0, "Lat": 19.48485, "Lon": -101.50794}], "Cuanala": [{"Name": "Cuanal\u00e1", "Country Code": "MX", "Population": 5728.0, "Lat": 19.10917, "Lon": -98.32788}], "Cuango": [{"Name": "Cuango", "Country Code": "PA", "Population": 0.0, "Lat": 9.56872, "Lon": -79.31065}], "Cuango-Luzamba": [{"Name": "Cuango-Luzamba", "Country Code": "AO", "Population": 55000.0, "Lat": -9.14583, "Lon": 18.04453}], "Cuapa": [{"Name": "Cuapa", "Country Code": "NI", "Population": 2400.0, "Lat": 12.26875, "Lon": -85.38205}], "Cuapaxtitla": [{"Name": "Cuapaxtitla", "Country Code": "MX", "Population": 1129.0, "Lat": 21.13292, "Lon": -98.55264}], "Cuapiaxtla": [{"Name": "Cuapiaxtla", "Country Code": "MX", "Population": 8398.0, "Lat": 19.29588, "Lon": -97.7688}], "Cuapiaxtla de Madero": [{"Name": "Cuapiaxtla de Madero", "Country Code": "MX", "Population": 7139.0, "Lat": 18.91544, "Lon": -97.82382}], "Cuapinolito (Azulillo)": [{"Name": "Cuapinolito (Azulillo)", "Country Code": "MX", "Population": 1259.0, "Lat": 15.82194, "Lon": -96.31833}], "Cuaracurio": [{"Name": "Cuaracur\u00edo", "Country Code": "MX", "Population": 1605.0, "Lat": 20.06102, "Lon": -101.14774}], "Cuarnens": [{"Name": "Cuarnens", "Country Code": "CH", "Population": 0.0, "Lat": 46.62545, "Lon": 6.43713}], "Cuarta Brigada": [{"Name": "Cuarta Brigada", "Country Code": "MX", "Population": 2973.0, "Lat": 20.62194, "Lon": -101.28001}], "Cuarte de Huerva": [{"Name": "Cuarte de Huerva", "Country Code": "ES", "Population": 2913.0, "Lat": 41.59466, "Lon": -0.93268}], "Cuartel la Mesa (El Asoleadero)": [{"Name": "Cuartel la Mesa (El Asoleadero)", "Country Code": "MX", "Population": 1034.0, "Lat": 19.56972, "Lon": -100.28694}], "Cuartero": [{"Name": "Cuartero", "Country Code": "PH", "Population": 3519.0, "Lat": 11.3407, "Lon": 122.6694}], "Cuasso al Monte": [{"Name": "Cuasso al Monte", "Country Code": "IT", "Population": 524.0, "Lat": 45.91478, "Lon": 8.87923}], "Cuasso al Piano": [{"Name": "Cuasso al Piano", "Country Code": "IT", "Population": 1727.0, "Lat": 45.89454, "Lon": 8.87951}], "Cuatolol": [{"Name": "Cuatolol", "Country Code": "MX", "Population": 1717.0, "Lat": 21.11967, "Lon": -98.82563}], "Cuatro Caminos": [{"Name": "Cuatro Caminos", "Country Code": "MX", "Population": 1194.0, "Lat": 18.98826, "Lon": -102.1036}, {"Name": "Cuatro Caminos", "Country Code": "MX", "Population": 1236.0, "Lat": 18.4913, "Lon": -97.12901}], "Cuatro Cienegas de Carranza": [{"Name": "Cuatro Ci\u00e9negas de Carranza", "Country Code": "MX", "Population": 10309.0, "Lat": 26.98542, "Lon": -102.06386}], "Cuatzoquitengo": [{"Name": "Cuatzoquitengo", "Country Code": "MX", "Population": 1920.0, "Lat": 17.28822, "Lon": -98.61523}], "Cuauchichinola": [{"Name": "Cuauchichinola", "Country Code": "MX", "Population": 2383.0, "Lat": 18.66389, "Lon": -99.37583}], "Cuauhtamazaco": [{"Name": "Cuauhtamazaco", "Country Code": "MX", "Population": 1107.0, "Lat": 20.025, "Lon": -97.48722}], "Cuauhtamingo": [{"Name": "Cuauhtamingo", "Country Code": "MX", "Population": 1409.0, "Lat": 19.76472, "Lon": -97.31417}], "Cuauhtemoc": [{"Name": "Cuauht\u00e9moc", "Country Code": "MX", "Population": 1382.0, "Lat": 19.22306, "Lon": -97.33833}, {"Name": "Cuauht\u00e9moc", "Country Code": "MX", "Population": 1300.0, "Lat": 16.55, "Lon": -93.71611}, {"Name": "Cuauht\u00e9moc", "Country Code": "MX", "Population": 3084.0, "Lat": 16.31449, "Lon": -93.21049}, {"Name": "Cuauht\u00e9moc", "Country Code": "MX", "Population": 114007.0, "Lat": 28.40884, "Lon": -106.86319}, {"Name": "Cuauhtemoc", "Country Code": "MX", "Population": 2998.0, "Lat": 24.29037, "Lon": -103.80913}, {"Name": "Cuauht\u00e9moc", "Country Code": "MX", "Population": 5563.0, "Lat": 22.54408, "Lon": -98.15074}, {"Name": "Cuauht\u00e9moc", "Country Code": "MX", "Population": 8602.0, "Lat": 19.32861, "Lon": -103.60284}, {"Name": "Cuauht\u00e9moc", "Country Code": "MX", "Population": 2264.0, "Lat": 17.10149, "Lon": -94.88532}, {"Name": "Cuauht\u00e9moc", "Country Code": "MX", "Population": 531831.0, "Lat": 19.44506, "Lon": -99.14612}], "Cuauhtemoc (Campo Cinco)": [{"Name": "Cuauht\u00e9moc (Campo Cinco)", "Country Code": "MX", "Population": 2629.0, "Lat": 27.43333, "Lon": -110.01667}], "Cuauhtempan (San Andres Cuauhtempan)": [{"Name": "Cuauhtempan (San Andr\u00e9s Cuauhtempan)", "Country Code": "MX", "Population": 1320.0, "Lat": 18.97472, "Lon": -98.94639}], "Cuauhtenango": [{"Name": "Cuauhtenango", "Country Code": "MX", "Population": 1072.0, "Lat": 17.54625, "Lon": -99.20683}], "Cuautempan": [{"Name": "Cuautempan", "Country Code": "MX", "Population": 1094.0, "Lat": 19.9138, "Lon": -97.79498}], "Cuautepec": [{"Name": "Cuautepec", "Country Code": "MX", "Population": 3567.0, "Lat": 16.75004, "Lon": -99.0024}], "Cuautepec de Hinojosa": [{"Name": "Cuautepec de Hinojosa", "Country Code": "MX", "Population": 18835.0, "Lat": 20.03557, "Lon": -98.31015}], "Cuautinchan": [{"Name": "Cuautinch\u00e1n", "Country Code": "MX", "Population": 2454.0, "Lat": 18.95463, "Lon": -98.01566}], "Cuautitlan": [{"Name": "Cuautitl\u00e1n", "Country Code": "MX", "Population": 2597.0, "Lat": 19.45135, "Lon": -104.35928}, {"Name": "Cuautitl\u00e1n", "Country Code": "MX", "Population": 108449.0, "Lat": 19.67052, "Lon": -99.17989}], "Cuautitlan Izcalli": [{"Name": "Cuautitl\u00e1n Izcalli", "Country Code": "MX", "Population": 484573.0, "Lat": 19.64388, "Lon": -99.21598}], "Cuautla": [{"Name": "Cuautla", "Country Code": "MX", "Population": 1253.0, "Lat": 20.20139, "Lon": -104.4075}, {"Name": "Cuautla", "Country Code": "MX", "Population": 157336.0, "Lat": 18.8106, "Lon": -98.93525}], "Cuautlacingo": [{"Name": "Cuautlacingo", "Country Code": "MX", "Population": 3428.0, "Lat": 19.69405, "Lon": -98.78385}], "Cuautlancingo": [{"Name": "Cuautlancingo", "Country Code": "MX", "Population": 25104.0, "Lat": 19.08995, "Lon": -98.27319}], "Cuautlapan": [{"Name": "Cuautlap\u00e1n", "Country Code": "MX", "Population": 7549.0, "Lat": 18.87747, "Lon": -97.02291}], "Cuautotola": [{"Name": "Cuautotola", "Country Code": "MX", "Population": 1016.0, "Lat": 20.06841, "Lon": -97.79806}], "Cuautotolapan (San Jose)": [{"Name": "Cuautotolapan (San Jos\u00e9)", "Country Code": "MX", "Population": 1732.0, "Lat": 18.43299, "Lon": -97.12091}], "Cuaxomulco": [{"Name": "Cuaxomulco", "Country Code": "MX", "Population": 2755.0, "Lat": 19.35264, "Lon": -98.0967}], "Cuaxoxpan": [{"Name": "Cuaxoxpan", "Country Code": "MX", "Population": 1421.0, "Lat": 19.80806, "Lon": -97.34583}], "Cuaxuxpa": [{"Name": "Cuaxuxpa", "Country Code": "MX", "Population": 1772.0, "Lat": 18.46211, "Lon": -97.03556}], "Cuazahuatl": [{"Name": "Cuazahuatl", "Country Code": "MX", "Population": 1049.0, "Lat": 21.01637, "Lon": -98.88691}], "Cuba": [{"Name": "Cuba", "Country Code": "PT", "Population": 4878.0, "Lat": 38.16544, "Lon": -7.8924}, {"Name": "Cuba", "Country Code": "US", "Population": 1361.0, "Lat": 42.18391, "Lon": -88.19091}, {"Name": "Cuba", "Country Code": "US", "Population": 1222.0, "Lat": 40.49282, "Lon": -90.19068}, {"Name": "Cuba", "Country Code": "US", "Population": 3374.0, "Lat": 38.06282, "Lon": -91.40348}, {"Name": "Cuba", "Country Code": "US", "Population": 1529.0, "Lat": 42.21757, "Lon": -78.27529}], "Cuba City": [{"Name": "Cuba City", "Country Code": "US", "Population": 2055.0, "Lat": 42.60555, "Lon": -90.42985}], "Cubal": [{"Name": "Cubal", "Country Code": "AO", "Population": 90367.0, "Lat": -13.03865, "Lon": 14.2455}], "Cubara": [{"Name": "Cubar\u00e1", "Country Code": "CO", "Population": 1466.0, "Lat": 7.00578, "Lon": -72.10568}], "Cubarral": [{"Name": "Cubarral", "Country Code": "CO", "Population": 2280.0, "Lat": 3.79536, "Lon": -73.84063}], "Cubas": [{"Name": "Cubas", "Country Code": "ES", "Population": 2868.0, "Lat": 40.189, "Lon": -3.83526}], "Cubatao": [{"Name": "Cubat\u00e3o", "Country Code": "BR", "Population": 118410.0, "Lat": -23.895, "Lon": -46.42528}], "Cube": [{"Name": "Cube", "Country Code": "EC", "Population": 0.0, "Lat": 0.57364, "Lon": -79.64418}], "Cubel": [{"Name": "Cubel", "Country Code": "ES", "Population": 191.0, "Lat": 41.09604, "Lon": -1.63729}], "Cubelles": [{"Name": "Cubelles", "Country Code": "ES", "Population": 13711.0, "Lat": 41.20772, "Lon": 1.67267}], "Cubells": [{"Name": "Cubells", "Country Code": "ES", "Population": 389.0, "Lat": 41.85062, "Lon": 0.959}], "Cubilla": [{"Name": "Cubilla", "Country Code": "ES", "Population": 59.0, "Lat": 41.74905, "Lon": -2.93717}], "Cubillas de Cerrato": [{"Name": "Cubillas de Cerrato", "Country Code": "ES", "Population": 76.0, "Lat": 41.79844, "Lon": -4.4672}], "Cubillas de Rueda": [{"Name": "Cubillas de Rueda", "Country Code": "ES", "Population": 581.0, "Lat": 42.65626, "Lon": -5.17528}], "Cubillas de Santa Marta": [{"Name": "Cubillas de Santa Marta", "Country Code": "ES", "Population": 292.0, "Lat": 41.83358, "Lon": -4.61463}], "Cubillas de los Oteros": [{"Name": "Cubillas de los Oteros", "Country Code": "ES", "Population": 185.0, "Lat": 42.37199, "Lon": -5.50877}], "Cubillo": [{"Name": "Cubillo", "Country Code": "ES", "Population": 59.0, "Lat": 41.12138, "Lon": -3.90878}], "Cubillo del Campo": [{"Name": "Cubillo del Campo", "Country Code": "ES", "Population": 74.0, "Lat": 42.16854, "Lon": -3.61025}], "Cubillos": [{"Name": "Cubillos", "Country Code": "ES", "Population": 392.0, "Lat": 41.57436, "Lon": -5.7392}], "Cubillos del Sil": [{"Name": "Cubillos del Sil", "Country Code": "ES", "Population": 1431.0, "Lat": 42.62519, "Lon": -6.5636}], "Cubiri de Portelas": [{"Name": "Cubiri de Portelas", "Country Code": "MX", "Population": 2088.0, "Lat": 25.78677, "Lon": -108.25966}], "Cubitas": [{"Name": "Cubitas", "Country Code": "CU", "Population": 0.0, "Lat": 21.71212, "Lon": -77.7613}], "Cubla": [{"Name": "Cubla", "Country Code": "ES", "Population": 49.0, "Lat": 40.20978, "Lon": -1.07917}], "Cublac": [{"Name": "Cublac", "Country Code": "FR", "Population": 1540.0, "Lat": 45.14488, "Lon": 1.30609}], "Cublize": [{"Name": "Cublize", "Country Code": "FR", "Population": 1112.0, "Lat": 46.0181, "Lon": 4.37738}], "Cubo de Benavente": [{"Name": "Cubo de Benavente", "Country Code": "ES", "Population": 153.0, "Lat": 42.1249, "Lon": -6.16342}], "Cubo de Bureba": [{"Name": "Cubo de Bureba", "Country Code": "ES", "Population": 119.0, "Lat": 42.64011, "Lon": -3.20626}], "Cubo de la Solana": [{"Name": "Cubo de la Solana", "Country Code": "ES", "Population": 225.0, "Lat": 41.60224, "Lon": -2.42179}], "Cubuk": [{"Name": "\u00c7ubuk", "Country Code": "TR", "Population": 62602.0, "Lat": 40.23861, "Lon": 33.03222}], "Cubulco": [{"Name": "Cubulco", "Country Code": "GT", "Population": 10681.0, "Lat": 15.10452, "Lon": -90.62871}], "Cubulcut": [{"Name": "Cubulcut", "Country Code": "RO", "Population": 1062.0, "Lat": 47.3227, "Lon": 22.18648}], "Cubzac-les-Ponts": [{"Name": "Cubzac-les-Ponts", "Country Code": "FR", "Population": 1937.0, "Lat": 44.97117, "Lon": -0.45364}], "Cuca": [{"Name": "Cuca", "Country Code": "RO", "Population": 2580.0, "Lat": 45.73333, "Lon": 27.88333}, {"Name": "Cuca", "Country Code": "RO", "Population": 2315.0, "Lat": 44.95, "Lon": 24.51667}], "Cucaita": [{"Name": "Cucaita", "Country Code": "CO", "Population": 1417.0, "Lat": 5.54373, "Lon": -73.45433}], "Cucalon": [{"Name": "Cucal\u00f3n", "Country Code": "ES", "Population": 88.0, "Lat": 41.08608, "Lon": -1.21475}], "Cuccaro Monferrato": [{"Name": "Cuccaro Monferrato", "Country Code": "IT", "Population": 324.0, "Lat": 44.99365, "Lon": 8.45754}], "Cuccaro Vetere": [{"Name": "Cuccaro Vetere", "Country Code": "IT", "Population": 539.0, "Lat": 40.16404, "Lon": 15.30677}], "Cucciago": [{"Name": "Cucciago", "Country Code": "IT", "Population": 3395.0, "Lat": 45.73928, "Lon": 9.09294}], "Cuccurano": [{"Name": "Cuccurano", "Country Code": "IT", "Population": 3469.0, "Lat": 43.79311, "Lon": 12.95927}], "Cuceglio": [{"Name": "Cuceglio", "Country Code": "IT", "Population": 959.0, "Lat": 45.35853, "Lon": 7.81588}], "Cucerdea": [{"Name": "Cucerdea", "Country Code": "RO", "Population": 1680.0, "Lat": 46.4, "Lon": 24.26667}], "Cuch Holoch": [{"Name": "Cuch Holoch", "Country Code": "MX", "Population": 2017.0, "Lat": 20.43558, "Lon": -90.09807}], "Cucharas": [{"Name": "Cucharas", "Country Code": "MX", "Population": 1611.0, "Lat": 21.61568, "Lon": -97.66099}], "Cuchi": [{"Name": "Cuchi", "Country Code": "AO", "Population": 15000.0, "Lat": -14.64978, "Lon": 16.89929}], "Cuchicuato": [{"Name": "Cuchicuato", "Country Code": "MX", "Population": 2896.0, "Lat": 20.66092, "Lon": -101.46203}], "Cuchillo Co": [{"Name": "Cuchillo C\u00f3", "Country Code": "AR", "Population": 0.0, "Lat": -38.33368, "Lon": -64.64225}], "Cuchulumtic": [{"Name": "Cuchulumtic", "Country Code": "MX", "Population": 1275.0, "Lat": 16.77722, "Lon": -92.70417}], "Cuchumbaya": [{"Name": "Cuchumbaya", "Country Code": "PE", "Population": 683.0, "Lat": -16.751, "Lon": -70.68593}], "Cuci": [{"Name": "Cuci", "Country Code": "RO", "Population": 2171.0, "Lat": 46.46667, "Lon": 24.15}], "Cuciulata": [{"Name": "Cuciulata", "Country Code": "RO", "Population": 1230.0, "Lat": 45.94389, "Lon": 25.27541}], "Cuckfield": [{"Name": "Cuckfield", "Country Code": "GB", "Population": 3500.0, "Lat": 51.01073, "Lon": -0.14068}], "Cucq": [{"Name": "Cucq", "Country Code": "FR", "Population": 5050.0, "Lat": 50.47733, "Lon": 1.62018}], "Cucuchucho": [{"Name": "Cucuchucho", "Country Code": "MX", "Population": 1302.0, "Lat": 19.58275, "Lon": -101.63111}], "Cucueti": [{"Name": "Cucue\u021bi", "Country Code": "RO", "Population": 1010.0, "Lat": 44.18432, "Lon": 24.94826}], "Cucuieti": [{"Name": "Cucuie\u021bi", "Country Code": "RO", "Population": 1363.0, "Lat": 46.5898, "Lon": 26.52875}, {"Name": "Cucuie\u021bi", "Country Code": "RO", "Population": 2296.0, "Lat": 46.32731, "Lon": 26.55504}], "Cucujaes": [{"Name": "Cucuj\u00e3es", "Country Code": "PT", "Population": 11087.0, "Lat": 40.87413, "Lon": -8.50687}], "Cucunati": [{"Name": "Cucunat\u00ed", "Country Code": "PA", "Population": 537.0, "Lat": 8.57906, "Lon": -78.25579}], "Cucunuba": [{"Name": "Cucunub\u00e1", "Country Code": "CO", "Population": 1699.0, "Lat": 5.24958, "Lon": -73.7661}], "Cucuron": [{"Name": "Cucuron", "Country Code": "FR", "Population": 1927.0, "Lat": 43.77298, "Lon": 5.43858}], "Cucurpe": [{"Name": "Cucurpe", "Country Code": "MX", "Population": 588.0, "Lat": 30.33049, "Lon": -110.70609}], "Cucuruzu": [{"Name": "Cucuruzu", "Country Code": "RO", "Population": 1443.0, "Lat": 44.0802, "Lon": 25.73242}], "Cucuta": [{"Name": "C\u00facuta", "Country Code": "CO", "Population": 777106.0, "Lat": 7.89391, "Lon": -72.50782}], "Cucuteni": [{"Name": "Cucuteni", "Country Code": "RO", "Population": 1454.0, "Lat": 47.28333, "Lon": 26.93333}], "Cucutilla": [{"Name": "Cucutilla", "Country Code": "CO", "Population": 1950.0, "Lat": 7.53941, "Lon": -72.77238}], "Cucuyagua": [{"Name": "Cucuyagua", "Country Code": "HN", "Population": 2939.0, "Lat": 14.64777, "Lon": -88.87385}], "Cucuyulapa Primera Seccion": [{"Name": "Cucuyulapa Primera Secci\u00f3n", "Country Code": "MX", "Population": 4120.0, "Lat": 17.99082, "Lon": -93.25619}], "Cudahy": [{"Name": "Cudahy", "Country Code": "US", "Population": 18353.0, "Lat": 42.95974, "Lon": -87.86147}, {"Name": "Cudahy", "Country Code": "US", "Population": 24311.0, "Lat": 33.96057, "Lon": -118.18535}], "Cudalbi": [{"Name": "Cudalbi", "Country Code": "RO", "Population": 8055.0, "Lat": 45.78333, "Lon": 27.7}], "Cuddalore": [{"Name": "Cuddalore", "Country Code": "IN", "Population": 173636.0, "Lat": 11.75617, "Lon": 79.76693}], "Cuddington": [{"Name": "Cuddington", "Country Code": "GB", "Population": 843.0, "Lat": 53.24488, "Lon": -2.61879}], "Cudhi Zall": [{"Name": "Cudhi Zall", "Country Code": "AL", "Population": 0.0, "Lat": 41.50944, "Lon": 19.84583}], "Cudillero": [{"Name": "Cudillero", "Country Code": "ES", "Population": 5986.0, "Lat": 43.56217, "Lon": -6.14589}], "Cudjoe Key": [{"Name": "Cudjoe Key", "Country Code": "US", "Population": 1763.0, "Lat": 24.67153, "Lon": -81.49842}], "Cudworth": [{"Name": "Cudworth", "Country Code": "GB", "Population": 11903.0, "Lat": 53.57131, "Lon": -1.41595}], "Cuecuecuatitla": [{"Name": "Cuecuecuatitla", "Country Code": "MX", "Population": 1869.0, "Lat": 19.01349, "Lon": -98.84351}], "Cuejdiu": [{"Name": "Cuejdiu", "Country Code": "RO", "Population": 1295.0, "Lat": 46.9904, "Lon": 26.29455}], "Cuelgamures": [{"Name": "Cuelgamures", "Country Code": "ES", "Population": 132.0, "Lat": 41.30738, "Lon": -5.65769}], "Cuellar": [{"Name": "Cu\u00e9llar", "Country Code": "ES", "Population": 9588.0, "Lat": 41.40155, "Lon": -4.31474}], "Cuemba": [{"Name": "Cuemba", "Country Code": "AO", "Population": 19995.0, "Lat": -12.15, "Lon": 18.08333}], "Cuenca": [{"Name": "Cuenca", "Country Code": "EC", "Population": 636996.0, "Lat": -2.90055, "Lon": -79.00453}, {"Name": "Cuenca", "Country Code": "ES", "Population": 55866.0, "Lat": 40.06667, "Lon": -2.13333}, {"Name": "Cuenca", "Country Code": "PE", "Population": 422.0, "Lat": -12.43333, "Lon": -75.03333}, {"Name": "Cuenca", "Country Code": "PH", "Population": 21558.0, "Lat": 13.902, "Lon": 121.0521}], "Cuenca de Campos": [{"Name": "Cuenca de Campos", "Country Code": "ES", "Population": 256.0, "Lat": 42.05927, "Lon": -5.05539}], "Cuencame de Ceniceros": [{"Name": "Cuencam\u00e9 de Ceniceros", "Country Code": "MX", "Population": 9848.0, "Lat": 24.87116, "Lon": -103.69731}], "Cuendo": [{"Name": "Cuendo", "Country Code": "MX", "Population": 1473.0, "Lat": 19.80028, "Lon": -99.94778}], "Cuentepec": [{"Name": "Cuentepec", "Country Code": "MX", "Population": 3371.0, "Lat": 18.86159, "Lon": -99.32611}], "Cueramaro": [{"Name": "Cuer\u00e1maro", "Country Code": "MX", "Population": 13948.0, "Lat": 20.62546, "Lon": -101.67242}], "Cuernavaca": [{"Name": "Cuernavaca", "Country Code": "MX", "Population": 338650.0, "Lat": 18.9261, "Lon": -99.23075}], "Cuero": [{"Name": "Cuero", "Country Code": "US", "Population": 7115.0, "Lat": 29.09387, "Lon": -97.28916}], "Cuers": [{"Name": "Cuers", "Country Code": "FR", "Population": 8869.0, "Lat": 43.23754, "Lon": 6.07178}], "Cuerva": [{"Name": "Cuerva", "Country Code": "ES", "Population": 1349.0, "Lat": 39.66374, "Lon": -4.21085}], "Cuesmes": [{"Name": "Cuesmes", "Country Code": "BE", "Population": 9992.0, "Lat": 50.43624, "Lon": 3.92323}], "Cuesta Amarilla": [{"Name": "Cuesta Amarilla", "Country Code": "MX", "Population": 1176.0, "Lat": 18.34667, "Lon": -95.23389}], "Cuesta Blanca": [{"Name": "Cuesta Blanca", "Country Code": "AR", "Population": 3200.0, "Lat": -31.48658, "Lon": -64.5715}, {"Name": "Cuesta Blanca", "Country Code": "MX", "Population": 3946.0, "Lat": 18.84536, "Lon": -97.46753}], "Cuesta de Laja": [{"Name": "Cuesta de Laja", "Country Code": "MX", "Population": 1195.0, "Lat": 18.29333, "Lon": -95.22111}], "Cuesta de Penones": [{"Name": "Cuesta de Pe\u00f1ones", "Country Code": "MX", "Population": 1219.0, "Lat": 21.084, "Lon": -100.23671}], "Cueto": [{"Name": "Cueto", "Country Code": "CU", "Population": 26527.0, "Lat": 20.64855, "Lon": -75.92967}], "Cuetzala del Progreso": [{"Name": "Cuetzala del Progreso", "Country Code": "MX", "Population": 2319.0, "Lat": 18.13472, "Lon": -99.8319}], "Cuetzalan": [{"Name": "Cuetzalan", "Country Code": "MX", "Population": 5785.0, "Lat": 20.01766, "Lon": -97.52277}], "Cueva de Agreda": [{"Name": "Cueva de \u00c1greda", "Country Code": "ES", "Population": 102.0, "Lat": 41.7631, "Lon": -1.88818}], "Cueva del Hierro": [{"Name": "Cueva del Hierro", "Country Code": "ES", "Population": 50.0, "Lat": 40.58258, "Lon": -2.03612}], "Cuevas": [{"Name": "Cuevas", "Country Code": "PH", "Population": 2243.0, "Lat": 8.01917, "Lon": 126.09417}], "Cuevas Bajas": [{"Name": "Cuevas Bajas", "Country Code": "ES", "Population": 1476.0, "Lat": 37.23526, "Lon": -4.48714}], "Cuevas Labradas": [{"Name": "Cuevas Labradas", "Country Code": "ES", "Population": 170.0, "Lat": 40.4535, "Lon": -1.05008}], "Cuevas de Almuden": [{"Name": "Cuevas de Almud\u00e9n", "Country Code": "ES", "Population": 123.0, "Lat": 40.71342, "Lon": -0.82958}], "Cuevas de Provanco": [{"Name": "Cuevas de Provanco", "Country Code": "ES", "Population": 174.0, "Lat": 41.54209, "Lon": -3.96203}], "Cuevas de San Clemente": [{"Name": "Cuevas de San Clemente", "Country Code": "ES", "Population": 56.0, "Lat": 42.13009, "Lon": -3.5684}], "Cuevas de San Marcos": [{"Name": "Cuevas de San Marcos", "Country Code": "ES", "Population": 3955.0, "Lat": 37.26666, "Lon": -4.41432}], "Cuevas de Vinroma": [{"Name": "Cuevas de Vinrom\u00e1", "Country Code": "ES", "Population": 1822.0, "Lat": 40.30976, "Lon": 0.12084}], "Cuevas del Almanzora": [{"Name": "Cuevas del Almanzora", "Country Code": "ES", "Population": 13025.0, "Lat": 37.29678, "Lon": -1.88218}], "Cuevas del Becerro": [{"Name": "Cuevas del Becerro", "Country Code": "ES", "Population": 1859.0, "Lat": 36.87537, "Lon": -5.04488}], "Cuevas del Campo": [{"Name": "Cuevas del Campo", "Country Code": "ES", "Population": 2040.0, "Lat": 37.60755, "Lon": -2.92938}], "Cuevas del Valle": [{"Name": "Cuevas del Valle", "Country Code": "ES", "Population": 570.0, "Lat": 40.29418, "Lon": -5.00938}], "Cuexcomatitlan": [{"Name": "Cuexcomatitl\u00e1n", "Country Code": "MX", "Population": 2117.0, "Lat": 20.4281, "Lon": -103.36189}], "Cuexpala": [{"Name": "Cuexpala", "Country Code": "MX", "Population": 1153.0, "Lat": 18.6272, "Lon": -98.55842}], "Cuffies": [{"Name": "Cuffies", "Country Code": "FR", "Population": 1649.0, "Lat": 49.40358, "Lon": 3.32119}], "Cuffley": [{"Name": "Cuffley", "Country Code": "GB", "Population": 4282.0, "Lat": 51.70799, "Lon": -0.11209}], "Cuffy": [{"Name": "Cuffy", "Country Code": "FR", "Population": 1107.0, "Lat": 46.96275, "Lon": 3.05238}], "Cugand": [{"Name": "Cugand", "Country Code": "FR", "Population": 3189.0, "Lat": 47.06353, "Lon": -1.25463}], "Cuges-les-Pins": [{"Name": "Cuges-les-Pins", "Country Code": "FR", "Population": 3919.0, "Lat": 43.27607, "Lon": 5.69955}], "Cuggiono": [{"Name": "Cuggiono", "Country Code": "IT", "Population": 7997.0, "Lat": 45.50683, "Lon": 8.8155}], "Cugir": [{"Name": "Cugir", "Country Code": "RO", "Population": 24734.0, "Lat": 45.83651, "Lon": 23.36998}], "Cugliate-Fabiasco": [{"Name": "Cugliate-Fabiasco", "Country Code": "IT", "Population": 2873.0, "Lat": 45.94568, "Lon": 8.81863}], "Cuglieri": [{"Name": "Cuglieri", "Country Code": "IT", "Population": 2141.0, "Lat": 40.18804, "Lon": 8.56806}], "Cugnasco": [{"Name": "Cugnasco", "Country Code": "CH", "Population": 1202.0, "Lat": 46.17473, "Lon": 8.91684}], "Cugnaux": [{"Name": "Cugnaux", "Country Code": "FR", "Population": 15393.0, "Lat": 43.53635, "Lon": 1.34428}], "Cugnoli": [{"Name": "Cugnoli", "Country Code": "IT", "Population": 416.0, "Lat": 42.30692, "Lon": 13.9349}], "Cugy": [{"Name": "Cugy", "Country Code": "CH", "Population": 1523.0, "Lat": 46.81479, "Lon": 6.88888}], "Cuiaba": [{"Name": "Cuiab\u00e1", "Country Code": "BR", "Population": 618124.0, "Lat": -15.59611, "Lon": -56.09667}], "Cuicatlan": [{"Name": "Cuicatlan", "Country Code": "MX", "Population": 3908.0, "Lat": 17.80272, "Lon": -96.95939}], "Cuichapa": [{"Name": "Cuichapa", "Country Code": "MX", "Population": 7697.0, "Lat": 17.93889, "Lon": -94.28}, {"Name": "Cuichapa", "Country Code": "MX", "Population": 3171.0, "Lat": 18.7715, "Lon": -96.8689}], "Cuifeng": [{"Name": "Cuifeng", "Country Code": "CN", "Population": 0.0, "Lat": 36.84517, "Lon": 111.78172}], "Cuihua": [{"Name": "Cuihua", "Country Code": "CN", "Population": 0.0, "Lat": 27.73766, "Lon": 103.85738}], "Cuihuangkou": [{"Name": "Cuihuangkou", "Country Code": "CN", "Population": 4334.0, "Lat": 39.52583, "Lon": 117.18056}], "Cuijiaji": [{"Name": "Cuijiaji", "Country Code": "CN", "Population": 47651.0, "Lat": 36.62528, "Lon": 119.71333}], "Cuijiamatou": [{"Name": "Cuijiamatou", "Country Code": "CN", "Population": 1990.0, "Lat": 39.07472, "Lon": 117.30056}], "Cuijk": [{"Name": "Cuijk", "Country Code": "NL", "Population": 3610.0, "Lat": 51.73083, "Lon": 5.87917}], "Cuilapa": [{"Name": "Cuilapa", "Country Code": "GT", "Population": 41359.0, "Lat": 14.27639, "Lon": -90.29889}], "Cuilapan de Guerrero": [{"Name": "Cuilapan de Guerrero", "Country Code": "MX", "Population": 12360.0, "Lat": 16.97756, "Lon": -96.78081}], "Cuilco": [{"Name": "Cuilco", "Country Code": "GT", "Population": 1713.0, "Lat": 15.40719, "Lon": -91.94667}], "Cuimba": [{"Name": "Cu\u00edmba", "Country Code": "AO", "Population": 41878.0, "Lat": -6.12085, "Lon": 14.62086}], "Cuinchy": [{"Name": "Cuinchy", "Country Code": "FR", "Population": 1696.0, "Lat": 50.5175, "Lon": 2.7488}], "Cuincy": [{"Name": "Cuincy", "Country Code": "FR", "Population": 7048.0, "Lat": 50.37933, "Lon": 3.05301}], "Cuipo": [{"Name": "Cuipo", "Country Code": "PA", "Population": 0.0, "Lat": 9.08048, "Lon": -80.05391}], "Cuise-la-Motte": [{"Name": "Cuise-la-Motte", "Country Code": "FR", "Population": 2478.0, "Lat": 49.38642, "Lon": 3.00588}], "Cuiseaux": [{"Name": "Cuiseaux", "Country Code": "FR", "Population": 1762.0, "Lat": 46.49473, "Lon": 5.38931}], "Cuisery": [{"Name": "Cuisery", "Country Code": "FR", "Population": 1638.0, "Lat": 46.55696, "Lon": 4.99797}], "Cuisiat": [{"Name": "Cuisiat", "Country Code": "FR", "Population": 2108.0, "Lat": 46.30021, "Lon": 5.38809}], "Cuisillos": [{"Name": "Cuisillos", "Country Code": "MX", "Population": 3663.0, "Lat": 20.60948, "Lon": -103.77441}], "Cuispes": [{"Name": "Cuispes", "Country Code": "PE", "Population": 364.0, "Lat": -5.91667, "Lon": -77.93333}], "Cuite": [{"Name": "Cuit\u00e9", "Country Code": "BR", "Population": 11391.0, "Lat": -6.48361, "Lon": -36.15361}], "Cuitiva": [{"Name": "Cu\u00edtiva", "Country Code": "CO", "Population": 233.0, "Lat": 5.58007, "Lon": -72.96687}], "Cuitlahuac": [{"Name": "Cuitl\u00e1huac", "Country Code": "MX", "Population": 13651.0, "Lat": 18.81429, "Lon": -96.72281}], "Cuito": [{"Name": "Cuito", "Country Code": "AO", "Population": 355423.0, "Lat": -12.38333, "Lon": 16.93333}], "Cuitzeo (La Estancia)": [{"Name": "Cuitzeo (La Estancia)", "Country Code": "MX", "Population": 5603.0, "Lat": 20.34278, "Lon": -102.78389}], "Cuitzeo del Porvenir": [{"Name": "Cuitzeo del Porvenir", "Country Code": "MX", "Population": 10239.0, "Lat": 19.97025, "Lon": -101.1429}], "Cuiyachapa": [{"Name": "Cuiyachapa", "Country Code": "MX", "Population": 2248.0, "Lat": 19.04569, "Lon": -97.17436}], "Cuiyun": [{"Name": "Cuiyun", "Country Code": "CN", "Population": 18636.0, "Lat": 29.68817, "Lon": 106.58852}], "Cujillo": [{"Name": "Cujillo", "Country Code": "PE", "Population": 0.0, "Lat": -6.11667, "Lon": -78.53333}], "Cujmir": [{"Name": "Cujmir", "Country Code": "RO", "Population": 3733.0, "Lat": 44.20667, "Lon": 22.92667}], "Cukai": [{"Name": "Cukai", "Country Code": "MY", "Population": 82425.0, "Lat": 4.25, "Lon": 103.41667}], "Cukalat": [{"Name": "Cukalat", "Country Code": "AL", "Population": 631.0, "Lat": 40.73028, "Lon": 19.79056}], "Cukarica": [{"Name": "\u010cukarica", "Country Code": "RS", "Population": 0.0, "Lat": 44.7825, "Lon": 20.42028}], "Cukurca": [{"Name": "\u00c7ukurca", "Country Code": "TR", "Population": 8843.0, "Lat": 37.24806, "Lon": 43.61361}], "Cul de Sac": [{"Name": "Cul de Sac", "Country Code": "SX", "Population": 8467.0, "Lat": 18.04852, "Lon": -63.06513}], "Cul-des-Sarts": [{"Name": "Cul-des-Sarts", "Country Code": "BE", "Population": 1100.0, "Lat": 49.96248, "Lon": 4.45427}], "Culaba": [{"Name": "Culaba", "Country Code": "PH", "Population": 6231.0, "Lat": 11.65778, "Lon": 124.5425}], "Culacling": [{"Name": "Culacling", "Country Code": "PH", "Population": 2965.0, "Lat": 13.7815, "Lon": 122.8767}], "Culaman": [{"Name": "Culaman", "Country Code": "PH", "Population": 3523.0, "Lat": 5.96028, "Lon": 125.65861}], "Culasi": [{"Name": "Culasi", "Country Code": "PH", "Population": 4385.0, "Lat": 11.42721, "Lon": 122.05601}, {"Name": "Culasi", "Country Code": "PH", "Population": 4123.0, "Lat": 11.07917, "Lon": 122.98194}], "Culasian": [{"Name": "Culasian", "Country Code": "PH", "Population": 2475.0, "Lat": 11.30694, "Lon": 124.61056}], "Culburra Beach": [{"Name": "Culburra Beach", "Country Code": "AU", "Population": 2784.0, "Lat": -34.92788, "Lon": 150.75766}], "Culcairn": [{"Name": "Culcairn", "Country Code": "AU", "Population": 1420.0, "Lat": -35.66669, "Lon": 147.03845}], "Culcheth": [{"Name": "Culcheth", "Country Code": "GB", "Population": 6708.0, "Lat": 53.4511, "Lon": -2.52104}], "Culciu Mic": [{"Name": "Culciu Mic", "Country Code": "RO", "Population": 3941.0, "Lat": 47.76667, "Lon": 23.03333}], "Culebra": [{"Name": "Culebra", "Country Code": "PR", "Population": 1486.0, "Lat": 18.30301, "Lon": -65.30099}], "Culemborg": [{"Name": "Culemborg", "Country Code": "NL", "Population": 26826.0, "Lat": 51.955, "Lon": 5.22778}], "Culfa": [{"Name": "Culfa", "Country Code": "AZ", "Population": 12500.0, "Lat": 38.95397, "Lon": 45.62961}], "Culhat": [{"Name": "Culhat", "Country Code": "FR", "Population": 1024.0, "Lat": 45.86259, "Lon": 3.33676}], "Culiacan": [{"Name": "Culiac\u00e1n", "Country Code": "MX", "Population": 808416.0, "Lat": 24.79032, "Lon": -107.38782}], "Culiacancito": [{"Name": "Culiacancito", "Country Code": "MX", "Population": 4309.0, "Lat": 24.82538, "Lon": -107.53445}], "Culianan": [{"Name": "Culianan", "Country Code": "PH", "Population": 5915.0, "Lat": 6.98028, "Lon": 122.14667}], "Culianin": [{"Name": "Culianin", "Country Code": "PH", "Population": 7565.0, "Lat": 14.91511, "Lon": 120.89847}], "Culico 2da. Seccion": [{"Name": "C\u00falico 2da. Secci\u00f3n", "Country Code": "MX", "Population": 1408.0, "Lat": 18.14116, "Lon": -93.13222}], "Culit": [{"Name": "Culit", "Country Code": "PH", "Population": 2881.0, "Lat": 8.94722, "Lon": 125.35694}], "Culla": [{"Name": "Culla", "Country Code": "ES", "Population": 677.0, "Lat": 40.3365, "Lon": -0.16569}], "Cullalabo del Sur": [{"Name": "Cullalabo del Sur", "Country Code": "PH", "Population": 4907.0, "Lat": 17.10267, "Lon": 121.70394}], "Cullar-Vega": [{"Name": "C\u00fallar-Vega", "Country Code": "ES", "Population": 5487.0, "Lat": 37.15361, "Lon": -3.67072}], "Cullcuyre": [{"Name": "Cullcuyre", "Country Code": "PE", "Population": 3593.0, "Lat": -14.09272, "Lon": -71.33119}], "Cullen": [{"Name": "Cullen", "Country Code": "GB", "Population": 1450.0, "Lat": 57.69045, "Lon": -2.81818}, {"Name": "Cullen", "Country Code": "US", "Population": 1125.0, "Lat": 32.96903, "Lon": -93.45073}], "Cullera": [{"Name": "Cullera", "Country Code": "ES", "Population": 24121.0, "Lat": 39.16667, "Lon": -0.25}], "Culleredo": [{"Name": "Culleredo", "Country Code": "ES", "Population": 28227.0, "Lat": 43.28788, "Lon": -8.38858}], "Cullhuas": [{"Name": "Cullhuas", "Country Code": "PE", "Population": 559.0, "Lat": -12.22282, "Lon": -75.17179}], "Cullinan": [{"Name": "Cullinan", "Country Code": "ZA", "Population": 25490.0, "Lat": -25.67088, "Lon": 28.52364}], "Cullinan West": [{"Name": "Cullinan West", "Country Code": "HK", "Population": 5276.0, "Lat": 22.32702, "Lon": 114.15409}], "Cullingworth": [{"Name": "Cullingworth", "Country Code": "GB", "Population": 2596.0, "Lat": 53.82444, "Lon": -1.8973}], "Cullman": [{"Name": "Cullman", "Country Code": "US", "Population": 15350.0, "Lat": 34.17482, "Lon": -86.84361}], "Culloden": [{"Name": "Culloden", "Country Code": "GB", "Population": 4240.0, "Lat": 57.48699, "Lon": -4.1415}, {"Name": "Culloden", "Country Code": "US", "Population": 3061.0, "Lat": 38.42009, "Lon": -82.05542}], "Cullompton": [{"Name": "Cullompton", "Country Code": "GB", "Population": 7800.0, "Lat": 50.8553, "Lon": -3.39268}], "Cullowhee": [{"Name": "Cullowhee", "Country Code": "US", "Population": 6228.0, "Lat": 35.31371, "Lon": -83.17653}], "Cully": [{"Name": "Cully", "Country Code": "CH", "Population": 1793.0, "Lat": 46.48892, "Lon": 6.72945}], "Cullybackey": [{"Name": "Cullybackey", "Country Code": "GB", "Population": 2502.0, "Lat": 54.88875, "Lon": -6.34701}], "Culmea": [{"Name": "Culmea", "Country Code": "RO", "Population": 1059.0, "Lat": 44.25759, "Lon": 28.46643}], "Culmore": [{"Name": "Culmore", "Country Code": "GB", "Population": 3645.0, "Lat": 55.05, "Lon": -7.26667}], "Culoz": [{"Name": "Culoz", "Country Code": "FR", "Population": 2893.0, "Lat": 45.84886, "Lon": 5.78537}], "Culp Creek": [{"Name": "Culp Creek", "Country Code": "US", "Population": 2000.0, "Lat": 43.70346, "Lon": -122.84757}], "Culpeper": [{"Name": "Culpeper", "Country Code": "US", "Population": 17557.0, "Lat": 38.47318, "Lon": -77.99666}], "Cults": [{"Name": "Cults", "Country Code": "GB", "Population": 3500.0, "Lat": 57.11667, "Lon": -2.16667}], "Culubasa": [{"Name": "Culubasa", "Country Code": "PH", "Population": 2268.0, "Lat": 15.14431, "Lon": 120.65223}], "Culver": [{"Name": "Culver", "Country Code": "US", "Population": 1396.0, "Lat": 41.21893, "Lon": -86.42306},