{"Fartura": [{"Name": "Fartura", "Country Code": "BR", "Population": 12405.0, "Lat": -23.38833, "Lon": -49.51}], "Faruj": [{"Name": "F\u0101r\u016bj", "Country Code": "IR", "Population": 0.0, "Lat": 37.23121, "Lon": 58.219}], "Faruka": [{"Name": "Faruka", "Country Code": "PK", "Population": 21747.0, "Lat": 31.88642, "Lon": 72.41362}], "Farum": [{"Name": "Farum", "Country Code": "DK", "Population": 20312.0, "Lat": 55.80858, "Lon": 12.36066}], "Farwell": [{"Name": "Farwell", "Country Code": "US", "Population": 1311.0, "Lat": 34.38341, "Lon": -103.038}], "Faryab": [{"Name": "F\u0101ry\u0101b", "Country Code": "IR", "Population": 0.0, "Lat": 28.0987, "Lon": 57.23181}], "Fas": [{"Name": "F\u00e2s", "Country Code": "SN", "Population": 3904.0, "Lat": 14.35, "Lon": -16.03333}], "Fasa": [{"Name": "Fas\u0101", "Country Code": "IR", "Population": 98061.0, "Lat": 28.9383, "Lon": 53.6482}], "Fasano": [{"Name": "Fasano", "Country Code": "IT", "Population": 22593.0, "Lat": 40.83625, "Lon": 17.36007}], "Fascia": [{"Name": "Fascia", "Country Code": "IT", "Population": 21.0, "Lat": 44.58255, "Lon": 9.22136}], "Fasito`outa": [{"Name": "Fasito\u2018outa", "Country Code": "WS", "Population": 2098.0, "Lat": -13.81163, "Lon": -171.94063}], "Faskari": [{"Name": "Faskari", "Country Code": "NG", "Population": 0.0, "Lat": 11.72108, "Lon": 7.02991}], "Fasnia": [{"Name": "Fasnia", "Country Code": "ES", "Population": 2777.0, "Lat": 28.23638, "Lon": -16.43886}], "Fassale": [{"Name": "Fassal\u00e9", "Country Code": "MR", "Population": 10982.0, "Lat": 15.5571, "Lon": -5.516}], "Fassberg": [{"Name": "Fa\u00dfberg", "Country Code": "DE", "Population": 7299.0, "Lat": 52.9, "Lon": 10.16667}], "Fasselemon": [{"Name": "Fass\u00e9l\u00e9mon", "Country Code": "CI", "Population": 2173.0, "Lat": 9.27862, "Lon": -4.52904}], "Fassuta": [{"Name": "Fass\u016bta", "Country Code": "IL", "Population": 3172.0, "Lat": 33.04895, "Lon": 35.30893}], "Fastaci": [{"Name": "F\u00e2st\u00e2ci", "Country Code": "RO", "Population": 1139.0, "Lat": 46.73058, "Lon": 27.44901}], "Fastiv": [{"Name": "Fastiv", "Country Code": "UA", "Population": 44014.0, "Lat": 50.0767, "Lon": 29.9177}], "Fastovetskaya": [{"Name": "Fastovetskaya", "Country Code": "RU", "Population": 8806.0, "Lat": 45.91889, "Lon": 40.15889}], "Fate": [{"Name": "Fate", "Country Code": "US", "Population": 9847.0, "Lat": 32.94151, "Lon": -96.38137}], "Fatehabad": [{"Name": "Fateh\u0101b\u0101d", "Country Code": "IN", "Population": 66013.0, "Lat": 29.51525, "Lon": 75.45554}, {"Name": "Fateh\u0101b\u0101d", "Country Code": "IN", "Population": 21957.0, "Lat": 27.02645, "Lon": 78.3027}], "Fatehganj West": [{"Name": "Fatehganj West", "Country Code": "IN", "Population": 23810.0, "Lat": 28.4662, "Lon": 79.30657}], "Fatehgarh": [{"Name": "Fatehgarh", "Country Code": "IN", "Population": 14847.0, "Lat": 27.36409, "Lon": 79.63111}], "Fatehgarh Churian": [{"Name": "Fatehgarh Ch\u016bri\u0101n", "Country Code": "IN", "Population": 18051.0, "Lat": 31.86431, "Lon": 74.95665}], "Fatehpur": [{"Name": "Fatehpur", "Country Code": "IN", "Population": 34010.0, "Lat": 27.17281, "Lon": 81.21061}, {"Name": "Fatehpur", "Country Code": "IN", "Population": 166480.0, "Lat": 25.92774, "Lon": 80.81266}, {"Name": "Fatehpur", "Country Code": "IN", "Population": 83170.0, "Lat": 27.99486, "Lon": 74.95628}, {"Name": "Fatehpur", "Country Code": "PK", "Population": 18126.0, "Lat": 31.17772, "Lon": 71.2048}], "Fatehpur Chaurasi": [{"Name": "Fatehpur Chaur\u0101si", "Country Code": "IN", "Population": 5931.0, "Lat": 26.78925, "Lon": 80.26547}], "Fatehpur Sikri": [{"Name": "Fatehpur S\u012bkri", "Country Code": "IN", "Population": 30026.0, "Lat": 27.0937, "Lon": 77.66003}], "Fatezh": [{"Name": "Fatezh", "Country Code": "RU", "Population": 5722.0, "Lat": 52.08972, "Lon": 35.85906}], "Fatick": [{"Name": "Fatick", "Country Code": "SN", "Population": 28276.0, "Lat": 14.33236, "Lon": -16.40513}], "Fatima": [{"Name": "F\u00e1tima", "Country Code": "PT", "Population": 11798.0, "Lat": 39.62071, "Lon": -8.65237}], "Fatsa": [{"Name": "Fatsa", "Country Code": "TR", "Population": 82160.0, "Lat": 41.02778, "Lon": 37.50139}], "Fatwa": [{"Name": "Fatwa", "Country Code": "IN", "Population": 41647.0, "Lat": 25.50958, "Lon": 85.30504}], "Fauglia": [{"Name": "Fauglia", "Country Code": "IT", "Population": 1297.0, "Lat": 43.5711, "Lon": 10.51383}], "Faulbach": [{"Name": "Faulbach", "Country Code": "DE", "Population": 2784.0, "Lat": 49.78528, "Lon": 9.44417}], "Faulconbridge": [{"Name": "Faulconbridge", "Country Code": "AU", "Population": 3935.0, "Lat": -33.7, "Lon": 150.53333}], "Fauldhouse": [{"Name": "Fauldhouse", "Country Code": "GB", "Population": 4840.0, "Lat": 55.82749, "Lon": -3.70741}], "Faule": [{"Name": "Faule", "Country Code": "IT", "Population": 447.0, "Lat": 44.80624, "Lon": 7.58512}], "Faulkton": [{"Name": "Faulkton", "Country Code": "US", "Population": 740.0, "Lat": 45.03497, "Lon": -99.124}], "Faulquemont": [{"Name": "Faulquemont", "Country Code": "FR", "Population": 5553.0, "Lat": 49.0491, "Lon": 6.59732}], "Faulx": [{"Name": "Faulx", "Country Code": "FR", "Population": 1275.0, "Lat": 48.79266, "Lon": 6.19554}], "Faulx-Les Tombes": [{"Name": "Faulx-Les Tombes", "Country Code": "BE", "Population": 1779.0, "Lat": 50.42708, "Lon": 5.02075}], "Faumont": [{"Name": "Faumont", "Country Code": "FR", "Population": 1971.0, "Lat": 50.46017, "Lon": 3.13713}], "Faura": [{"Name": "Faura", "Country Code": "ES", "Population": 2743.0, "Lat": 39.71667, "Lon": -0.25}], "Faurei": [{"Name": "F\u0103urei", "Country Code": "RO", "Population": 4043.0, "Lat": 45.08333, "Lon": 27.26667}, {"Name": "F\u0103urei", "Country Code": "RO", "Population": 2344.0, "Lat": 46.91667, "Lon": 26.68333}], "Fauresti": [{"Name": "F\u0103ure\u015fti", "Country Code": "RO", "Population": 3623.0, "Lat": 44.56667, "Lon": 24.01667}], "Fauske": [{"Name": "Fauske", "Country Code": "NO", "Population": 5953.0, "Lat": 67.25883, "Lon": 15.39181}], "Fauville-en-Caux": [{"Name": "Fauville-en-Caux", "Country Code": "FR", "Population": 2072.0, "Lat": 49.65257, "Lon": 0.59197}], "Fauvillers": [{"Name": "Fauvillers", "Country Code": "BE", "Population": 1952.0, "Lat": 49.85116, "Lon": 5.66405}], "Favaios": [{"Name": "Favaios", "Country Code": "PT", "Population": 1064.0, "Lat": 41.26876, "Lon": -7.50465}], "Favale di Malvaro": [{"Name": "Favale di Malvaro", "Country Code": "IT", "Population": 201.0, "Lat": 44.45163, "Lon": 9.26}], "Favara": [{"Name": "Favara", "Country Code": "ES", "Population": 1855.0, "Lat": 39.11667, "Lon": -0.28333}, {"Name": "Favara", "Country Code": "IT", "Population": 32110.0, "Lat": 37.31754, "Lon": 13.66226}], "Favari-Avatanei": [{"Name": "Favari-Avatanei", "Country Code": "IT", "Population": 1067.0, "Lat": 44.91235, "Lon": 7.7995}], "Faver": [{"Name": "Faver", "Country Code": "IT", "Population": 733.0, "Lat": 46.18131, "Lon": 11.23728}], "Faverges": [{"Name": "Faverges", "Country Code": "FR", "Population": 6580.0, "Lat": 45.75116, "Lon": 6.29151}], "Faverges-de-la-Tour": [{"Name": "Faverges-de-la-Tour", "Country Code": "FR", "Population": 1195.0, "Lat": 45.59068, "Lon": 5.52136}], "Faverney": [{"Name": "Faverney", "Country Code": "FR", "Population": 1050.0, "Lat": 47.76713, "Lon": 6.10428}], "Faverolles-sur-Cher": [{"Name": "Faverolles-sur-Cher", "Country Code": "FR", "Population": 1240.0, "Lat": 47.31732, "Lon": 1.19045}], "Faversham": [{"Name": "Faversham", "Country Code": "GB", "Population": 19829.0, "Lat": 51.3148, "Lon": 0.88856}], "Favieres": [{"Name": "Favi\u00e8res", "Country Code": "FR", "Population": 1025.0, "Lat": 48.76324, "Lon": 2.7747}], "Favignana": [{"Name": "Favignana", "Country Code": "IT", "Population": 2438.0, "Lat": 37.92951, "Lon": 12.32958}], "Favona": [{"Name": "Favona", "Country Code": "NZ", "Population": 11160.0, "Lat": -36.93333, "Lon": 174.8}], "Favoriten": [{"Name": "Favoriten", "Country Code": "AT", "Population": 201882.0, "Lat": 48.16116, "Lon": 16.38233}], "Favria": [{"Name": "Favria", "Country Code": "IT", "Population": 4630.0, "Lat": 45.33099, "Lon": 7.68834}], "Fawkner": [{"Name": "Fawkner", "Country Code": "AU", "Population": 14274.0, "Lat": -37.71667, "Lon": 144.96667}], "Faxe": [{"Name": "Faxe", "Country Code": "DK", "Population": 4246.0, "Lat": 55.25561, "Lon": 12.11926}], "Faxe Ladeplads": [{"Name": "Faxe Ladeplads", "Country Code": "DK", "Population": 2884.0, "Lat": 55.21981, "Lon": 12.17013}], "Faxinal": [{"Name": "Faxinal", "Country Code": "BR", "Population": 13464.0, "Lat": -24.00028, "Lon": -51.31944}], "Faxon": [{"Name": "Faxon", "Country Code": "US", "Population": 1395.0, "Lat": 41.24841, "Lon": -76.97719}], "Fay-aux-Loges": [{"Name": "Fay-aux-Loges", "Country Code": "FR", "Population": 3082.0, "Lat": 47.92724, "Lon": 2.14012}], "Fay-de-Bretagne": [{"Name": "Fay-de-Bretagne", "Country Code": "FR", "Population": 2687.0, "Lat": 47.41515, "Lon": -1.79196}], "Faya-Largeau": [{"Name": "Faya-Largeau", "Country Code": "TD", "Population": 44011.0, "Lat": 17.9257, "Lon": 19.10428}], "Fayaoue": [{"Name": "Fayaou\u00e9", "Country Code": "NC", "Population": 4411.0, "Lat": -20.65284, "Lon": 166.53641}], "Fayence": [{"Name": "Fayence", "Country Code": "FR", "Population": 4603.0, "Lat": 43.6257, "Lon": 6.69531}], "Fayette": [{"Name": "Fayette", "Country Code": "US", "Population": 1081.0, "Lat": 44.40896, "Lon": -70.03367}, {"Name": "Fayette", "Country Code": "US", "Population": 1491.0, "Lat": 42.84193, "Lon": -91.80211}, {"Name": "Fayette", "Country Code": "US", "Population": 1577.0, "Lat": 31.71155, "Lon": -91.06066}, {"Name": "Fayette", "Country Code": "US", "Population": 2702.0, "Lat": 39.14587, "Lon": -92.68379}, {"Name": "Fayette", "Country Code": "US", "Population": 1268.0, "Lat": 41.67338, "Lon": -84.32689}, {"Name": "Fayette", "Country Code": "US", "Population": 4490.0, "Lat": 33.68455, "Lon": -87.83085}], "Fayetteville": [{"Name": "Fayetteville", "Country Code": "US", "Population": 3128.0, "Lat": 39.9112, "Lon": -77.54999}, {"Name": "Fayetteville", "Country Code": "US", "Population": 4180.0, "Lat": 43.02979, "Lon": -76.00436}, {"Name": "Fayetteville", "Country Code": "US", "Population": 2892.0, "Lat": 38.05289, "Lon": -81.10399}, {"Name": "Fayetteville", "Country Code": "US", "Population": 201963.0, "Lat": 35.05266, "Lon": -78.87836}, {"Name": "Fayetteville", "Country Code": "US", "Population": 7121.0, "Lat": 35.15203, "Lon": -86.57055}, {"Name": "Fayetteville", "Country Code": "US", "Population": 82830.0, "Lat": 36.06258, "Lon": -94.15743}, {"Name": "Fayetteville", "Country Code": "US", "Population": 16990.0, "Lat": 33.44873, "Lon": -84.45493}, {"Name": "Fayetteville", "Country Code": "US", "Population": 1284.0, "Lat": 33.14567, "Lon": -86.40581}], "Fayfa'": [{"Name": "Fayf\u0101\u2019", "Country Code": "SA", "Population": 29793.0, "Lat": 17.2806, "Lon": 43.13735}], "Fayid": [{"Name": "F\u0101y\u012bd", "Country Code": "EG", "Population": 35066.0, "Lat": 30.31263, "Lon": 32.30935}], "Fayl-Billot": [{"Name": "Fayl-Billot", "Country Code": "FR", "Population": 1609.0, "Lat": 47.78199, "Lon": 5.59917}], "Fayon": [{"Name": "Fay\u00f3n", "Country Code": "ES", "Population": 404.0, "Lat": 41.23851, "Lon": 0.33302}], "Fayroz Koh": [{"Name": "Fayr\u014dz K\u014dh", "Country Code": "AF", "Population": 15000.0, "Lat": 34.51952, "Lon": 65.25093}], "Fayt-lez-Manage": [{"Name": "Fayt-lez-Manage", "Country Code": "BE", "Population": 6040.0, "Lat": 50.48698, "Lon": 4.22959}], "Fayzabad": [{"Name": "Fay\u1e95\u0101b\u0101d", "Country Code": "AF", "Population": 0.0, "Lat": 36.29111, "Lon": 64.86222}, {"Name": "Fayzabad", "Country Code": "AF", "Population": 44421.0, "Lat": 37.11664, "Lon": 70.58002}], "Fayzobod": [{"Name": "Fayzobod", "Country Code": "TJ", "Population": 0.0, "Lat": 38.54731, "Lon": 69.3198}], "Faza": [{"Name": "Faza", "Country Code": "KE", "Population": 2855.0, "Lat": -2.05604, "Lon": 41.11184}], "Fazana": [{"Name": "Fa\u017eana", "Country Code": "HR", "Population": 1788.0, "Lat": 44.92742, "Lon": 13.80349}], "Fazeley": [{"Name": "Fazeley", "Country Code": "GB", "Population": 7522.0, "Lat": 52.61443, "Lon": -1.6985}], "Fazendas de Almeirim": [{"Name": "Fazendas de Almeirim", "Country Code": "PT", "Population": 6635.0, "Lat": 39.17553, "Lon": -8.56927}], "Fazhanhe": [{"Name": "Fazhanhe", "Country Code": "CN", "Population": 15483.0, "Lat": 22.33424, "Lon": 100.1731}], "Fazilka": [{"Name": "F\u0101zilka", "Country Code": "IN", "Population": 70887.0, "Lat": 30.40207, "Lon": 74.02836}], "Fazilpur": [{"Name": "Fazilpur", "Country Code": "PK", "Population": 28213.0, "Lat": 32.17629, "Lon": 75.06583}], "Fderick": [{"Name": "Fder\u00eeck", "Country Code": "MR", "Population": 4073.0, "Lat": 22.678, "Lon": -12.711}], "Feanwalden": [{"Name": "Feanw\u00e2lden", "Country Code": "NL", "Population": 3440.0, "Lat": 53.23558, "Lon": 5.98832}], "Feapleu": [{"Name": "F\u00e9apleu", "Country Code": "CI", "Population": 2250.0, "Lat": 7.13644, "Lon": -7.94577}], "Fearrington Village": [{"Name": "Fearrington Village", "Country Code": "US", "Population": 2339.0, "Lat": 35.80376, "Lon": -79.09029}], "Feasterville": [{"Name": "Feasterville", "Country Code": "US", "Population": 3074.0, "Lat": 40.15, "Lon": -74.997}], "Feather Sound": [{"Name": "Feather Sound", "Country Code": "US", "Population": 3420.0, "Lat": 27.90079, "Lon": -82.67349}], "Featherstone": [{"Name": "Featherstone", "Country Code": "GB", "Population": 14175.0, "Lat": 52.64483, "Lon": -2.09315}, {"Name": "Featherstone", "Country Code": "GB", "Population": 11060.0, "Lat": 53.67688, "Lon": -1.35647}], "Febiasso": [{"Name": "F\u00e9biasso", "Country Code": "CI", "Population": 1197.0, "Lat": 10.30945, "Lon": -6.53819}], "Fecamp": [{"Name": "F\u00e9camp", "Country Code": "FR", "Population": 22003.0, "Lat": 49.75787, "Lon": 0.37457}], "Fechain": [{"Name": "F\u00e9chain", "Country Code": "FR", "Population": 1958.0, "Lat": 50.26638, "Lon": 3.21024}], "Fedderwarden": [{"Name": "Fedderwarden", "Country Code": "DE", "Population": 2000.0, "Lat": 53.56142, "Lon": 8.04371}], "Federacion": [{"Name": "Federaci\u00f3n", "Country Code": "AR", "Population": 13789.0, "Lat": -30.99114, "Lon": -57.91789}], "Federal": [{"Name": "Federal", "Country Code": "AR", "Population": 16333.0, "Lat": -30.95619, "Lon": -58.7797}], "Federal Heights": [{"Name": "Federal Heights", "Country Code": "US", "Population": 12381.0, "Lat": 39.85137, "Lon": -104.99859}], "Federal Way": [{"Name": "Federal Way", "Country Code": "US", "Population": 95171.0, "Lat": 47.32232, "Lon": -122.31262}], "Federalsburg": [{"Name": "Federalsburg", "Country Code": "US", "Population": 2661.0, "Lat": 38.69428, "Lon": -75.77216}], "Fedj M'Zala": [{"Name": "Fedj M\u2019Zala", "Country Code": "DZ", "Population": 26176.0, "Lat": 36.40937, "Lon": 5.94463}], "Fedje": [{"Name": "Fedje", "Country Code": "NO", "Population": 480.0, "Lat": 60.7789, "Lon": 4.71485}], "Fedorovskiy": [{"Name": "Fedorovskiy", "Country Code": "RU", "Population": 23375.0, "Lat": 61.6063, "Lon": 73.71415}], "Fedorovskoye": [{"Name": "F\u00ebdorovskoye", "Country Code": "RU", "Population": 3013.0, "Lat": 59.66306, "Lon": 30.53222}], "Fedurnovo": [{"Name": "Fedurnovo", "Country Code": "RU", "Population": 1814.0, "Lat": 55.75488, "Lon": 38.04696}], "Fef": [{"Name": "Fef", "Country Code": "ID", "Population": 966.0, "Lat": -0.80889, "Lon": 132.43222}], "Fegersheim": [{"Name": "Fegersheim", "Country Code": "FR", "Population": 4919.0, "Lat": 48.49016, "Lon": 7.68107}], "Feglino": [{"Name": "Feglino", "Country Code": "IT", "Population": 582.0, "Lat": 44.21849, "Lon": 8.32436}], "Fegreac": [{"Name": "F\u00e9gr\u00e9ac", "Country Code": "FR", "Population": 2156.0, "Lat": 47.58464, "Lon": -2.04458}], "Fegyvernek": [{"Name": "Fegyvernek", "Country Code": "HU", "Population": 6972.0, "Lat": 47.26667, "Lon": 20.53333}], "Fehergyarmat": [{"Name": "Feh\u00e9rgyarmat", "Country Code": "HU", "Population": 9031.0, "Lat": 47.98333, "Lon": 22.51667}], "Fehervarcsurgo": [{"Name": "Feh\u00e9rv\u00e1rcsurg\u00f3", "Country Code": "HU", "Population": 1886.0, "Lat": 47.29349, "Lon": 18.2646}], "Fehmarn": [{"Name": "Fehmarn", "Country Code": "DE", "Population": 12875.0, "Lat": 54.4378, "Lon": 11.19352}], "Fehraltorf": [{"Name": "Fehraltorf", "Country Code": "CH", "Population": 3767.0, "Lat": 47.38775, "Lon": 8.75149}], "Fehrbellin": [{"Name": "Fehrbellin", "Country Code": "DE", "Population": 9413.0, "Lat": 52.8135, "Lon": 12.7644}], "Fehring": [{"Name": "Fehring", "Country Code": "AT", "Population": 1675.0, "Lat": 46.94, "Lon": 16.00806}], "Feicheng": [{"Name": "Feicheng", "Country Code": "CN", "Population": 80929.0, "Lat": 35.26056, "Lon": 117.9675}, {"Name": "Feicheng", "Country Code": "CN", "Population": 77606.0, "Lat": 36.24861, "Lon": 116.76583}], "Feidh el Botma": [{"Name": "Feidh el Botma", "Country Code": "DZ", "Population": 26857.0, "Lat": 34.5, "Lon": 3.76667}], "Feigeres": [{"Name": "Feig\u00e8res", "Country Code": "FR", "Population": 1360.0, "Lat": 46.11228, "Lon": 6.07937}], "Feignies": [{"Name": "Feignies", "Country Code": "FR", "Population": 7370.0, "Lat": 50.29806, "Lon": 3.91534}], "Feijenoord": [{"Name": "Feijenoord", "Country Code": "NL", "Population": 7275.0, "Lat": 51.91169, "Lon": 4.50645}], "Feijo": [{"Name": "Feij\u00f3", "Country Code": "BR", "Population": 12951.0, "Lat": -8.1654, "Lon": -70.35486}], "Feilbingert": [{"Name": "Feilbingert", "Country Code": "DE", "Population": 1739.0, "Lat": 49.76667, "Lon": 7.8}], "Feilitzsch": [{"Name": "Feilitzsch", "Country Code": "DE", "Population": 2932.0, "Lat": 50.36667, "Lon": 11.93333}], "Feillens": [{"Name": "Feillens", "Country Code": "FR", "Population": 3015.0, "Lat": 46.33426, "Lon": 4.89146}], "Feiluan": [{"Name": "Feiluan", "Country Code": "CN", "Population": 3120.0, "Lat": 26.5625, "Lon": 119.5975}], "Feira": [{"Name": "Feira", "Country Code": "PT", "Population": 16376.0, "Lat": 40.92535, "Lon": -8.54277}], "Feira Nova": [{"Name": "Feira Nova", "Country Code": "BR", "Population": 12984.0, "Lat": -7.95083, "Lon": -35.38917}], "Feira de Santana": [{"Name": "Feira de Santana", "Country Code": "BR", "Population": 619609.0, "Lat": -12.26667, "Lon": -38.96667}], "Feisa": [{"Name": "Feisa", "Country Code": "RO", "Population": 1026.0, "Lat": 46.22608, "Lon": 24.14492}], "Feisoglio": [{"Name": "Feisoglio", "Country Code": "IT", "Population": 250.0, "Lat": 44.54374, "Lon": 8.10494}], "Feistritz am Wechsel": [{"Name": "Feistritz am Wechsel", "Country Code": "AT", "Population": 863.0, "Lat": 47.6, "Lon": 16.05}], "Feistritz an der Drau": [{"Name": "Feistritz an der Drau", "Country Code": "AT", "Population": 1720.0, "Lat": 46.70157, "Lon": 13.66479}], "Feistritz an der Gail": [{"Name": "Feistritz an der Gail", "Country Code": "AT", "Population": 627.0, "Lat": 46.5775, "Lon": 13.60667}], "Feistritz bei Knittelfeld": [{"Name": "Feistritz bei Knittelfeld", "Country Code": "AT", "Population": 614.0, "Lat": 47.26802, "Lon": 14.89334}], "Feistritz im Rosental": [{"Name": "Feistritz im Rosental", "Country Code": "AT", "Population": 1015.0, "Lat": 46.5225, "Lon": 14.16826}], "Feistritz ob Bleiburg": [{"Name": "Feistritz ob Bleiburg", "Country Code": "AT", "Population": 287.0, "Lat": 46.56148, "Lon": 14.76249}], "Feke": [{"Name": "Feke", "Country Code": "TR", "Population": 4592.0, "Lat": 37.81446, "Lon": 35.91233}], "Feketic": [{"Name": "Feketi\u0107", "Country Code": "RS", "Population": 3980.0, "Lat": 45.66431, "Lon": 19.69974}], "Felahiye": [{"Name": "Felahiye", "Country Code": "TR", "Population": 5716.0, "Lat": 39.09056, "Lon": 35.56722}], "Felana": [{"Name": "Felana", "Country Code": "ET", "Population": 26200.0, "Lat": 9.46498, "Lon": 42.18447}], "Felanitx": [{"Name": "Felanitx", "Country Code": "ES", "Population": 18270.0, "Lat": 39.4696, "Lon": 3.14831}], "Felbridge": [{"Name": "Felbridge", "Country Code": "GB", "Population": 0.0, "Lat": 51.13913, "Lon": -0.04116}], "Feld am See": [{"Name": "Feld am See", "Country Code": "AT", "Population": 667.0, "Lat": 46.77639, "Lon": 13.74778}], "Feldafing": [{"Name": "Feldafing", "Country Code": "DE", "Population": 4293.0, "Lat": 47.94602, "Lon": 11.29326}], "Feldbach": [{"Name": "Feldbach", "Country Code": "AT", "Population": 4829.0, "Lat": 46.95306, "Lon": 15.88833}], "Felde": [{"Name": "Felde", "Country Code": "DE", "Population": 2159.0, "Lat": 54.3, "Lon": 9.93333}], "Feldioara": [{"Name": "Feldioara", "Country Code": "RO", "Population": 6307.0, "Lat": 45.81667, "Lon": 25.6}], "Feldkirch": [{"Name": "Feldkirch", "Country Code": "AT", "Population": 33420.0, "Lat": 47.23306, "Lon": 9.6}], "Feldkirchen": [{"Name": "Feldkirchen", "Country Code": "DE", "Population": 5573.0, "Lat": 48.14811, "Lon": 11.731}], "Feldkirchen an der Donau": [{"Name": "Feldkirchen an der Donau", "Country Code": "AT", "Population": 903.0, "Lat": 48.34524, "Lon": 14.05134}], "Feldkirchen bei Graz": [{"Name": "Feldkirchen bei Graz", "Country Code": "AT", "Population": 1625.0, "Lat": 47.01667, "Lon": 15.45}], "Feldkirchen in Kaernten": [{"Name": "Feldkirchen in K\u00e4rnten", "Country Code": "AT", "Population": 2831.0, "Lat": 46.72368, "Lon": 14.0958}], "Feldkirchen-Westerham": [{"Name": "Feldkirchen-Westerham", "Country Code": "DE", "Population": 10399.0, "Lat": 47.90748, "Lon": 11.84266}], "Feldmeilen": [{"Name": "Feldmeilen", "Country Code": "CH", "Population": 3732.0, "Lat": 47.27873, "Lon": 8.62165}], "Feldru": [{"Name": "Feldru", "Country Code": "RO", "Population": 6967.0, "Lat": 47.28333, "Lon": 24.6}], "Feldstadt": [{"Name": "Feldstadt", "Country Code": "DE", "Population": 4160.0, "Lat": 53.62331, "Lon": 11.40673}], "Feleacu": [{"Name": "Feleacu", "Country Code": "RO", "Population": 3764.0, "Lat": 46.71667, "Lon": 23.61667}], "Felegara": [{"Name": "Felegara", "Country Code": "IT", "Population": 2702.0, "Lat": 44.72187, "Lon": 10.11273}], "Felege Neway": [{"Name": "Felege Neway", "Country Code": "ET", "Population": 61000.0, "Lat": 6.3, "Lon": 36.88333}], "Feletto": [{"Name": "Feletto", "Country Code": "IT", "Population": 2171.0, "Lat": 45.30336, "Lon": 7.74481}], "Feletto Umberto": [{"Name": "Feletto Umberto", "Country Code": "IT", "Population": 0.0, "Lat": 46.10317, "Lon": 13.22196}], "Felgueiras": [{"Name": "Felgueiras", "Country Code": "PT", "Population": 58065.0, "Lat": 41.36806, "Lon": -8.19396}], "Feliapla": [{"Name": "F\u00e9liapla", "Country Code": "CI", "Population": 1213.0, "Lat": 7.9694, "Lon": -5.76615}], "Feliceni": [{"Name": "Feliceni", "Country Code": "RO", "Population": 2984.0, "Lat": 46.26667, "Lon": 25.26667}], "Feliciano": [{"Name": "Feliciano", "Country Code": "PH", "Population": 2484.0, "Lat": 11.5787, "Lon": 122.3583}], "Felida": [{"Name": "Felida", "Country Code": "US", "Population": 7385.0, "Lat": 45.70956, "Lon": -122.70732}], "Felidhoo": [{"Name": "Felidhoo", "Country Code": "MV", "Population": 541.0, "Lat": 3.47182, "Lon": 73.54699}], "Felina": [{"Name": "Felina", "Country Code": "IT", "Population": 1478.0, "Lat": 44.45478, "Lon": 10.46067}], "Felines": [{"Name": "F\u00e9lines", "Country Code": "FR", "Population": 1167.0, "Lat": 45.31668, "Lon": 4.72836}], "Felino": [{"Name": "Felino", "Country Code": "IT", "Population": 4226.0, "Lat": 44.69902, "Lon": 10.23828}], "Felipe Angeles": [{"Name": "Felipe Angeles", "Country Code": "MX", "Population": 1403.0, "Lat": 25.86763, "Lon": -109.0408}], "Felipe Carrillo Puerto": [{"Name": "Felipe Carrillo Puerto", "Country Code": "MX", "Population": 1154.0, "Lat": 21.132, "Lon": -104.86068}, {"Name": "Felipe Carrillo Puerto", "Country Code": "MX", "Population": 3877.0, "Lat": 20.13578, "Lon": -96.95164}, {"Name": "Felipe Carrillo Puerto", "Country Code": "MX", "Population": 2019.0, "Lat": 24.33305, "Lon": -104.01105}, {"Name": "Felipe Carrillo Puerto", "Country Code": "MX", "Population": 1081.0, "Lat": 19.39922, "Lon": -97.8552}, {"Name": "Felipe Carrillo Puerto", "Country Code": "MX", "Population": 1029.0, "Lat": 19.89854, "Lon": -101.03841}, {"Name": "Felipe Carrillo Puerto", "Country Code": "MX", "Population": 25744.0, "Lat": 19.5775, "Lon": -88.04529}, {"Name": "Felipe Carrillo Puerto", "Country Code": "MX", "Population": 10217.0, "Lat": 19.16325, "Lon": -102.70834}], "Felipe Neri (Cuatepec)": [{"Name": "Felipe Neri (Cuatepec)", "Country Code": "MX", "Population": 1338.0, "Lat": 19.03944, "Lon": -98.94361}], "Felipe Yofre": [{"Name": "Felipe Yofr\u00e9", "Country Code": "AR", "Population": 1947.0, "Lat": -29.10339, "Lon": -58.34124}], "Felitto": [{"Name": "Felitto", "Country Code": "IT", "Population": 795.0, "Lat": 40.37351, "Lon": 15.24306}], "Felixdorf": [{"Name": "Felixdorf", "Country Code": "AT", "Population": 4292.0, "Lat": 47.88159, "Lon": 16.24208}], "Felixstow": [{"Name": "Felixstow", "Country Code": "AU", "Population": 2259.0, "Lat": -34.88902, "Lon": 138.64696}], "Felixstowe": [{"Name": "Felixstowe", "Country Code": "GB", "Population": 29171.0, "Lat": 51.96375, "Lon": 1.3511}], "Felizzano": [{"Name": "Felizzano", "Country Code": "IT", "Population": 2276.0, "Lat": 44.89935, "Lon": 8.43584}], "Fell": [{"Name": "Fell", "Country Code": "DE", "Population": 2342.0, "Lat": 49.76667, "Lon": 6.78333}], "Fellbach": [{"Name": "Fellbach", "Country Code": "DE", "Population": 43935.0, "Lat": 48.80912, "Lon": 9.27697}], "Fellegara": [{"Name": "Fellegara", "Country Code": "IT", "Population": 1017.0, "Lat": 44.61052, "Lon": 10.697}], "Felleries": [{"Name": "Felleries", "Country Code": "FR", "Population": 1454.0, "Lat": 50.14719, "Lon": 4.03322}], "Fellering": [{"Name": "Fellering", "Country Code": "FR", "Population": 1617.0, "Lat": 47.89659, "Lon": 6.98552}], "Felletin": [{"Name": "Felletin", "Country Code": "FR", "Population": 2332.0, "Lat": 45.88415, "Lon": 2.17335}], "Fellheim": [{"Name": "Fellheim", "Country Code": "DE", "Population": 1197.0, "Lat": 48.0728, "Lon": 10.15224}], "Felline": [{"Name": "Felline", "Country Code": "IT", "Population": 1466.0, "Lat": 39.93651, "Lon": 18.11822}], "Felling": [{"Name": "Felling", "Country Code": "GB", "Population": 34355.0, "Lat": 54.95297, "Lon": -1.57152}], "Fellingsbro": [{"Name": "Fellingsbro", "Country Code": "SE", "Population": 1475.0, "Lat": 59.43333, "Lon": 15.58333}], "Fellsburg": [{"Name": "Fellsburg", "Country Code": "US", "Population": 1180.0, "Lat": 40.18313, "Lon": -79.82421}], "Fellsmere": [{"Name": "Fellsmere", "Country Code": "US", "Population": 5514.0, "Lat": 27.76781, "Lon": -80.60144}], "Felm": [{"Name": "Felm", "Country Code": "DE", "Population": 1144.0, "Lat": 54.41667, "Lon": 10.05}], "Felnac": [{"Name": "Felnac", "Country Code": "RO", "Population": 5097.0, "Lat": 46.11667, "Lon": 21.15}], "Felonica": [{"Name": "Felonica", "Country Code": "IT", "Population": 1025.0, "Lat": 44.97898, "Lon": 11.3537}], "Fels am Wagram": [{"Name": "Fels am Wagram", "Country Code": "AT", "Population": 1571.0, "Lat": 48.43333, "Lon": 15.81667}], "Felsberg": [{"Name": "Felsberg", "Country Code": "CH", "Population": 2088.0, "Lat": 46.84566, "Lon": 9.47588}, {"Name": "Felsberg", "Country Code": "DE", "Population": 11219.0, "Lat": 51.13763, "Lon": 9.42139}], "Felsopakony": [{"Name": "Fels\u0151pakony", "Country Code": "HU", "Population": 3040.0, "Lat": 47.34329, "Lon": 19.23698}], "Felsoszentivan": [{"Name": "Fels\u0151szentiv\u00e1n", "Country Code": "HU", "Population": 1998.0, "Lat": 46.19713, "Lon": 19.18686}], "Felsotarkany": [{"Name": "Fels\u0151t\u00e1rk\u00e1ny", "Country Code": "HU", "Population": 3223.0, "Lat": 47.96667, "Lon": 20.41667}], "Felsozsolca": [{"Name": "Fels\u0151zsolca", "Country Code": "HU", "Population": 7040.0, "Lat": 48.1, "Lon": 20.86667}], "Feltham": [{"Name": "Feltham", "Country Code": "GB", "Population": 24325.0, "Lat": 51.4462, "Lon": -0.41388}], "Felton": [{"Name": "Felton", "Country Code": "GB", "Population": 1126.0, "Lat": 55.29768, "Lon": -1.71143}, {"Name": "Felton", "Country Code": "US", "Population": 4057.0, "Lat": 37.05134, "Lon": -122.0733}, {"Name": "Felton", "Country Code": "US", "Population": 1402.0, "Lat": 39.00845, "Lon": -75.57798}], "Feltre": [{"Name": "Feltre", "Country Code": "IT", "Population": 13643.0, "Lat": 46.02085, "Lon": 11.90031}], "Feltwell": [{"Name": "Feltwell", "Country Code": "GB", "Population": 2635.0, "Lat": 52.48581, "Lon": 0.51945}], "Feluy": [{"Name": "Feluy", "Country Code": "BE", "Population": 2536.0, "Lat": 50.56258, "Lon": 4.25098}], "Fenain": [{"Name": "Fenain", "Country Code": "FR", "Population": 5346.0, "Lat": 50.36667, "Lon": 3.3}], "Fenais da Ajuda": [{"Name": "Fenais da Ajuda", "Country Code": "PT", "Population": 1131.0, "Lat": 37.85128, "Lon": -25.32406}], "Fenais da Luz": [{"Name": "Fenais da Luz", "Country Code": "PT", "Population": 2009.0, "Lat": 37.8249, "Lon": -25.64229}], "Fenay": [{"Name": "F\u00e9nay", "Country Code": "FR", "Population": 1272.0, "Lat": 47.23185, "Lon": 5.06211}], "Fendalton": [{"Name": "Fendalton", "Country Code": "NZ", "Population": 4550.0, "Lat": -43.51667, "Lon": 172.6}], "Fendels": [{"Name": "Fendels", "Country Code": "AT", "Population": 259.0, "Lat": 47.0539, "Lon": 10.67777}], "Fendou": [{"Name": "Fendou", "Country Code": "CN", "Population": 226298.0, "Lat": 46.64142, "Lon": 124.86283}, {"Name": "Fendou", "Country Code": "CN", "Population": 0.0, "Lat": 47.40955, "Lon": 129.42822}], "Fene": [{"Name": "Fene", "Country Code": "ES", "Population": 14165.0, "Lat": 43.45, "Lon": -8.15}], "Fenegro": [{"Name": "Fenegr\u00f2", "Country Code": "IT", "Population": 3114.0, "Lat": 45.70157, "Lon": 8.99964}], "Fenes": [{"Name": "Fene\u0219", "Country Code": "RO", "Population": 1163.0, "Lat": 46.10431, "Lon": 23.29511}], "Fenestrelle": [{"Name": "Fenestrelle", "Country Code": "IT", "Population": 317.0, "Lat": 45.03594, "Lon": 7.04941}], "Feneu": [{"Name": "Feneu", "Country Code": "FR", "Population": 1899.0, "Lat": 47.57211, "Lon": -0.59321}], "Fengcheng": [{"Name": "Fengcheng", "Country Code": "CN", "Population": 120514.0, "Lat": 40.45361, "Lon": 124.07167}, {"Name": "Fengcheng", "Country Code": "CN", "Population": 175576.0, "Lat": 29.82587, "Lon": 107.06019}, {"Name": "Fengcheng", "Country Code": "CN", "Population": 161850.0, "Lat": 34.70388, "Lon": 116.58717}, {"Name": "Fengcheng", "Country Code": "CN", "Population": 0.0, "Lat": 37.43278, "Lon": 112.02333}, {"Name": "Fengcheng", "Country Code": "CN", "Population": 0.0, "Lat": 24.72365, "Lon": 116.72429}], "Fengchuan": [{"Name": "Fengchuan", "Country Code": "CN", "Population": 0.0, "Lat": 28.7, "Lon": 115.38333}], "Fengdie": [{"Name": "Fengdie", "Country Code": "CN", "Population": 10945.0, "Lat": 33.81049, "Lon": 104.24507}], "Fengfengkuang": [{"Name": "Fengfengkuang", "Country Code": "CN", "Population": 0.0, "Lat": 36.41939, "Lon": 114.21338}], "Fenggang": [{"Name": "Fenggang", "Country Code": "CN", "Population": 64715.0, "Lat": 27.54566, "Lon": 116.21456}], "Fenggao": [{"Name": "Fenggao", "Country Code": "CN", "Population": 31859.0, "Lat": 29.42685, "Lon": 105.67506}], "Fenghua": [{"Name": "Fenghua", "Country Code": "CN", "Population": 76653.0, "Lat": 29.65628, "Lon": 121.4064}], "Fenghuang": [{"Name": "Fenghuang", "Country Code": "CN", "Population": 0.0, "Lat": 38.9978, "Lon": 112.29779}, {"Name": "Fenghuang", "Country Code": "CN", "Population": 14574.0, "Lat": 31.40168, "Lon": 109.51377}, {"Name": "Fenghuang", "Country Code": "CN", "Population": 0.0, "Lat": 37.61559, "Lon": 114.91641}, {"Name": "Fenghuang", "Country Code": "CN", "Population": 370000.0, "Lat": 27.93557, "Lon": 109.59961}], "Fengjia": [{"Name": "Fengjia", "Country Code": "CN", "Population": 21810.0, "Lat": 29.39313, "Lon": 108.78459}], "Fengkou": [{"Name": "Fengkou", "Country Code": "CN", "Population": 67139.0, "Lat": 30.08268, "Lon": 113.33346}], "Fenglai": [{"Name": "Fenglai", "Country Code": "CN", "Population": 11036.0, "Lat": 29.39986, "Lon": 107.29652}], "Fengle": [{"Name": "Fengle", "Country Code": "CN", "Population": 19851.0, "Lat": 31.18975, "Lon": 108.41461}], "Fengling": [{"Name": "Fengling", "Country Code": "CN", "Population": 15517.0, "Lat": 31.3194, "Lon": 109.55474}], "Fenglu": [{"Name": "Fenglu", "Country Code": "CN", "Population": 0.0, "Lat": 24.67652, "Lon": 102.91129}], "Fengming": [{"Name": "Fengming", "Country Code": "CN", "Population": 0.0, "Lat": 34.44139, "Lon": 107.61778}], "Fengmu": [{"Name": "Fengmu", "Country Code": "CN", "Population": 9614.0, "Lat": 30.24712, "Lon": 108.48336}], "Fengning": [{"Name": "Fengning", "Country Code": "CN", "Population": 0.0, "Lat": 41.21079, "Lon": 116.64039}], "Fengolo": [{"Name": "Fengolo", "Country Code": "CI", "Population": 37165.0, "Lat": 6.78634, "Lon": -7.39338}, {"Name": "Fengolo", "Country Code": "CI", "Population": 3198.0, "Lat": 9.92572, "Lon": -6.90525}], "Fengping": [{"Name": "Fengping", "Country Code": "CN", "Population": 15497.0, "Lat": 30.83481, "Lon": 109.50499}, {"Name": "Fengping", "Country Code": "CN", "Population": 69586.0, "Lat": 24.39735, "Lon": 98.5177}], "Fengpu": [{"Name": "Fengpu", "Country Code": "CN", "Population": 3560.0, "Lat": 26.68276, "Lon": 118.76006}], "Fengqiu Chengguanzhen": [{"Name": "Fengqiu Chengguanzhen", "Country Code": "CN", "Population": 0.0, "Lat": 35.02917, "Lon": 114.41306}], "Fengrun": [{"Name": "Fengrun", "Country Code": "CN", "Population": 65150.0, "Lat": 39.83333, "Lon": 118.11667}], "Fengshan": [{"Name": "Fengshan", "Country Code": "CN", "Population": 0.0, "Lat": 30.88712, "Lon": 115.42091}, {"Name": "Fengshan", "Country Code": "CN", "Population": 0.0, "Lat": 26.48556, "Lon": 119.54917}, {"Name": "Fengshan", "Country Code": "CN", "Population": 0.0, "Lat": 24.58333, "Lon": 99.9}, {"Name": "Fengshan", "Country Code": "CN", "Population": 0.0, "Lat": 24.54971, "Lon": 107.03831}, {"Name": "Fengshan", "Country Code": "TW", "Population": 0.0, "Lat": 22.62659, "Lon": 120.36126}], "Fengsheng": [{"Name": "Fengsheng", "Country Code": "CN", "Population": 13649.0, "Lat": 29.53139, "Lon": 106.9325}], "Fengtai": [{"Name": "Fengtai", "Country Code": "CN", "Population": 7230.0, "Lat": 39.55806, "Lon": 117.74917}, {"Name": "Fengtai", "Country Code": "CN", "Population": 0.0, "Lat": 39.84757, "Lon": 116.27227}], "Fengtai Chengguanzhen": [{"Name": "Fengtai Chengguanzhen", "Country Code": "CN", "Population": 0.0, "Lat": 32.70825, "Lon": 116.72956}], "Fengwang": [{"Name": "Fengwang", "Country Code": "CN", "Population": 8540.0, "Lat": 34.63844, "Lon": 105.98864}], "Fengxiang": [{"Name": "Fengxiang", "Country Code": "CN", "Population": 0.0, "Lat": 34.52301, "Lon": 107.39127}, {"Name": "Fengxiang", "Country Code": "CN", "Population": 10665.0, "Lat": 32.90194, "Lon": 105.3113}], "Fengyan": [{"Name": "Fengyan", "Country Code": "CN", "Population": 6473.0, "Lat": 29.29736, "Lon": 107.15189}], "Fengyang Fuchengzhen": [{"Name": "Fengyang Fuchengzhen", "Country Code": "CN", "Population": 0.0, "Lat": 32.87969, "Lon": 117.54465}], "Fengyi": [{"Name": "Fengyi", "Country Code": "CN", "Population": 0.0, "Lat": 28.5537, "Lon": 107.439}, {"Name": "Fengyi", "Country Code": "CN", "Population": 61890.0, "Lat": 25.58399, "Lon": 100.31181}, {"Name": "Fengyi", "Country Code": "CN", "Population": 0.0, "Lat": 31.68412, "Lon": 103.85382}], "Fengyuan": [{"Name": "Fengyuan", "Country Code": "TW", "Population": 0.0, "Lat": 24.25, "Lon": 120.71694}], "Fengzhou": [{"Name": "Fengzhou", "Country Code": "CN", "Population": 6500.0, "Lat": 24.95762, "Lon": 118.53365}, {"Name": "Fengzhou", "Country Code": "CN", "Population": 0.0, "Lat": 36.84278, "Lon": 112.85417}], "Fenhe": [{"Name": "Fenhe", "Country Code": "CN", "Population": 32059.0, "Lat": 31.13723, "Lon": 109.52206}], "Feni": [{"Name": "Feni", "Country Code": "BD", "Population": 84028.0, "Lat": 23.0144, "Lon": 91.3966}, {"Name": "F\u00e9ni", "Country Code": "CI", "Population": 2789.0, "Lat": 10.53655, "Lon": -6.5793}], "Fenile": [{"Name": "Fenile", "Country Code": "IT", "Population": 1147.0, "Lat": 43.84126, "Lon": 12.96747}], "Fenis": [{"Name": "F\u00e9nis", "Country Code": "IT", "Population": 1667.0, "Lat": 45.73469, "Lon": 7.49544}], "Fennell Bay": [{"Name": "Fennell Bay", "Country Code": "AU", "Population": 1576.0, "Lat": -32.9922, "Lon": 151.60008}], "Fennimore": [{"Name": "Fennimore", "Country Code": "US", "Population": 2488.0, "Lat": 42.9836, "Lon": -90.6554}], "Fennpfuhl": [{"Name": "Fennpfuhl", "Country Code": "DE", "Population": 33751.0, "Lat": 52.52921, "Lon": 13.47267}], "Fennville": [{"Name": "Fennville", "Country Code": "US", "Population": 1400.0, "Lat": 42.59392, "Lon": -86.1017}], "Fenoarivo Atsinanana": [{"Name": "Fenoarivo Atsinanana", "Country Code": "MG", "Population": 44199.0, "Lat": -17.38095, "Lon": 49.40826}], "Fenoarivo Be": [{"Name": "Fenoarivo Be", "Country Code": "MG", "Population": 19605.0, "Lat": -18.43333, "Lon": 46.56667}], "Fenouillet": [{"Name": "Fenouillet", "Country Code": "FR", "Population": 4504.0, "Lat": 43.68041, "Lon": 1.392}], "Fenshui": [{"Name": "Fenshui", "Country Code": "CN", "Population": 60308.0, "Lat": 30.7197, "Lon": 108.08333}], "Fensmark": [{"Name": "Fensmark", "Country Code": "DK", "Population": 4203.0, "Lat": 55.27919, "Lon": 11.80382}], "Fenstanton": [{"Name": "Fenstanton", "Country Code": "GB", "Population": 2639.0, "Lat": 52.29903, "Lon": -0.06712}], "Fentange": [{"Name": "Fentange", "Country Code": "LU", "Population": 1302.0, "Lat": 49.56278, "Lon": 6.15389}], "Fenton": [{"Name": "Fenton", "Country Code": "US", "Population": 11442.0, "Lat": 42.79781, "Lon": -83.70495}, {"Name": "Fenton", "Country Code": "US", "Population": 4052.0, "Lat": 38.51311, "Lon": -90.43595}], "Fenwick": [{"Name": "Fenwick", "Country Code": "GB", "Population": 1070.0, "Lat": 55.65823, "Lon": -4.44342}, {"Name": "Fenwick", "Country Code": "GB", "Population": 0.0, "Lat": 53.63868, "Lon": -1.0976}], "Fenyampleu": [{"Name": "F\u00e9nyampleu", "Country Code": "CI", "Population": 2205.0, "Lat": 7.4477, "Lon": -7.40114}], "Fenyeslitke": [{"Name": "F\u00e9nyeslitke", "Country Code": "HU", "Population": 2425.0, "Lat": 48.27133, "Lon": 22.10009}], "Fenyi": [{"Name": "Fenyi", "Country Code": "CN", "Population": 58478.0, "Lat": 27.81117, "Lon": 114.66805}], "Feodosiya": [{"Name": "Feodosiya", "Country Code": "UA", "Population": 68562.0, "Lat": 45.03199, "Lon": 35.38153}], "Ferantera": [{"Name": "F\u00e9rant\u00e9ra", "Country Code": "CI", "Population": 1147.0, "Lat": 8.23894, "Lon": -7.79945}], "Feraoun": [{"Name": "Feraoun", "Country Code": "DZ", "Population": 21700.0, "Lat": 36.56041, "Lon": 4.85454}], "Ferapontovo": [{"Name": "Ferapontovo", "Country Code": "RU", "Population": 4000.0, "Lat": 59.95425, "Lon": 38.56745}], "Ferbane": [{"Name": "Ferbane", "Country Code": "IE", "Population": 1165.0, "Lat": 53.26944, "Lon": -7.82694}], "Ferdinand": [{"Name": "Ferdinand", "Country Code": "US", "Population": 2200.0, "Lat": 38.22394, "Lon": -86.86222}], "Ferdinandovac": [{"Name": "Ferdinandovac", "Country Code": "HR", "Population": 1352.0, "Lat": 46.06054, "Lon": 17.19187}], "Ferdinandshof": [{"Name": "Ferdinandshof", "Country Code": "DE", "Population": 3165.0, "Lat": 53.66124, "Lon": 13.88724}], "Ferdows": [{"Name": "Ferdows", "Country Code": "IR", "Population": 0.0, "Lat": 34.0185, "Lon": 58.17222}], "Fere-Champenoise": [{"Name": "F\u00e8re-Champenoise", "Country Code": "FR", "Population": 2339.0, "Lat": 48.75431, "Lon": 3.99069}], "Fere-en-Tardenois": [{"Name": "F\u00e8re-en-Tardenois", "Country Code": "FR", "Population": 3370.0, "Lat": 49.2, "Lon": 3.51667}], "Feredougou": [{"Name": "F\u00e9r\u00e9dougou", "Country Code": "CI", "Population": 1387.0, "Lat": 9.84178, "Lon": -7.74046}], "Ferefougoula": [{"Name": "F\u00e9r\u00e9fougoula", "Country Code": "CI", "Population": 1573.0, "Lat": 9.28537, "Lon": -7.72973}], "Ferel": [{"Name": "F\u00e9rel", "Country Code": "FR", "Population": 2189.0, "Lat": 47.48195, "Lon": -2.34382}], "Feremandougou": [{"Name": "F\u00e9r\u00e9mandougou", "Country Code": "CI", "Population": 1625.0, "Lat": 8.95805, "Lon": -7.57167}], "Ferenbalm": [{"Name": "Ferenbalm", "Country Code": "CH", "Population": 1310.0, "Lat": 46.9488, "Lon": 7.21124}], "Ferentillo": [{"Name": "Ferentillo", "Country Code": "IT", "Population": 1272.0, "Lat": 42.62027, "Lon": 12.78726}], "Ferentino": [{"Name": "Ferentino", "Country Code": "IT", "Population": 12539.0, "Lat": 41.69119, "Lon": 13.2562}], "Feres": [{"Name": "F\u00e9res", "Country Code": "GR", "Population": 5403.0, "Lat": 40.89305, "Lon": 26.17234}], "Feresti": [{"Name": "Fere\u0219ti", "Country Code": "RO", "Population": 2151.0, "Lat": 46.78179, "Lon": 27.70093}], "Ferestrau-Oituz": [{"Name": "Ferestr\u0103u-Oituz", "Country Code": "RO", "Population": 1036.0, "Lat": 46.20249, "Lon": 26.57629}], "Fereydun Kenar": [{"Name": "Fereyd\u016bn Ken\u0101r", "Country Code": "IR", "Population": 34097.0, "Lat": 36.68489, "Lon": 52.51917}], "Fereydunshahr": [{"Name": "Fereyd\u016bnshahr", "Country Code": "IR", "Population": 11562.0, "Lat": 32.94195, "Lon": 50.11991}], "Ferez": [{"Name": "F\u00e9rez", "Country Code": "ES", "Population": 804.0, "Lat": 38.35, "Lon": -2.0}], "Fergana": [{"Name": "Fergana", "Country Code": "UZ", "Population": 299200.0, "Lat": 40.38421, "Lon": 71.78432}], "Fergus": [{"Name": "Fergus", "Country Code": "CA", "Population": 20767.0, "Lat": 43.70604, "Lon": -80.37761}], "Fergus Falls": [{"Name": "Fergus Falls", "Country Code": "US", "Population": 13281.0, "Lat": 46.28302, "Lon": -96.07756}], "Ferguson": [{"Name": "Ferguson", "Country Code": "US", "Population": 21059.0, "Lat": 38.74422, "Lon": -90.30539}], "Feria": [{"Name": "Feria", "Country Code": "ES", "Population": 1383.0, "Lat": 38.51151, "Lon": -6.56416}], "Fericanci": [{"Name": "Feri\u010danci", "Country Code": "HR", "Population": 1332.0, "Lat": 45.52889, "Lon": 17.97583}], "Ferin": [{"Name": "F\u00e9rin", "Country Code": "FR", "Population": 1390.0, "Lat": 50.32732, "Lon": 3.07415}], "Ferizaj": [{"Name": "Ferizaj", "Country Code": "XK", "Population": 59504.0, "Lat": 42.37056, "Lon": 21.15528}], "Ferizli": [{"Name": "Ferizli", "Country Code": "TR", "Population": 23740.0, "Lat": 40.94082, "Lon": 30.48583}], "Ferkessedougou": [{"Name": "Ferkess\u00e9dougou", "Country Code": "CI", "Population": 72476.0, "Lat": 9.5928, "Lon": -5.19449}], "Ferla": [{"Name": "Ferla", "Country Code": "IT", "Population": 2488.0, "Lat": 37.11978, "Lon": 14.93881}], "Ferlach": [{"Name": "Ferlach", "Country Code": "AT", "Population": 4342.0, "Lat": 46.52694, "Lon": 14.30194}], "Ferma": [{"Name": "Ferma", "Country Code": "RU", "Population": 3402.0, "Lat": 57.9016, "Lon": 56.3064}], "Fermanville": [{"Name": "Fermanville", "Country Code": "FR", "Population": 1451.0, "Lat": 49.68673, "Lon": -1.46284}], "Ferme-Neuve": [{"Name": "Ferme-Neuve", "Country Code": "CA", "Population": 2115.0, "Lat": 46.70011, "Lon": -75.44929}], "Fermignano": [{"Name": "Fermignano", "Country Code": "IT", "Population": 7309.0, "Lat": 43.69311, "Lon": 12.65437}], "Fermin Rabadan Cervantes": [{"Name": "Ferm\u00edn Rabad\u00e1n Cervantes", "Country Code": "MX", "Population": 1459.0, "Lat": 18.31528, "Lon": -99.56722}], "Fermo": [{"Name": "Fermo", "Country Code": "IT", "Population": 18109.0, "Lat": 43.16296, "Lon": 13.72274}], "Fermont": [{"Name": "Fermont", "Country Code": "CA", "Population": 2966.0, "Lat": 52.79445, "Lon": -67.08378}], "Fermoselle": [{"Name": "Fermoselle", "Country Code": "ES", "Population": 1538.0, "Lat": 41.31738, "Lon": -6.39584}], "Fermoy": [{"Name": "Fermoy", "Country Code": "IE", "Population": 6585.0, "Lat": 52.13583, "Lon": -8.27583}], "Fern Acres": [{"Name": "Fern Acres", "Country Code": "US", "Population": 1504.0, "Lat": 19.51222, "Lon": -155.08028}], "Fern Bay": [{"Name": "Fern Bay", "Country Code": "AU", "Population": 2650.0, "Lat": -32.86428, "Lon": 151.81307}], "Fern Creek": [{"Name": "Fern Creek", "Country Code": "US", "Population": 18409.0, "Lat": 38.15979, "Lon": -85.58774}], "Fern Hill": [{"Name": "Fern Hill", "Country Code": "AU", "Population": 1011.0, "Lat": -34.38294, "Lon": 150.88567}], "Fern Park": [{"Name": "Fern Park", "Country Code": "US", "Population": 7704.0, "Lat": 28.64916, "Lon": -81.35118}], "Fern Prairie": [{"Name": "Fern Prairie", "Country Code": "US", "Population": 1884.0, "Lat": 45.63651, "Lon": -122.3987}], "Fernan-Nunez": [{"Name": "Fern\u00e1n-N\u00fa\u00f1ez", "Country Code": "ES", "Population": 9374.0, "Lat": 37.67044, "Lon": -4.7264}], "Fernana": [{"Name": "Fernana", "Country Code": "TN", "Population": 4681.0, "Lat": 36.65547, "Lon": 8.69602}], "Fernandez": [{"Name": "Fern\u00e1ndez", "Country Code": "AR", "Population": 0.0, "Lat": -27.92532, "Lon": -63.89459}], "Fernandina Beach": [{"Name": "Fernandina Beach", "Country Code": "US", "Population": 12339.0, "Lat": 30.66968, "Lon": -81.46259}], "Fernando de Noronha (Distrito Estadual)": [{"Name": "Fernando de Noronha (Distrito Estadual)", "Country Code": "BR", "Population": 3012.0, "Lat": -3.84028, "Lon": -32.41083}], "Fernando de la Mora": [{"Name": "Fernando de la Mora", "Country Code": "PY", "Population": 120167.0, "Lat": -25.3386, "Lon": -57.52167}], "Fernandopolis": [{"Name": "Fernand\u00f3polis", "Country Code": "BR", "Population": 61931.0, "Lat": -20.28389, "Lon": -50.24639}], "Ferndale": [{"Name": "Ferndale", "Country Code": "AU", "Population": 4195.0, "Lat": -32.03494, "Lon": 115.92233}, {"Name": "Ferndale", "Country Code": "GB", "Population": 7338.0, "Lat": 51.66056, "Lon": -3.4475}, {"Name": "Ferndale", "Country Code": "US", "Population": 20177.0, "Lat": 42.46059, "Lon": -83.13465}, {"Name": "Ferndale", "Country Code": "US", "Population": 13010.0, "Lat": 48.8465, "Lon": -122.59101}, {"Name": "Ferndale", "Country Code": "US", "Population": 1369.0, "Lat": 40.57624, "Lon": -124.26394}, {"Name": "Ferndale", "Country Code": "US", "Population": 16746.0, "Lat": 39.18316, "Lon": -76.64024}, {"Name": "Ferndale", "Country Code": "US", "Population": 1558.0, "Lat": 40.28896, "Lon": -78.91475}], "Ferndorf": [{"Name": "Ferndorf", "Country Code": "AT", "Population": 651.0, "Lat": 46.73651, "Lon": 13.62661}], "Ferndown": [{"Name": "Ferndown", "Country Code": "GB", "Population": 17650.0, "Lat": 50.80743, "Lon": -1.89975}], "Ferney-Voltaire": [{"Name": "Ferney-Voltaire", "Country Code": "FR", "Population": 7742.0, "Lat": 46.25858, "Lon": 6.11063}], "Fernhill Heath": [{"Name": "Fernhill Heath", "Country Code": "GB", "Population": 3256.0, "Lat": 52.23002, "Lon": -2.19659}], "Fernhurst": [{"Name": "Fernhurst", "Country Code": "GB", "Population": 2106.0, "Lat": 51.04873, "Lon": -0.71789}], "Fernie": [{"Name": "Fernie", "Country Code": "CA", "Population": 5249.0, "Lat": 49.49996, "Lon": -115.06871}], "Fernitz": [{"Name": "Fernitz", "Country Code": "AT", "Population": 3119.0, "Lat": 46.97389, "Lon": 15.50111}], "Fernley": [{"Name": "Fernley", "Country Code": "US", "Population": 19418.0, "Lat": 39.60797, "Lon": -119.25183}], "Ferno": [{"Name": "Ferno", "Country Code": "IT", "Population": 6008.0, "Lat": 45.61496, "Lon": 8.75695}], "Ferns": [{"Name": "Ferns", "Country Code": "IE", "Population": 1415.0, "Lat": 52.58833, "Lon": -6.49972}], "Ferntree Gully": [{"Name": "Ferntree Gully", "Country Code": "AU", "Population": 27398.0, "Lat": -37.88461, "Lon": 145.29539}], "Fernvale": [{"Name": "Fernvale", "Country Code": "AU", "Population": 3213.0, "Lat": -27.45475, "Lon": 152.65321}], "Fernway": [{"Name": "Fernway", "Country Code": "US", "Population": 12414.0, "Lat": 40.69479, "Lon": -80.13089}], "Ferny Creek": [{"Name": "Ferny Creek", "Country Code": "AU", "Population": 1486.0, "Lat": -37.88333, "Lon": 145.33333}], "Ferny Grove": [{"Name": "Ferny Grove", "Country Code": "AU", "Population": 5677.0, "Lat": -27.4008, "Lon": 152.93475}], "Ferny Hills": [{"Name": "Ferny Hills", "Country Code": "AU", "Population": 8563.0, "Lat": -27.39594, "Lon": 152.93737}], "Ferokh": [{"Name": "Ferokh", "Country Code": "IN", "Population": 30229.0, "Lat": 11.17989, "Lon": 75.84141}], "Feroleto Antico": [{"Name": "Feroleto Antico", "Country Code": "IT", "Population": 344.0, "Lat": 38.96239, "Lon": 16.3878}], "Feroleto della Chiesa": [{"Name": "Feroleto della Chiesa", "Country Code": "IT", "Population": 1709.0, "Lat": 38.46609, "Lon": 16.07012}], "Ferolles": [{"Name": "F\u00e9rolles", "Country Code": "FR", "Population": 1198.0, "Lat": 47.83475, "Lon": 2.11113}], "Ferolles-Attilly": [{"Name": "F\u00e9rolles-Attilly", "Country Code": "FR", "Population": 1129.0, "Lat": 48.73184, "Lon": 2.63088}], "Ferozepore": [{"Name": "Ferozepore", "Country Code": "IN", "Population": 102130.0, "Lat": 30.92574, "Lon": 74.61311}], "Ferques": [{"Name": "Ferques", "Country Code": "FR", "Population": 1834.0, "Lat": 50.83002, "Lon": 1.75994}], "Ferrada": [{"Name": "Ferrada", "Country Code": "IT", "Population": 621.0, "Lat": 44.42008, "Lon": 9.21016}], "Ferragudo": [{"Name": "Ferragudo", "Country Code": "PT", "Population": 1973.0, "Lat": 37.12474, "Lon": -8.51915}], "Ferrals-les-Corbieres": [{"Name": "Ferrals-les-Corbi\u00e8res", "Country Code": "FR", "Population": 1071.0, "Lat": 43.14766, "Lon": 2.72759}], "Ferrandina": [{"Name": "Ferrandina", "Country Code": "IT", "Population": 8718.0, "Lat": 40.50084, "Lon": 16.45258}], "Ferrara": [{"Name": "Ferrara", "Country Code": "IT", "Population": 132009.0, "Lat": 44.83804, "Lon": 11.62057}], "Ferrara di Monte Baldo": [{"Name": "Ferrara di Monte Baldo", "Country Code": "IT", "Population": 89.0, "Lat": 45.67408, "Lon": 10.85911}], "Ferraz de Vasconcelos": [{"Name": "Ferraz de Vasconcelos", "Country Code": "BR", "Population": 167900.0, "Lat": -23.54083, "Lon": -46.36861}], "Ferrazzano": [{"Name": "Ferrazzano", "Country Code": "IT", "Population": 638.0, "Lat": 41.53033, "Lon": 14.67223}], "Ferreira": [{"Name": "Ferreira", "Country Code": "ES", "Population": 336.0, "Lat": 37.17247, "Lon": -3.03539}, {"Name": "Ferreira", "Country Code": "PT", "Population": 4205.0, "Lat": 41.26718, "Lon": -8.34434}], "Ferreira do Alentejo": [{"Name": "Ferreira do Alentejo", "Country Code": "PT", "Population": 4689.0, "Lat": 38.05972, "Lon": -8.11408}], "Ferreira do Zezere": [{"Name": "Ferreira do Z\u00eazere", "Country Code": "PT", "Population": 0.0, "Lat": 39.69406, "Lon": -8.29213}], "Ferreiras": [{"Name": "Ferreiras", "Country Code": "PT", "Population": 5157.0, "Lat": 37.12926, "Lon": -8.23759}], "Ferreiros": [{"Name": "Ferreiros", "Country Code": "PT", "Population": 7870.0, "Lat": 41.35, "Lon": -8.55}, {"Name": "Ferreiros", "Country Code": "PT", "Population": 3212.0, "Lat": 41.631, "Lon": -8.36363}], "Ferrel": [{"Name": "Ferrel", "Country Code": "PT", "Population": 2649.0, "Lat": 39.36398, "Lon": -9.31541}], "Ferrenafe": [{"Name": "Ferre\u00f1afe", "Country Code": "PE", "Population": 34357.0, "Lat": -6.63889, "Lon": -79.78889}], "Ferrera Erbognone": [{"Name": "Ferrera Erbognone", "Country Code": "IT", "Population": 1039.0, "Lat": 45.11456, "Lon": 8.86454}], "Ferrera di Varese": [{"Name": "Ferrera di Varese", "Country Code": "IT", "Population": 586.0, "Lat": 45.93278, "Lon": 8.78913}], "Ferreras de Abajo": [{"Name": "Ferreras de Abajo", "Country Code": "ES", "Population": 618.0, "Lat": 41.89651, "Lon": -6.07904}], "Ferreras de Arriba": [{"Name": "Ferreras de Arriba", "Country Code": "ES", "Population": 513.0, "Lat": 41.89878, "Lon": -6.19461}], "Ferrere": [{"Name": "Ferrere", "Country Code": "IT", "Population": 507.0, "Lat": 44.87605, "Lon": 7.99421}], "Ferreries": [{"Name": "Ferreries", "Country Code": "ES", "Population": 4416.0, "Lat": 39.98324, "Lon": 4.01181}], "Ferreruela": [{"Name": "Ferreruela", "Country Code": "ES", "Population": 580.0, "Lat": 41.76673, "Lon": -6.07215}], "Ferreruela de Huerva": [{"Name": "Ferreruela de Huerva", "Country Code": "ES", "Population": 74.0, "Lat": 41.06325, "Lon": -1.2335}], "Ferrette": [{"Name": "Ferrette", "Country Code": "FR", "Population": 1047.0, "Lat": 47.49436, "Lon": 7.31372}], "Ferreyres": [{"Name": "Ferreyres", "Country Code": "CH", "Population": 0.0, "Lat": 46.65804, "Lon": 6.4852}], "Ferriday": [{"Name": "Ferriday", "Country Code": "US", "Population": 3375.0, "Lat": 31.63017, "Lon": -91.55456}], "Ferrier": [{"Name": "Ferrier", "Country Code": "HT", "Population": 3804.0, "Lat": 19.61549, "Lon": -71.77792}], "Ferriera": [{"Name": "Ferriera", "Country Code": "IT", "Population": 2860.0, "Lat": 45.08382, "Lon": 7.43017}], "Ferriere": [{"Name": "Ferriere", "Country Code": "IT", "Population": 314.0, "Lat": 44.64385, "Lon": 9.49657}, {"Name": "Ferriere", "Country Code": "IT", "Population": 73.0, "Lat": 44.44302, "Lon": 9.13675}], "Ferriere-la-Grande": [{"Name": "Ferri\u00e8re-la-Grande", "Country Code": "FR", "Population": 5834.0, "Lat": 50.25521, "Lon": 3.99288}], "Ferrieres": [{"Name": "Ferri\u00e8res", "Country Code": "BE", "Population": 4434.0, "Lat": 50.40157, "Lon": 5.61092}], "Ferrieres-en-Brie": [{"Name": "Ferri\u00e8res-en-Brie", "Country Code": "FR", "Population": 1810.0, "Lat": 48.82352, "Lon": 2.70664}], "Ferris": [{"Name": "Ferris", "Country Code": "US", "Population": 2534.0, "Lat": 32.53403, "Lon": -96.66555}], "Ferrisburgh": [{"Name": "Ferrisburgh", "Country Code": "US", "Population": 2764.0, "Lat": 44.20561, "Lon": -73.24623}], "Ferrol": [{"Name": "Ferrol", "Country Code": "ES", "Population": 74273.0, "Lat": 43.48451, "Lon": -8.23293}, {"Name": "Ferrol", "Country Code": "PH", "Population": 0.0, "Lat": 12.33833, "Lon": 121.94139}], "Ferron": [{"Name": "Ferron", "Country Code": "US", "Population": 1562.0, "Lat": 39.09358, "Lon": -111.13322}], "Ferrum": [{"Name": "Ferrum", "Country Code": "US", "Population": 2043.0, "Lat": 36.92292, "Lon": -80.01337}], "Ferruzzano": [{"Name": "Ferruzzano", "Country Code": "IT", "Population": 302.0, "Lat": 38.03699, "Lon": 16.08918}], "Ferry Pass": [{"Name": "Ferry Pass", "Country Code": "US", "Population": 28921.0, "Lat": 30.5102, "Lon": -87.21247}], "Ferrybridge": [{"Name": "Ferrybridge", "Country Code": "GB", "Population": 1491.0, "Lat": 53.71058, "Lon": -1.27948}], "Ferryden Park": [{"Name": "Ferryden Park", "Country Code": "AU", "Population": 4139.0, "Lat": -34.86616, "Lon": 138.5618}], "Ferryhill": [{"Name": "Ferryhill", "Country Code": "GB", "Population": 9805.0, "Lat": 54.68333, "Lon": -1.55}], "Ferrysburg": [{"Name": "Ferrysburg", "Country Code": "US", "Population": 2993.0, "Lat": 43.08446, "Lon": -86.22033}], "Ferschnitz": [{"Name": "Ferschnitz", "Country Code": "AT", "Population": 1770.0, "Lat": 48.09419, "Lon": 14.98454}], "Fershampenuaz": [{"Name": "Fershampenuaz", "Country Code": "RU", "Population": 4403.0, "Lat": 53.5202, "Lon": 59.8117}], "Fertod": [{"Name": "Fert\u0151d", "Country Code": "HU", "Population": 3360.0, "Lat": 47.62173, "Lon": 16.87088}], "Fertorakos": [{"Name": "Fert\u0151r\u00e1kos", "Country Code": "HU", "Population": 2179.0, "Lat": 47.72017, "Lon": 16.6504}], "Fertoszentmiklos": [{"Name": "Fert\u0151szentmikl\u00f3s", "Country Code": "HU", "Population": 3877.0, "Lat": 47.58996, "Lon": 16.87517}], "Ferwert": [{"Name": "Ferwert", "Country Code": "NL", "Population": 1935.0, "Lat": 53.33784, "Lon": 5.82533}], "Ferzikovo": [{"Name": "Ferzikovo", "Country Code": "RU", "Population": 4344.0, "Lat": 54.51913, "Lon": 36.75671}], "Fes": [{"Name": "Fes", "Country Code": "MA", "Population": 1191905.0, "Lat": 34.03313, "Lon": -5.00028}], "Fes al Bali": [{"Name": "F\u00e8s al Bali", "Country Code": "MA", "Population": 156000.0, "Lat": 34.0701, "Lon": -4.95473}], "Fesches-le-Chatel": [{"Name": "Fesches-le-Ch\u00e2tel", "Country Code": "FR", "Population": 2245.0, "Lat": 47.52415, "Lon": 6.90535}], "Fessenden": [{"Name": "Fessenden", "Country Code": "US", "Population": 472.0, "Lat": 47.64917, "Lon": -99.62929}], "Fessenheim": [{"Name": "Fessenheim", "Country Code": "FR", "Population": 2219.0, "Lat": 47.91565, "Lon": 7.53499}], "Festac Town": [{"Name": "Festac Town", "Country Code": "NG", "Population": 0.0, "Lat": 6.4697, "Lon": 3.28299}], "Festubert": [{"Name": "Festubert", "Country Code": "FR", "Population": 1147.0, "Lat": 50.5425, "Lon": 2.73593}], "Festus": [{"Name": "Festus", "Country Code": "US", "Population": 12065.0, "Lat": 38.22061, "Lon": -90.39595}], "Fetcham": [{"Name": "Fetcham", "Country Code": "GB", "Population": 7996.0, "Lat": 51.28879, "Lon": -0.35582}], "Feteira": [{"Name": "Feteira", "Country Code": "PT", "Population": 1239.0, "Lat": 38.65429, "Lon": -27.14995}], "Feternes": [{"Name": "F\u00e9ternes", "Country Code": "FR", "Population": 1269.0, "Lat": 46.35582, "Lon": 6.54829}], "Fetesti": [{"Name": "Fete\u0219ti", "Country Code": "RO", "Population": 1232.0, "Lat": 47.40932, "Lon": 26.90885}, {"Name": "Fete\u015fti", "Country Code": "RO", "Population": 32866.0, "Lat": 44.38333, "Lon": 27.83333}], "Fetesti-Gara": [{"Name": "Fete\u0219ti-Gar\u0103", "Country Code": "RO", "Population": 23789.0, "Lat": 44.4196, "Lon": 27.82536}], "Fethard": [{"Name": "Fethard", "Country Code": "IE", "Population": 1545.0, "Lat": 52.46722, "Lon": -7.69111}], "Fethiye": [{"Name": "Fethiye", "Country Code": "TR", "Population": 60437.0, "Lat": 36.64038, "Lon": 29.12758}], "Fetsund": [{"Name": "Fetsund", "Country Code": "NO", "Population": 6441.0, "Lat": 59.92463, "Lon": 11.15711}], "Fetters Hot Springs-Agua Caliente": [{"Name": "Fetters Hot Springs-Agua Caliente", "Country Code": "US", "Population": 4144.0, "Lat": 38.3214, "Lon": -122.48682}], "Feucherolles": [{"Name": "Feucherolles", "Country Code": "FR", "Population": 2976.0, "Lat": 48.87002, "Lon": 1.97402}], "Feucht": [{"Name": "Feucht", "Country Code": "DE", "Population": 13482.0, "Lat": 49.37597, "Lon": 11.21433}], "Feuchtwangen": [{"Name": "Feuchtwangen", "Country Code": "DE", "Population": 12267.0, "Lat": 49.16287, "Lon": 10.3385}], "Feuchy": [{"Name": "Feuchy", "Country Code": "FR", "Population": 1184.0, "Lat": 50.29439, "Lon": 2.84335}], "Feuerthalen": [{"Name": "Feuerthalen", "Country Code": "CH", "Population": 2165.0, "Lat": 47.69054, "Lon": 8.64357}], "Feuquieres": [{"Name": "Feuqui\u00e8res", "Country Code": "FR", "Population": 1638.0, "Lat": 49.64677, "Lon": 1.84784}], "Feuquieres-en-Vimeu": [{"Name": "Feuqui\u00e8res-en-Vimeu", "Country Code": "FR", "Population": 2429.0, "Lat": 50.05982, "Lon": 1.60465}], "Feurs": [{"Name": "Feurs", "Country Code": "FR", "Population": 7901.0, "Lat": 45.73337, "Lon": 4.22755}], "Feusisberg": [{"Name": "Feusisberg", "Country Code": "CH", "Population": 4210.0, "Lat": 47.18707, "Lon": 8.74724}], "Fevik": [{"Name": "Fevik", "Country Code": "NO", "Population": 4989.0, "Lat": 58.3782, "Lon": 8.67601}], "Fevzipasa": [{"Name": "Fevzipa\u015fa", "Country Code": "TR", "Population": 0.0, "Lat": 37.09418, "Lon": 36.63719}], "Fexhe-Slins": [{"Name": "Fexhe-Slins", "Country Code": "BE", "Population": 2354.0, "Lat": 50.72026, "Lon": 5.56973}], "Fexhe-le-Haut-Clocher": [{"Name": "Fexhe-le-Haut-Clocher", "Country Code": "BE", "Population": 3082.0, "Lat": 50.6654, "Lon": 5.39978}], "Feytiat": [{"Name": "Feytiat", "Country Code": "FR", "Population": 5437.0, "Lat": 45.81004, "Lon": 1.33107}], "Feyzabad": [{"Name": "Fey\u1e95\u0101b\u0101d", "Country Code": "IR", "Population": 0.0, "Lat": 35.01891, "Lon": 58.78343}], "Feyzin": [{"Name": "Feyzin", "Country Code": "FR", "Population": 9539.0, "Lat": 45.67287, "Lon": 4.85894}], "Fezna": [{"Name": "Fezna", "Country Code": "MA", "Population": 0.0, "Lat": 31.52921, "Lon": -4.45562}], "Ffestiniog": [{"Name": "Ffestiniog", "Country Code": "GB", "Population": 0.0, "Lat": 52.95996, "Lon": -3.93242}], "Fgura": [{"Name": "Fgura", "Country Code": "MT", "Population": 12877.0, "Lat": 35.87028, "Lon": 14.51333}], "Fiaes": [{"Name": "Fi\u00e3es", "Country Code": "PT", "Population": 8708.0, "Lat": 40.99446, "Lon": -8.52537}], "Fiambala": [{"Name": "Fiambal\u00e1", "Country Code": "AR", "Population": 8061.0, "Lat": -27.67225, "Lon": -67.6187}], "Fiamignano": [{"Name": "Fiamignano", "Country Code": "IT", "Population": 184.0, "Lat": 42.26546, "Lon": 13.12413}], "Fiampleu": [{"Name": "Fiampleu", "Country Code": "CI", "Population": 2590.0, "Lat": 7.18241, "Lon": -8.0044}], "Fianarantsoa": [{"Name": "Fianarantsoa", "Country Code": "MG", "Population": 203105.0, "Lat": -21.45267, "Lon": 47.08569}], "Fianga": [{"Name": "Fianga", "Country Code": "TD", "Population": 31668.0, "Lat": 9.9146, "Lon": 15.1399}], "Fiano": [{"Name": "Fiano", "Country Code": "IT", "Population": 1894.0, "Lat": 45.21631, "Lon": 7.52603}], "Fiano Romano": [{"Name": "Fiano Romano", "Country Code": "IT", "Population": 11417.0, "Lat": 42.15538, "Lon": 12.59467}], "Fiasse": [{"Name": "Fiass\u00e9", "Country Code": "CI", "Population": 9005.0, "Lat": 6.16357, "Lon": -3.63625}], "Fiave": [{"Name": "Fiav\u00e8", "Country Code": "IT", "Population": 659.0, "Lat": 46.00457, "Lon": 10.84225}], "Fibis": [{"Name": "Fibi\u0219", "Country Code": "RO", "Population": 1630.0, "Lat": 45.9728, "Lon": 21.42355}], "Ficarazzi": [{"Name": "Ficarazzi", "Country Code": "IT", "Population": 11356.0, "Lat": 38.09229, "Lon": 13.4639}], "Ficarolo": [{"Name": "Ficarolo", "Country Code": "IT", "Population": 2007.0, "Lat": 44.95425, "Lon": 11.43662}], "Ficarra": [{"Name": "Ficarra", "Country Code": "IT", "Population": 793.0, "Lat": 38.10849, "Lon": 14.8299}], "Fiche": [{"Name": "Fich\u0113", "Country Code": "ET", "Population": 57100.0, "Lat": 9.8, "Lon": 38.73333}], "Fichtelberg": [{"Name": "Fichtelberg", "Country Code": "DE", "Population": 2111.0, "Lat": 50.00288, "Lon": 11.85425}], "Fichtenberg": [{"Name": "Fichtenberg", "Country Code": "DE", "Population": 2894.0, "Lat": 48.98601, "Lon": 9.71199}], "Fichtenwalde": [{"Name": "Fichtenwalde", "Country Code": "DE", "Population": 2874.0, "Lat": 52.28038, "Lon": 12.88349}], "Ficksburg": [{"Name": "Ficksburg", "Country Code": "ZA", "Population": 0.0, "Lat": -28.872, "Lon": 27.87506}], "Ficulle": [{"Name": "Ficulle", "Country Code": "IT", "Population": 848.0, "Lat": 42.83194, "Lon": 12.06801}], "Fidako": [{"Name": "Fidako", "Country Code": "GN", "Population": 0.0, "Lat": 12.10397, "Lon": -9.175}], "Fidenza": [{"Name": "Fidenza", "Country Code": "IT", "Population": 21952.0, "Lat": 44.86694, "Lon": 10.06039}], "Fiditi": [{"Name": "Fiditi", "Country Code": "NG", "Population": 71461.0, "Lat": 7.71393, "Lon": 3.91665}], "Fie Allo Sciliar": [{"Name": "Fi\u00e8 Allo Sciliar", "Country Code": "IT", "Population": 1316.0, "Lat": 46.51672, "Lon": 11.50128}], "Fieberbrunn": [{"Name": "Fieberbrunn", "Country Code": "AT", "Population": 4287.0, "Lat": 47.47626, "Lon": 12.54347}], "Fiecht": [{"Name": "Fiecht", "Country Code": "AT", "Population": 1076.0, "Lat": 47.35, "Lon": 11.7}], "Fiekon": [{"Name": "Fi\u00e9kon", "Country Code": "CI", "Population": 5396.0, "Lat": 7.09963, "Lon": -6.84547}], "Fieni": [{"Name": "Fieni", "Country Code": "RO", "Population": 7566.0, "Lat": 45.13333, "Lon": 25.41667}], "Fier": [{"Name": "Fier", "Country Code": "AL", "Population": 56297.0, "Lat": 40.72389, "Lon": 19.55611}], "Fier-Cifci": [{"Name": "Fier-\u00c7if\u00e7i", "Country Code": "AL", "Population": 60995.0, "Lat": 40.71667, "Lon": 19.56667}], "Fier-Shegan": [{"Name": "Fier-Shegan", "Country Code": "AL", "Population": 0.0, "Lat": 40.86722, "Lon": 19.78528}], "Fiera di Primiero": [{"Name": "Fiera di Primiero", "Country Code": "IT", "Population": 507.0, "Lat": 46.17621, "Lon": 11.82879}], "Fierbinti": [{"Name": "Fierbin\u021bi", "Country Code": "RO", "Population": 1755.0, "Lat": 44.50747, "Lon": 25.2876}], "Fierbinti-Targ": [{"Name": "Fierbin\u0163i-T\u00e2rg", "Country Code": "RO", "Population": 0.0, "Lat": 44.7, "Lon": 26.35}], "Fierbintii de Jos": [{"Name": "Fierbin\u021bii de Jos", "Country Code": "RO", "Population": 1408.0, "Lat": 44.69523, "Lon": 26.39629}], "Fierbintii de Sus": [{"Name": "Fierbin\u021bii de Sus", "Country Code": "RO", "Population": 2265.0, "Lat": 44.68988, "Lon": 26.396}], "Fierozzo": [{"Name": "Fierozzo", "Country Code": "IT", "Population": 441.0, "Lat": 46.11131, "Lon": 11.31848}], "Fierze": [{"Name": "Fierz\u00eb", "Country Code": "AL", "Population": 0.0, "Lat": 42.26056, "Lon": 20.01694}, {"Name": "Fierz\u00eb", "Country Code": "AL", "Population": 0.0, "Lat": 40.92056, "Lon": 19.84694}], "Fiesch": [{"Name": "Fiesch", "Country Code": "CH", "Population": 1003.0, "Lat": 46.39981, "Lon": 8.13533}], "Fiesco": [{"Name": "Fiesco", "Country Code": "IT", "Population": 1095.0, "Lat": 45.33737, "Lon": 9.77786}], "Fiesole": [{"Name": "Fiesole", "Country Code": "IT", "Population": 2725.0, "Lat": 43.80455, "Lon": 11.29487}], "Fiesse": [{"Name": "Fiesse", "Country Code": "IT", "Population": 1585.0, "Lat": 45.23207, "Lon": 10.32417}], "Fiesso": [{"Name": "Fiesso", "Country Code": "IT", "Population": 7372.0, "Lat": 45.41954, "Lon": 12.03378}], "Fiesso Umbertiano": [{"Name": "Fiesso Umbertiano", "Country Code": "IT", "Population": 3584.0, "Lat": 44.96072, "Lon": 11.60576}], "Fiesso d'Artico": [{"Name": "Fiesso d'Artico", "Country Code": "IT", "Population": 5779.0, "Lat": 45.42139, "Lon": 12.02944}], "Fife": [{"Name": "Fife", "Country Code": "US", "Population": 9970.0, "Lat": 47.23927, "Lon": -122.35707}], "Fife Heights": [{"Name": "Fife Heights", "Country Code": "US", "Population": 2137.0, "Lat": 47.25899, "Lon": -122.34568}], "Fifi": [{"Name": "Fifi", "Country Code": "MA", "Population": 0.0, "Lat": 34.94873, "Lon": -5.24798}], "Fifth Street": [{"Name": "Fifth Street", "Country Code": "US", "Population": 2486.0, "Lat": 29.59829, "Lon": -95.55133}], "Fig Tree": [{"Name": "Fig Tree", "Country Code": "KN", "Population": 2922.0, "Lat": 17.12623, "Lon": -62.60265}], "Fig Tree Pocket": [{"Name": "Fig Tree Pocket", "Country Code": "AU", "Population": 3963.0, "Lat": -27.52784, "Lon": 152.9619}], "Figanieres": [{"Name": "Figani\u00e8res", "Country Code": "FR", "Population": 2424.0, "Lat": 43.56882, "Lon": 6.49722}], "Figari": [{"Name": "Figari", "Country Code": "FR", "Population": 1438.0, "Lat": 41.48792, "Lon": 9.13013}], "Figaro": [{"Name": "Figar\u00f3", "Country Code": "ES", "Population": 1020.0, "Lat": 41.72122, "Lon": 2.27297}], "Figeac": [{"Name": "Figeac", "Country Code": "FR", "Population": 11491.0, "Lat": 44.60894, "Lon": 2.03155}], "Figino": [{"Name": "Figino", "Country Code": "IT", "Population": 1580.0, "Lat": 45.49261, "Lon": 9.07779}], "Figino Serenza": [{"Name": "Figino Serenza", "Country Code": "IT", "Population": 4610.0, "Lat": 45.71048, "Lon": 9.13114}], "Figliaro": [{"Name": "Figliaro", "Country Code": "IT", "Population": 1452.0, "Lat": 45.77992, "Lon": 8.94466}], "Figline Valdarno": [{"Name": "Figline Valdarno", "Country Code": "IT", "Population": 13287.0, "Lat": 43.61995, "Lon": 11.47191}], "Figline Vegliaturo": [{"Name": "Figline Vegliaturo", "Country Code": "IT", "Population": 895.0, "Lat": 39.22519, "Lon": 16.3303}], "Figtree": [{"Name": "Figtree", "Country Code": "AU", "Population": 11376.0, "Lat": -34.43556, "Lon": 150.85833}], "Figueira da Foz": [{"Name": "Figueira da Foz", "Country Code": "PT", "Population": 46600.0, "Lat": 40.15085, "Lon": -8.86179}], "Figueira de Castelo Rodrigo": [{"Name": "Figueira de Castelo Rodrigo", "Country Code": "PT", "Population": 0.0, "Lat": 40.89262, "Lon": -6.9635}], "Figueiro": [{"Name": "Figueir\u00f3", "Country Code": "PT", "Population": 4579.0, "Lat": 41.29922, "Lon": -8.16779}], "Figueiro dos Vinhos": [{"Name": "Figueir\u00f3 dos Vinhos", "Country Code": "PT", "Population": 1550.0, "Lat": 39.90413, "Lon": -8.27511}], "Figueres": [{"Name": "Figueres", "Country Code": "ES", "Population": 43330.0, "Lat": 42.26645, "Lon": 2.96163}], "Figueroles": [{"Name": "Figueroles", "Country Code": "ES", "Population": 545.0, "Lat": 40.11667, "Lon": -0.23333}], "Figueruela de Arriba": [{"Name": "Figueruela de Arriba", "Country Code": "ES", "Population": 477.0, "Lat": 41.86867, "Lon": -6.44454}], "Figueruelas": [{"Name": "Figueruelas", "Country Code": "ES", "Population": 1135.0, "Lat": 41.76651, "Lon": -1.17473}], "Figuig (Centre)": [{"Name": "Figuig (Centre)", "Country Code": "MA", "Population": 12516.0, "Lat": 32.10891, "Lon": -1.22855}], "Figuil": [{"Name": "Figuil", "Country Code": "CM", "Population": 31550.0, "Lat": 9.75574, "Lon": 13.9647}], "Figuira-Toma": [{"Name": "Figuira-Toma", "Country Code": "ML", "Population": 0.0, "Lat": 11.91667, "Lon": -8.36667}], "Fijnaart": [{"Name": "Fijnaart", "Country Code": "NL", "Population": 4855.0, "Lat": 51.6375, "Lon": 4.46944}], "Fika": [{"Name": "Fika", "Country Code": "NG", "Population": 0.0, "Lat": 11.28674, "Lon": 11.30772}], "Fiki": [{"Name": "F\u00edki", "Country Code": "GR", "Population": 1098.0, "Lat": 39.51602, "Lon": 21.65556}], "Fila Faraba": [{"Name": "Fila Faraba", "Country Code": "CI", "Population": 1077.0, "Lat": 8.91806, "Lon": -6.3175}], "Filabusi": [{"Name": "Filabusi", "Country Code": "ZW", "Population": 1756.0, "Lat": -20.53333, "Lon": 29.28502}], "Filacciano": [{"Name": "Filacciano", "Country Code": "IT", "Population": 490.0, "Lat": 42.25445, "Lon": 12.5988}], "Filadelfia": [{"Name": "Filadelfia", "Country Code": "CO", "Population": 9630.0, "Lat": 5.29606, "Lon": -75.5612}, {"Name": "Filadelfia", "Country Code": "IT", "Population": 2644.0, "Lat": 38.78468, "Lon": 16.292}, {"Name": "Filadelfia", "Country Code": "PY", "Population": 19927.0, "Lat": -22.33936, "Lon": -60.03157}], "Filago": [{"Name": "Filago", "Country Code": "IT", "Population": 2575.0, "Lat": 45.63758, "Lon": 9.55635}], "Filakit": [{"Name": "Filakit", "Country Code": "ET", "Population": 26500.0, "Lat": 11.66667, "Lon": 38.8}], "Filakovo": [{"Name": "Fi\u013eakovo", "Country Code": "SK", "Population": 10198.0, "Lat": 48.26757, "Lon": 19.82473}], "Filandari": [{"Name": "Filandari", "Country Code": "IT", "Population": 307.0, "Lat": 38.61508, "Lon": 16.0314}], "Filandia": [{"Name": "Filandia", "Country Code": "CO", "Population": 6851.0, "Lat": 4.67472, "Lon": -75.65833}], "Filasso": [{"Name": "Filasso", "Country Code": "CI", "Population": 1345.0, "Lat": 8.38209, "Lon": -6.13309}], "Filatovka": [{"Name": "Filatovka", "Country Code": "UA", "Population": 516.0, "Lat": 46.08192, "Lon": 33.7851}], "Filattiera": [{"Name": "Filattiera", "Country Code": "IT", "Population": 830.0, "Lat": 44.33005, "Lon": 9.93308}], "Filderstadt": [{"Name": "Filderstadt", "Country Code": "DE", "Population": 43550.0, "Lat": 48.65698, "Lon": 9.22049}], "Fildu de Jos": [{"Name": "Fildu de Jos", "Country Code": "RO", "Population": 1441.0, "Lat": 46.93333, "Lon": 23.06667}], "Filer": [{"Name": "Filer", "Country Code": "US", "Population": 2691.0, "Lat": 42.57019, "Lon": -114.60782}], "Filettino": [{"Name": "Filettino", "Country Code": "IT", "Population": 516.0, "Lat": 41.89131, "Lon": 13.32531}], "Filetto": [{"Name": "Filetto", "Country Code": "IT", "Population": 537.0, "Lat": 42.22931, "Lon": 14.24501}], "Filettole": [{"Name": "Filettole", "Country Code": "IT", "Population": 1382.0, "Lat": 43.81307, "Lon": 10.40239}], "Filey": [{"Name": "Filey", "Country Code": "GB", "Population": 6530.0, "Lat": 54.21, "Lon": -0.28917}], "Fili": [{"Name": "Fili", "Country Code": "RU", "Population": 80000.0, "Lat": 55.74819, "Lon": 37.47969}], "Filia": [{"Name": "Filia", "Country Code": "RO", "Population": 1312.0, "Lat": 46.14409, "Lon": 25.6214}], "Filiano": [{"Name": "Filiano", "Country Code": "IT", "Population": 730.0, "Lat": 40.81042, "Lon": 15.70984}], "Filias": [{"Name": "Filia\u0219", "Country Code": "RO", "Population": 1111.0, "Lat": 46.27075, "Lon": 25.0212}], "Filiasi": [{"Name": "Filia\u015fi", "Country Code": "RO", "Population": 18995.0, "Lat": 44.55, "Lon": 23.51667}], "Filiates": [{"Name": "Fili\u00e1tes", "Country Code": "GR", "Population": 2129.0, "Lat": 39.60111, "Lon": 20.31194}], "Filiatra": [{"Name": "Filiatr\u00e1", "Country Code": "GR", "Population": 6970.0, "Lat": 37.15637, "Lon": 21.58532}], "Filighera": [{"Name": "Filighera", "Country Code": "IT", "Population": 775.0, "Lat": 45.17496, "Lon": 9.31646}], "Filignano": [{"Name": "Filignano", "Country Code": "IT", "Population": 209.0, "Lat": 41.54578, "Lon": 14.05757}], "Filimonki": [{"Name": "Filimonki", "Country Code": "RU", "Population": 1329.0, "Lat": 55.55794, "Lon": 37.34719}], "Filimonovo": [{"Name": "Filimonovo", "Country Code": "RU", "Population": 3127.0, "Lat": 56.20111, "Lon": 95.46111}], "Filingue": [{"Name": "Filingu\u00e9", "Country Code": "NE", "Population": 16544.0, "Lat": 14.3521, "Lon": 3.3168}], "Filioara": [{"Name": "Filioara", "Country Code": "RO", "Population": 1062.0, "Lat": 47.1604, "Lon": 26.2792}], "Filipeni": [{"Name": "Filipeni", "Country Code": "RO", "Population": 2441.0, "Lat": 46.53333, "Lon": 27.18333}], "Filipesti": [{"Name": "Filipe\u015fti", "Country Code": "RO", "Population": 4678.0, "Lat": 46.75, "Lon": 26.88333}], "Filipestii de Padure": [{"Name": "Filipe\u015ftii de P\u0103dure", "Country Code": "RO", "Population": 10169.0, "Lat": 45.0, "Lon": 25.75}], "Filipestii de Targ": [{"Name": "Filipe\u015ftii de T\u00e2rg", "Country Code": "RO", "Population": 7794.0, "Lat": 44.98333, "Lon": 25.78333}], "Filipow": [{"Name": "Filip\u00f3w", "Country Code": "PL", "Population": 2234.0, "Lat": 54.18037, "Lon": 22.62076}], "Filipowice": [{"Name": "Filipowice", "Country Code": "PL", "Population": 2090.0, "Lat": 50.15573, "Lon": 19.56579}], "Filippiada": [{"Name": "Filippi\u00e1da", "Country Code": "GR", "Population": 4619.0, "Lat": 39.20472, "Lon": 20.88222}], "Filippovka": [{"Name": "Filippovka", "Country Code": "RU", "Population": 2020.0, "Lat": 57.4373, "Lon": 57.01934}], "Filipstad": [{"Name": "Filipstad", "Country Code": "SE", "Population": 6119.0, "Lat": 59.71236, "Lon": 14.16831}], "Filiro": [{"Name": "F\u00edliro", "Country Code": "GR", "Population": 5495.0, "Lat": 40.69151, "Lon": 23.0046}], "Filla": [{"Name": "F\u00edlla", "Country Code": "GR", "Population": 1459.0, "Lat": 38.44177, "Lon": 23.68306}], "Fillan": [{"Name": "Fillan", "Country Code": "NO", "Population": 510.0, "Lat": 63.60638, "Lon": 8.96961}], "Fille": [{"Name": "Fill\u00e9", "Country Code": "FR", "Population": 1135.0, "Lat": 47.89861, "Lon": 0.12502}], "Fillinges": [{"Name": "Fillinges", "Country Code": "FR", "Population": 2702.0, "Lat": 46.15944, "Lon": 6.34237}], "Fillmore": [{"Name": "Fillmore", "Country Code": "US", "Population": 15548.0, "Lat": 34.39916, "Lon": -118.91815}, {"Name": "Fillmore", "Country Code": "US", "Population": 2489.0, "Lat": 38.96885, "Lon": -112.32355}], "Fillyra": [{"Name": "Fill\u00fdra", "Country Code": "GR", "Population": 1041.0, "Lat": 41.11667, "Lon": 25.63333}], "Filogaso": [{"Name": "Filogaso", "Country Code": "IT", "Population": 1353.0, "Lat": 38.68287, "Lon": 16.22584}], "Filomeno Mata": [{"Name": "Filomeno Mata", "Country Code": "MX", "Population": 13304.0, "Lat": 20.20004, "Lon": -97.70392}], "Filotas": [{"Name": "Fil\u00f3tas", "Country Code": "GR", "Population": 1772.0, "Lat": 40.6252, "Lon": 21.70851}], "Filothei": [{"Name": "Filoth\u00e9i", "Country Code": "GR", "Population": 7302.0, "Lat": 38.02524, "Lon": 23.78257}], "Filotion": [{"Name": "Fil\u00f3tion", "Country Code": "GR", "Population": 1477.0, "Lat": 37.05167, "Lon": 25.49829}], "Filottrano": [{"Name": "Filottrano", "Country Code": "IT", "Population": 5637.0, "Lat": 43.43553, "Lon": 13.35141}], "Filsum": [{"Name": "Filsum", "Country Code": "DE", "Population": 2134.0, "Lat": 53.24213, "Lon": 7.62785}], "Filyos": [{"Name": "Filyos", "Country Code": "TR", "Population": 0.0, "Lat": 41.55383, "Lon": 32.02389}], "Filzmoos": [{"Name": "Filzmoos", "Country Code": "AT", "Population": 761.0, "Lat": 47.43333, "Lon": 13.51667}], "Fimber": [{"Name": "Fimber", "Country Code": "GB", "Population": 0.0, "Lat": 54.03495, "Lon": -0.63133}], "Finale": [{"Name": "Finale", "Country Code": "IT", "Population": 1792.0, "Lat": 38.01891, "Lon": 14.16151}], "Finale Emilia": [{"Name": "Finale Emilia", "Country Code": "IT", "Population": 9044.0, "Lat": 44.83373, "Lon": 11.29378}], "Finale Ligure": [{"Name": "Finale Ligure", "Country Code": "IT", "Population": 9495.0, "Lat": 44.16952, "Lon": 8.3436}], "Finana": [{"Name": "Fi\u00f1ana", "Country Code": "ES", "Population": 2413.0, "Lat": 37.1715, "Lon": -2.84011}], "Financial District": [{"Name": "Financial District", "Country Code": "US", "Population": 60976.0, "Lat": 40.70789, "Lon": -74.00857}], "Finca Blanco": [{"Name": "Finca Blanco", "Country Code": "PA", "Population": 1063.0, "Lat": 8.38263, "Lon": -82.87405}], "Fincastle": [{"Name": "Fincastle", "Country Code": "US", "Population": 1618.0, "Lat": 36.4098, "Lon": -84.0477}, {"Name": "Fincastle", "Country Code": "US", "Population": 341.0, "Lat": 37.4993, "Lon": -79.87726}], "Finchampstead": [{"Name": "Finchampstead", "Country Code": "GB", "Population": 1034.0, "Lat": 51.36149, "Lon": -0.85728}], "Finchley": [{"Name": "Finchley", "Country Code": "GB", "Population": 65812.0, "Lat": 51.60096, "Lon": -0.19518}], "Findern": [{"Name": "Findern", "Country Code": "GB", "Population": 1669.0, "Lat": 52.87037, "Lon": -1.54409}], "Finderne": [{"Name": "Finderne", "Country Code": "US", "Population": 5600.0, "Lat": 40.56316, "Lon": -74.57766}], "Findik": [{"Name": "F\u0131nd\u0131k", "Country Code": "TR", "Population": 0.0, "Lat": 37.51317, "Lon": 41.96418}], "Findikli": [{"Name": "F\u0131nd\u0131kl\u0131", "Country Code": "TR", "Population": 0.0, "Lat": 41.269, "Lon": 41.14002}], "Findimanou": [{"Name": "Findimanou", "Country Code": "CI", "Population": 5194.0, "Lat": 6.83153, "Lon": -4.08298}], "Findlay": [{"Name": "Findlay", "Country Code": "US", "Population": 41149.0, "Lat": 41.04422, "Lon": -83.64993}], "Findochty": [{"Name": "Findochty", "Country Code": "GB", "Population": 1180.0, "Lat": 57.69735, "Lon": -2.90104}], "Findon": [{"Name": "Findon", "Country Code": "AU", "Population": 6178.0, "Lat": -34.9, "Lon": 138.53333}, {"Name": "Findon", "Country Code": "GB", "Population": 1886.0, "Lat": 50.86816, "Lon": -0.40735}], "Finedon": [{"Name": "Finedon", "Country Code": "GB", "Population": 4309.0, "Lat": 52.33917, "Lon": -0.65008}], "Fines": [{"Name": "Fines", "Country Code": "ES", "Population": 1955.0, "Lat": 37.36074, "Lon": -2.2581}], "Finestrat": [{"Name": "Finestrat", "Country Code": "ES", "Population": 3908.0, "Lat": 38.56737, "Lon": -0.21235}], "Fingal Bay": [{"Name": "Fingal Bay", "Country Code": "AU", "Population": 1636.0, "Lat": -32.74969, "Lon": 152.17104}], "Finglas": [{"Name": "Finglas", "Country Code": "IE", "Population": 19768.0, "Lat": 53.38917, "Lon": -6.29694}], "Fingolo": [{"Name": "Fingolo", "Country Code": "CI", "Population": 1818.0, "Lat": 8.88836, "Lon": -6.74555}], "Finhan": [{"Name": "Finhan", "Country Code": "FR", "Population": 1005.0, "Lat": 43.91335, "Lon": 1.2212}], "Finike": [{"Name": "Finike", "Country Code": "TR", "Population": 9250.0, "Lat": 36.295, "Lon": 30.14056}], "Finiq": [{"Name": "Finiq", "Country Code": "AL", "Population": 0.0, "Lat": 39.90639, "Lon": 20.05833}], "Finis": [{"Name": "Fini\u015f", "Country Code": "RO", "Population": 3624.0, "Lat": 46.63333, "Lon": 22.31667}], "Finkenberg": [{"Name": "Finkenberg", "Country Code": "AT", "Population": 1221.0, "Lat": 47.15279, "Lon": 11.82212}], "Finkenstein": [{"Name": "Finkenstein", "Country Code": "AT", "Population": 1402.0, "Lat": 46.56155, "Lon": 13.87086}], "Finkenstein am Faaker See": [{"Name": "Finkenstein am Faaker See", "Country Code": "AT", "Population": 8406.0, "Lat": 46.56081, "Lon": 13.87115}], "Finley": [{"Name": "Finley", "Country Code": "AU", "Population": 2473.0, "Lat": -35.65498, "Lon": 145.57106}, {"Name": "Finley", "Country Code": "US", "Population": 437.0, "Lat": 47.51416, "Lon": -97.83593}, {"Name": "Finley", "Country Code": "US", "Population": 6012.0, "Lat": 46.15402, "Lon": -119.0339}], "Finlyandskiy": [{"Name": "Finlyandskiy", "Country Code": "RU", "Population": 72292.0, "Lat": 59.96824, "Lon": 30.36415}], "Finnentrop": [{"Name": "Finnentrop", "Country Code": "DE", "Population": 3575.0, "Lat": 51.1736, "Lon": 7.9664}], "Finneu": [{"Name": "Finneu", "Country Code": "CI", "Population": 2627.0, "Lat": 6.99749, "Lon": -8.15283}], "Finneytown": [{"Name": "Finneytown", "Country Code": "US", "Population": 12741.0, "Lat": 39.20034, "Lon": -84.5205}], "Finningen": [{"Name": "Finningen", "Country Code": "DE", "Population": 1681.0, "Lat": 48.65452, "Lon": 10.49864}], "Finningley": [{"Name": "Finningley", "Country Code": "GB", "Population": 3525.0, "Lat": 53.48696, "Lon": -0.99083}], "Finnsnes": [{"Name": "Finnsnes", "Country Code": "NO", "Population": 3907.0, "Lat": 69.22959, "Lon": 17.98114}], "Fino Mornasco": [{"Name": "Fino Mornasco", "Country Code": "IT", "Population": 8398.0, "Lat": 45.7429, "Lon": 9.04996}], "Fino del Monte": [{"Name": "Fino del Monte", "Country Code": "IT", "Population": 1127.0, "Lat": 45.89269, "Lon": 9.99406}], "Finote Selam": [{"Name": "Finote Selam", "Country Code": "ET", "Population": 58400.0, "Lat": 10.7, "Lon": 37.26667}], "Finschhafen": [{"Name": "Finschhafen", "Country Code": "PG", "Population": 1054.0, "Lat": -6.604, "Lon": 147.848}], "Finsing": [{"Name": "Finsing", "Country Code": "DE", "Population": 4068.0, "Lat": 48.21615, "Lon": 11.82412}], "Finspang": [{"Name": "Finsp\u00e5ng", "Country Code": "SE", "Population": 12807.0, "Lat": 58.70578, "Lon": 15.76739}], "Finsterbergen": [{"Name": "Finsterbergen", "Country Code": "DE", "Population": 1426.0, "Lat": 50.83464, "Lon": 10.58916}], "Finsterwalde": [{"Name": "Finsterwalde", "Country Code": "DE", "Population": 18922.0, "Lat": 51.63388, "Lon": 13.70662}], "Finstroem": [{"Name": "Finstr\u00f6m", "Country Code": "AX", "Population": 2412.0, "Lat": 60.26667, "Lon": 19.93333}], "Finta Mare": [{"Name": "Finta Mare", "Country Code": "RO", "Population": 4613.0, "Lat": 44.8, "Lon": 25.8}], "Fintel": [{"Name": "Fintel", "Country Code": "DE", "Population": 2975.0, "Lat": 53.17188, "Lon": 9.66969}], "Fintona": [{"Name": "Fintona", "Country Code": "GB", "Population": 1373.0, "Lat": 54.5, "Lon": -7.31667}], "Fioletovo": [{"Name": "Fioletovo", "Country Code": "AM", "Population": 1264.0, "Lat": 40.72241, "Lon": 44.71769}], "Fiorano": [{"Name": "Fiorano", "Country Code": "IT", "Population": 16278.0, "Lat": 44.53889, "Lon": 10.81166}], "Fiorano Canavese": [{"Name": "Fiorano Canavese", "Country Code": "IT", "Population": 828.0, "Lat": 45.46776, "Lon": 7.83372}], "Fiorano al Serio": [{"Name": "Fiorano al Serio", "Country Code": "IT", "Population": 3057.0, "Lat": 45.80018, "Lon": 9.84276}], "Fiorentino": [{"Name": "Fiorentino", "Country Code": "SM", "Population": 2510.0, "Lat": 43.91001, "Lon": 12.45738}], "Fiorenzuola d'Arda": [{"Name": "Fiorenzuola d'Arda", "Country Code": "IT", "Population": 13207.0, "Lat": 44.92435, "Lon": 9.91329}], "Fiq": [{"Name": "F\u012bq", "Country Code": "IL", "Population": 0.0, "Lat": 32.77935, "Lon": 35.70032}], "Fira": [{"Name": "Fir\u00e1", "Country Code": "GR", "Population": 2376.0, "Lat": 36.42107, "Lon": 25.43087}], "Firavitoba": [{"Name": "Firavitoba", "Country Code": "CO", "Population": 2136.0, "Lat": 5.66885, "Lon": -72.99289}], "Fircrest": [{"Name": "Fircrest", "Country Code": "US", "Population": 6687.0, "Lat": 47.23954, "Lon": -122.51596}], "Firebaugh": [{"Name": "Firebaugh", "Country Code": "US", "Population": 8330.0, "Lat": 36.85884, "Lon": -120.45601}], "Firenzuola": [{"Name": "Firenzuola", "Country Code": "IT", "Population": 1765.0, "Lat": 44.11968, "Lon": 11.38185}], "Firestone": [{"Name": "Firestone", "Country Code": "US", "Population": 11999.0, "Lat": 40.11248, "Lon": -104.93664}], "Firgas": [{"Name": "Firgas", "Country Code": "ES", "Population": 7106.0, "Lat": 28.10711, "Lon": -15.56299}], "Firhouse": [{"Name": "Firhouse", "Country Code": "IE", "Population": 6859.0, "Lat": 53.28167, "Lon": -6.33917}], "Firing Range": [{"Name": "Firing Range", "Country Code": "US", "Population": 2110.0, "Lat": 33.43752, "Lon": -82.69068}], "Firle": [{"Name": "Firle", "Country Code": "AU", "Population": 1404.0, "Lat": -34.90459, "Lon": 138.65319}], "Firlej": [{"Name": "Firlej", "Country Code": "PL", "Population": 1000.0, "Lat": 51.55882, "Lon": 22.50841}], "Firmat": [{"Name": "Firmat", "Country Code": "AR", "Population": 18294.0, "Lat": -33.45937, "Lon": -61.4832}], "Firmi": [{"Name": "Firmi", "Country Code": "FR", "Population": 2678.0, "Lat": 44.54106, "Lon": 2.30764}], "Firminopolis": [{"Name": "Firmin\u00f3polis", "Country Code": "BR", "Population": 9084.0, "Lat": -16.58194, "Lon": -50.305}], "Firminy": [{"Name": "Firminy", "Country Code": "FR", "Population": 17902.0, "Lat": 45.38956, "Lon": 4.2886}], "Firmo": [{"Name": "Firmo", "Country Code": "IT", "Population": 1982.0, "Lat": 39.72208, "Lon": 16.16344}], "Firovo": [{"Name": "Firovo", "Country Code": "RU", "Population": 2746.0, "Lat": 57.48135, "Lon": 33.70211}], "Firozabad": [{"Name": "F\u012broz\u0101b\u0101d", "Country Code": "IN", "Population": 306409.0, "Lat": 27.15092, "Lon": 78.39781}], "Firozpur Jhirka": [{"Name": "F\u012brozpur Jhirka", "Country Code": "IN", "Population": 20195.0, "Lat": 27.78853, "Lon": 76.94496}], "Firsanovka": [{"Name": "Firsanovka", "Country Code": "RU", "Population": 2824.0, "Lat": 55.95361, "Lon": 37.24083}], "First Mesa": [{"Name": "First Mesa", "Country Code": "US", "Population": 1555.0, "Lat": 35.83667, "Lon": -110.38152}], "Firthcliffe": [{"Name": "Firthcliffe", "Country Code": "US", "Population": 4949.0, "Lat": 41.43926, "Lon": -74.04514}], "Firuzabad": [{"Name": "F\u012br\u016bz\u0101b\u0101d", "Country Code": "IR", "Population": 66558.0, "Lat": 28.8438, "Lon": 52.5707}], "Firuzeh": [{"Name": "F\u012br\u016bzeh", "Country Code": "IR", "Population": 0.0, "Lat": 36.28639, "Lon": 58.58586}], "Firuzkuh": [{"Name": "F\u012br\u016bzk\u016bh", "Country Code": "IR", "Population": 0.0, "Lat": 35.75674, "Lon": 52.77062}], "Fisa": [{"Name": "Fisa", "Country Code": "CI", "Population": 1129.0, "Lat": 8.01226, "Lon": -3.14018}], "Fiscal": [{"Name": "Fiscal", "Country Code": "ES", "Population": 308.0, "Lat": 42.49561, "Lon": -0.12094}], "Fischach": [{"Name": "Fischach", "Country Code": "DE", "Population": 4733.0, "Lat": 48.29047, "Lon": 10.65592}], "Fischamend-Markt": [{"Name": "Fischamend-Markt", "Country Code": "AT", "Population": 4688.0, "Lat": 48.11667, "Lon": 16.6}], "Fischbach": [{"Name": "Fischbach", "Country Code": "AT", "Population": 873.0, "Lat": 47.44234, "Lon": 15.64972}, {"Name": "Fischbach", "Country Code": "DE", "Population": 1672.0, "Lat": 49.08771, "Lon": 7.7116}, {"Name": "Fischbach", "Country Code": "LU", "Population": 184.0, "Lat": 49.746, "Lon": 6.18702}], "Fischbachau": [{"Name": "Fischbachau", "Country Code": "DE", "Population": 5471.0, "Lat": 47.71952, "Lon": 11.95081}], "Fischeln": [{"Name": "Fischeln", "Country Code": "DE", "Population": 26030.0, "Lat": 51.30353, "Lon": 6.58836}], "Fischerbach": [{"Name": "Fischerbach", "Country Code": "DE", "Population": 1639.0, "Lat": 48.28687, "Lon": 8.10959}], "Fisching": [{"Name": "Fisching", "Country Code": "AT", "Population": 2033.0, "Lat": 48.22301, "Lon": 14.42771}], "Fischingen": [{"Name": "Fischingen", "Country Code": "CH", "Population": 2548.0, "Lat": 47.41422, "Lon": 8.96862}], "Fisciano": [{"Name": "Fisciano", "Country Code": "IT", "Population": 709.0, "Lat": 40.77175, "Lon": 14.79454}], "Fiser": [{"Name": "Fi\u0219er", "Country Code": "RO", "Population": 1228.0, "Lat": 46.07912, "Lon": 25.15103}], "Fish Hawk": [{"Name": "Fish Hawk", "Country Code": "US", "Population": 14087.0, "Lat": 27.85058, "Lon": -82.21092}], "Fish Lake": [{"Name": "Fish Lake", "Country Code": "US", "Population": 1016.0, "Lat": 41.56671, "Lon": -86.55196}], "Fish Town": [{"Name": "Fish Town", "Country Code": "LR", "Population": 5383.0, "Lat": 5.19739, "Lon": -7.87579}], "Fishbourne": [{"Name": "Fishbourne", "Country Code": "GB", "Population": 2325.0, "Lat": 50.83641, "Lon": -0.82088}], "Fishburn": [{"Name": "Fishburn", "Country Code": "GB", "Population": 2588.0, "Lat": 54.68296, "Lon": -1.43631}], "Fisher": [{"Name": "Fisher", "Country Code": "AU", "Population": 2873.0, "Lat": -35.36126, "Lon": 149.05704}, {"Name": "Fisher", "Country Code": "US", "Population": 1959.0, "Lat": 40.31476, "Lon": -88.35005}], "Fishers": [{"Name": "Fishers", "Country Code": "US", "Population": 76794.0, "Lat": 39.95559, "Lon": -86.01387}], "Fishersville": [{"Name": "Fishersville", "Country Code": "US", "Population": 7462.0, "Lat": 38.09902, "Lon": -78.96919}], "Fishguard": [{"Name": "Fishguard", "Country Code": "GB", "Population": 3419.0, "Lat": 51.99376, "Lon": -4.97631}], "Fishhook": [{"Name": "Fishhook", "Country Code": "US", "Population": 4679.0, "Lat": 61.74402, "Lon": -149.23613}], "Fishkill": [{"Name": "Fishkill", "Country Code": "US", "Population": 2133.0, "Lat": 41.53565, "Lon": -73.89903}], "Fishtoft": [{"Name": "Fishtoft", "Country Code": "GB", "Population": 1085.0, "Lat": 52.96095, "Lon": 0.02702}], "Fiska": [{"Name": "Fisk\u00e5", "Country Code": "NO", "Population": 0.0, "Lat": 62.10059, "Lon": 5.55788}], "Fiskdale": [{"Name": "Fiskdale", "Country Code": "US", "Population": 2583.0, "Lat": 42.11621, "Lon": -72.11341}], "Fisksaetra": [{"Name": "Fisks\u00e4tra", "Country Code": "SE", "Population": 8117.0, "Lat": 59.29153, "Lon": 18.2549}], "Fismes": [{"Name": "Fismes", "Country Code": "FR", "Population": 5395.0, "Lat": 49.30773, "Lon": 3.68607}], "Fiss": [{"Name": "Fiss", "Country Code": "AT", "Population": 1009.0, "Lat": 47.05714, "Lon": 10.61747}], "Fistantkraal": [{"Name": "Fistantkraal", "Country Code": "ZA", "Population": 14819.0, "Lat": -33.78545, "Lon": 18.71406}], "Fisterra": [{"Name": "Fisterra", "Country Code": "ES", "Population": 5005.0, "Lat": 42.90492, "Lon": -9.26289}], "Fitabro": [{"Name": "Fitabro", "Country Code": "CI", "Population": 1836.0, "Lat": 7.78987, "Lon": -5.49438}], "Fitchburg": [{"Name": "Fitchburg", "Country Code": "US", "Population": 27996.0, "Lat": 42.96083, "Lon": -89.46984}, {"Name": "Fitchburg", "Country Code": "US", "Population": 40545.0, "Lat": 42.58342, "Lon": -71.8023}], "Fitero": [{"Name": "Fitero", "Country Code": "ES", "Population": 2202.0, "Lat": 42.0577, "Lon": -1.85756}], "Fitii": [{"Name": "Fitii", "Country Code": "PF", "Population": 1154.0, "Lat": -16.73535, "Lon": -151.0327}], "Fitilieu": [{"Name": "Fitilieu", "Country Code": "FR", "Population": 1390.0, "Lat": 45.54744, "Lon": 5.56194}], "Fitionesti": [{"Name": "Fitione\u015fti", "Country Code": "RO", "Population": 2853.0, "Lat": 45.98333, "Lon": 27.05}], "Fitjar": [{"Name": "Fitjar", "Country Code": "NO", "Population": 1751.0, "Lat": 59.91803, "Lon": 5.31674}], "Fittja": [{"Name": "Fittja", "Country Code": "SE", "Population": 7500.0, "Lat": 59.24868, "Lon": 17.85991}], "Fitz-James": [{"Name": "Fitz-James", "Country Code": "FR", "Population": 2533.0, "Lat": 49.39113, "Lon": 2.4307}], "Fitzgerald": [{"Name": "Fitzgerald", "Country Code": "US", "Population": 9013.0, "Lat": 31.71491, "Lon": -83.25265}], "Fitzgibbon": [{"Name": "Fitzgibbon", "Country Code": "AU", "Population": 5572.0, "Lat": -27.33971, "Lon": 153.02921}], "Fitzroy": [{"Name": "Fitzroy", "Country Code": "AU", "Population": 10431.0, "Lat": -37.79839, "Lon": 144.97833}, {"Name": "Fitzroy", "Country Code": "NZ", "Population": 3504.0, "Lat": -39.05, "Lon": 174.1}], "Fitzroy Crossing": [{"Name": "Fitzroy Crossing", "Country Code": "AU", "Population": 1783.0, "Lat": -18.19714, "Lon": 125.56663}], "Fitzroy North": [{"Name": "Fitzroy North", "Country Code": "AU", "Population": 12781.0, "Lat": -37.78862, "Lon": 144.97885}], "Fitzwilliam": [{"Name": "Fitzwilliam", "Country Code": "GB", "Population": 4259.0, "Lat": 53.63288, "Lon": -1.3769}, {"Name": "Fitzwilliam", "Country Code": "US", "Population": 2280.0, "Lat": 42.78064, "Lon": -72.14175}], "Fiuggi": [{"Name": "Fiuggi", "Country Code": "IT", "Population": 9325.0, "Lat": 41.7978, "Lon": 13.22386}], "Fiumalbo-Dogana": [{"Name": "Fiumalbo-Dogana", "Country Code": "IT", "Population": 732.0, "Lat": 44.17925, "Lon": 10.6472}], "Fiumana": [{"Name": "Fiumana", "Country Code": "IT", "Population": 1647.0, "Lat": 44.14325, "Lon": 11.98719}], "Fiumara": [{"Name": "Fiumara", "Country Code": "IT", "Population": 1201.0, "Lat": 38.21267, "Lon": 15.69369}], "Fiume Veneto": [{"Name": "Fiume Veneto", "Country Code": "IT", "Population": 9313.0, "Lat": 45.92865, "Lon": 12.73811}], "Fiumedinisi": [{"Name": "Fiumedinisi", "Country Code": "IT", "Population": 1198.0, "Lat": 38.02596, "Lon": 15.38099}], "Fiumefreddo Bruzio": [{"Name": "Fiumefreddo Bruzio", "Country Code": "IT", "Population": 521.0, "Lat": 39.23568, "Lon": 16.07056}], "Fiumefreddo Sicilia": [{"Name": "Fiumefreddo Sicilia", "Country Code": "IT", "Population": 9483.0, "Lat": 37.79146, "Lon": 15.20919}], "Fiumicello": [{"Name": "Fiumicello", "Country Code": "IT", "Population": 4297.0, "Lat": 45.79202, "Lon": 13.40964}], "Fiumicino": [{"Name": "Fiumicino", "Country Code": "IT", "Population": 34556.0, "Lat": 41.77093, "Lon": 12.23662}], "Five Corners": [{"Name": "Five Corners", "Country Code": "US", "Population": 18159.0, "Lat": 45.68456, "Lon": -122.5751}], "Five Dock": [{"Name": "Five Dock", "Country Code": "AU", "Population": 9218.0, "Lat": -33.8674, "Lon": 151.12905}], "Five Forks": [{"Name": "Five Forks", "Country Code": "US", "Population": 14140.0, "Lat": 34.80484, "Lon": -82.22956}], "Five Oak Green": [{"Name": "Five Oak Green", "Country Code": "GB", "Population": 1540.0, "Lat": 51.18338, "Lon": 0.35517}], "Five Points": [{"Name": "Five Points", "Country Code": "US", "Population": 1824.0, "Lat": 39.56867, "Lon": -84.19299}, {"Name": "Five Points", "Country Code": "US", "Population": 1265.0, "Lat": 30.20912, "Lon": -82.63735}], "Fivemiletown": [{"Name": "Fivemiletown", "Country Code": "GB", "Population": 1109.0, "Lat": 54.38333, "Lon": -7.3}], "Fivepointville": [{"Name": "Fivepointville", "Country Code": "US", "Population": 1156.0, "Lat": 40.18287, "Lon": -76.05106}], "Fivizzano": [{"Name": "Fivizzano", "Country Code": "IT", "Population": 1323.0, "Lat": 44.23784, "Lon": 10.1265}], "Fizankoro": [{"Name": "Fizankoro", "Country Code": "CI", "Population": 4237.0, "Lat": 8.46361, "Lon": -6.19861}], "Fizanlouma": [{"Name": "Fizanlouma", "Country Code": "CI", "Population": 2197.0, "Lat": 8.03163, "Lon": -6.08507}], "Fizes": [{"Name": "Fize\u0219", "Country Code": "RO", "Population": 1072.0, "Lat": 45.36403, "Lon": 21.59517}], "Fizesu Gherlii": [{"Name": "Fize\u015fu Gherlii", "Country Code": "RO", "Population": 2614.0, "Lat": 47.01667, "Lon": 23.98333}], "Fizuli": [{"Name": "Fizuli", "Country Code": "AZ", "Population": 26765.0, "Lat": 39.60094, "Lon": 47.14529}], "Fizzonasco": [{"Name": "Fizzonasco", "Country Code": "IT", "Population": 3044.0, "Lat": 45.37241, "Lon": 9.19066}], "Fjaelkinge": [{"Name": "Fj\u00e4lkinge", "Country Code": "SE", "Population": 1832.0, "Lat": 56.04364, "Lon": 14.27562}], "Fjaeras kyrkby": [{"Name": "Fj\u00e4r\u00e5s kyrkby", "Country Code": "SE", "Population": 2385.0, "Lat": 57.45913, "Lon": 12.17508}], "Fjellfoten": [{"Name": "Fjellfoten", "Country Code": "NO", "Population": 1029.0, "Lat": 60.08967, "Lon": 11.47222}], "Fjerdingby": [{"Name": "Fjerdingby", "Country Code": "NO", "Population": 0.0, "Lat": 59.92626, "Lon": 11.06527}], "Fjerritslev": [{"Name": "Fjerritslev", "Country Code": "DK", "Population": 3326.0, "Lat": 57.08822, "Lon": 9.26622}], "Fjugesta": [{"Name": "Fjugesta", "Country Code": "SE", "Population": 2160.0, "Lat": 59.17375, "Lon": 14.87227}], "Fla": [{"Name": "Fl\u00e5", "Country Code": "NO", "Population": 0.0, "Lat": 60.43021, "Lon": 9.46197}], "Flabougou": [{"Name": "Flabougou", "Country Code": "CI", "Population": 1003.0, "Lat": 10.49723, "Lon": -6.46663}], "Flaca": [{"Name": "Fla\u00e7\u00e0", "Country Code": "ES", "Population": 0.0, "Lat": 42.06667, "Lon": 2.96667}], "Flachau": [{"Name": "Flachau", "Country Code": "AT", "Population": 827.0, "Lat": 47.34406, "Lon": 13.39148}], "Flachslanden": [{"Name": "Flachslanden", "Country Code": "DE", "Population": 2559.0, "Lat": 49.39845, "Lon": 10.51323}], "Flacht": [{"Name": "Flacht", "Country Code": "DE", "Population": 1189.0, "Lat": 50.34528, "Lon": 8.05028}], "Fladnitz im Raabtal": [{"Name": "Fladnitz im Raabtal", "Country Code": "AT", "Population": 765.0, "Lat": 46.99167, "Lon": 15.78528}], "Fladungen": [{"Name": "Fladungen", "Country Code": "DE", "Population": 2337.0, "Lat": 50.52054, "Lon": 10.14581}], "Flagami": [{"Name": "Flagami", "Country Code": "US", "Population": 50834.0, "Lat": 25.76232, "Lon": -80.31616}], "Flagler Beach": [{"Name": "Flagler Beach", "Country Code": "US", "Population": 4869.0, "Lat": 29.47498, "Lon": -81.127}], "Flagler Estates": [{"Name": "Flagler Estates", "Country Code": "US", "Population": 3215.0, "Lat": 29.64553, "Lon": -81.457}], "Flagstaff": [{"Name": "Flagstaff", "Country Code": "US", "Population": 70320.0, "Lat": 35.19807, "Lon": -111.65127}, {"Name": "Flagstaff", "Country Code": "ZA", "Population": 12280.0, "Lat": -31.08042, "Lon": 29.49522}], "Flagstaff Hill": [{"Name": "Flagstaff Hill", "Country Code": "AU", "Population": 9624.0, "Lat": -35.04861, "Lon": 138.58285}], "Flaibano": [{"Name": "Flaibano", "Country Code": "IT", "Population": 906.0, "Lat": 46.05837, "Lon": 12.98424}], "Flakiedougou": [{"Name": "Flaki\u00e8dougou", "Country Code": "CI", "Population": 15815.0, "Lat": 8.48273, "Lon": -3.1273}], "Flamanville": [{"Name": "Flamanville", "Country Code": "FR", "Population": 1722.0, "Lat": 49.53274, "Lon": -1.8656}], "Flamanzi": [{"Name": "Fl\u0103m\u00e2nzi", "Country Code": "RO", "Population": 0.0, "Lat": 47.55, "Lon": 26.86667}], "Flamatt": [{"Name": "Flamatt", "Country Code": "CH", "Population": 4922.0, "Lat": 46.88994, "Lon": 7.32204}], "Flamborough": [{"Name": "Flamborough", "Country Code": "GB", "Population": 1914.0, "Lat": 54.11696, "Lon": -0.12364}], "Flamierge": [{"Name": "Flamierge", "Country Code": "BE", "Population": 1202.0, "Lat": 50.03324, "Lon": 5.60294}], "Flammersfeld": [{"Name": "Flammersfeld", "Country Code": "DE", "Population": 1068.0, "Lat": 50.64711, "Lon": 7.52713}], "Flanagan": [{"Name": "Flanagan", "Country Code": "US", "Population": 1082.0, "Lat": 40.87809, "Lon": -88.86118}], "Flandapleu": [{"Name": "Flandapleu", "Country Code": "CI", "Population": 1810.0, "Lat": 7.11219, "Lon": -8.03611}], "Flanders": [{"Name": "Flanders", "Country Code": "US", "Population": 4472.0, "Lat": 40.90343, "Lon": -72.61759}], "Flandes": [{"Name": "Flandes", "Country Code": "CO", "Population": 29296.0, "Lat": 4.29005, "Lon": -74.81612}], "Flandreau": [{"Name": "Flandreau", "Country Code": "US", "Population": 2303.0, "Lat": 44.04942, "Lon": -96.59532}], "Flassans-sur-Issole": [{"Name": "Flassans-sur-Issole", "Country Code": "FR", "Population": 2681.0, "Lat": 43.36856, "Lon": 6.22154}], "Flat River": [{"Name": "Flat River", "Country Code": "US", "Population": 5157.0, "Lat": 37.85005, "Lon": -90.51679}], "Flat Rock": [{"Name": "Flat Rock", "Country Code": "US", "Population": 1556.0, "Lat": 36.51236, "Lon": -80.56978}, {"Name": "Flat Rock", "Country Code": "US", "Population": 3313.0, "Lat": 35.27123, "Lon": -82.44151},