{"Banatska Topola": [{"Name": "Banatska Topola", "Country Code": "RS", "Population": 1463.0, "Lat": 45.67248, "Lon": 20.4653}], "Banatski Despotovac": [{"Name": "Banatski Despotovac", "Country Code": "RS", "Population": 1993.0, "Lat": 45.36606, "Lon": 20.66407}], "Banatski Dvor": [{"Name": "Banatski Dvor", "Country Code": "RS", "Population": 1374.0, "Lat": 45.51866, "Lon": 20.51146}], "Banatski Karlovac": [{"Name": "Banatski Karlovac", "Country Code": "RS", "Population": 6319.0, "Lat": 45.04987, "Lon": 21.018}], "Banatsko Karagorgevo": [{"Name": "Banatsko Kara\u0111or\u0111evo", "Country Code": "RS", "Population": 2855.0, "Lat": 45.58693, "Lon": 20.56421}], "Banatsko Veliko Selo": [{"Name": "Banatsko Veliko Selo", "Country Code": "RS", "Population": 3332.0, "Lat": 45.81961, "Lon": 20.60772}], "Banaue": [{"Name": "Banaue", "Country Code": "PH", "Population": 2497.0, "Lat": 16.91356, "Lon": 121.06184}], "Banavar": [{"Name": "B\u0101n\u0101var", "Country Code": "IN", "Population": 7827.0, "Lat": 13.41029, "Lon": 76.16314}], "Banawa": [{"Name": "Banawa", "Country Code": "PH", "Population": 3060.0, "Lat": 7.15361, "Lon": 124.86667}], "Banawang": [{"Name": "Banawang", "Country Code": "PH", "Population": 2306.0, "Lat": 14.6121, "Lon": 120.39}], "Banaybanay": [{"Name": "Banaybanay", "Country Code": "PH", "Population": 0.0, "Lat": 6.96233, "Lon": 126.01717}, {"Name": "Banaybanay", "Country Code": "PH", "Population": 8304.0, "Lat": 13.9331, "Lon": 121.1151}], "Banayoyo": [{"Name": "Banayoyo", "Country Code": "PH", "Population": 0.0, "Lat": 17.23333, "Lon": 120.48333}], "Banaz": [{"Name": "Banaz", "Country Code": "TR", "Population": 17080.0, "Lat": 38.73707, "Lon": 29.75194}], "Banbalah": [{"Name": "Banbalah", "Country Code": "TN", "Population": 12367.0, "Lat": 35.7, "Lon": 10.8}], "Banbasa": [{"Name": "Banbasa", "Country Code": "IN", "Population": 7138.0, "Lat": 28.99132, "Lon": 80.07608}], "Banbridge": [{"Name": "Banbridge", "Country Code": "GB", "Population": 16173.0, "Lat": 54.35, "Lon": -6.28333}], "Banbury": [{"Name": "Banbury", "Country Code": "GB", "Population": 48651.0, "Lat": 52.0632, "Lon": -1.34222}], "Banbury-Don Mills": [{"Name": "Banbury-Don Mills", "Country Code": "CA", "Population": 27695.0, "Lat": 43.73766, "Lon": -79.34972}], "Banca": [{"Name": "Banca", "Country Code": "RO", "Population": 5600.0, "Lat": 46.3, "Lon": 27.8}], "Bancal": [{"Name": "Bancal", "Country Code": "PH", "Population": 4295.0, "Lat": 11.5591, "Lon": 123.1551}], "Bancali": [{"Name": "Bancali", "Country Code": "IT", "Population": 1345.0, "Lat": 40.73549, "Lon": 8.46328}], "Bancar": [{"Name": "Bancar", "Country Code": "ID", "Population": 0.0, "Lat": -6.7827, "Lon": 111.7808}], "Bancasi": [{"Name": "Bancasi", "Country Code": "PH", "Population": 3607.0, "Lat": 8.96667, "Lon": 125.46667}], "Banchette": [{"Name": "Banchette", "Country Code": "IT", "Population": 3273.0, "Lat": 45.45356, "Lon": 7.85632}], "Banchory": [{"Name": "Banchory", "Country Code": "GB", "Population": 7520.0, "Lat": 57.05168, "Lon": -2.48824}], "Banco Filipino Homes": [{"Name": "Banco Filipino Homes", "Country Code": "PH", "Population": 92752.0, "Lat": 14.43379, "Lon": 121.02231}], "Banco Nacional": [{"Name": "Banco Nacional", "Country Code": "MX", "Population": 1072.0, "Lat": 25.87139, "Lon": -103.35667}], "Bancroft": [{"Name": "Bancroft", "Country Code": "CA", "Population": 3838.0, "Lat": 45.05752, "Lon": -77.85702}], "Bancu": [{"Name": "Bancu", "Country Code": "RO", "Population": 1347.0, "Lat": 46.30291, "Lon": 25.94422}], "Band": [{"Name": "Band", "Country Code": "RO", "Population": 7599.0, "Lat": 46.58333, "Lon": 24.38333}], "Banda": [{"Name": "Banda", "Country Code": "ID", "Population": 0.0, "Lat": -3.1796, "Lon": 140.9419}, {"Name": "B\u0101nda", "Country Code": "IN", "Population": 152218.0, "Lat": 25.47758, "Lon": 80.33491}, {"Name": "Banda", "Country Code": "IN", "Population": 28978.0, "Lat": 24.04488, "Lon": 78.96094}], "Banda Aceh": [{"Name": "Banda Aceh", "Country Code": "ID", "Population": 255029.0, "Lat": 5.54167, "Lon": 95.33333}], "Banda Layung": [{"Name": "Banda Layung", "Country Code": "ID", "Population": 0.0, "Lat": 4.24161, "Lon": 96.09695}], "Banda del Rio Sali": [{"Name": "Banda del R\u00edo Sal\u00ed", "Country Code": "AR", "Population": 0.0, "Lat": -26.84031, "Lon": -65.16285}], "Bandajou": [{"Name": "Bandajou", "Country Code": "KM", "Population": 1816.0, "Lat": -12.19167, "Lon": 44.28694}], "Bandakagni-Tomora": [{"Name": "Bandakagni-Tomora", "Country Code": "CI", "Population": 3848.0, "Lat": 8.00659, "Lon": -3.30313}], "Bandakanyi-Sokoura": [{"Name": "Bandakanyi-Sokoura", "Country Code": "CI", "Population": 4577.0, "Lat": 8.11118, "Lon": -3.62799}], "Bandamadji-Domba": [{"Name": "Bandamadji-Domba", "Country Code": "KM", "Population": 1929.0, "Lat": -11.78788, "Lon": 43.45356}], "Bandar": [{"Name": "Bandar", "Country Code": "ID", "Population": 31442.0, "Lat": 2.05, "Lon": 99.75}], "Bandar Abbas": [{"Name": "Bandar Abbas", "Country Code": "IR", "Population": 352173.0, "Lat": 27.1865, "Lon": 56.2808}], "Bandar Labuan": [{"Name": "Bandar Labuan", "Country Code": "MY", "Population": 54752.0, "Lat": 5.28319, "Lon": 115.25371}], "Bandar Lampung": [{"Name": "Bandar Lampung", "Country Code": "ID", "Population": 1166066.0, "Lat": -5.42917, "Lon": 105.26111}], "Bandar Seri Begawan": [{"Name": "Bandar Seri Begawan", "Country Code": "BN", "Population": 64409.0, "Lat": 4.89035, "Lon": 114.94006}], "Bandar Seri Bentan": [{"Name": "Bandar Seri Bentan", "Country Code": "ID", "Population": 0.0, "Lat": 1.05417, "Lon": 104.48}], "Bandar-e Anzali": [{"Name": "Bandar-e Anzal\u012b", "Country Code": "IR", "Population": 110826.0, "Lat": 37.47318, "Lon": 49.45785}], "Bandar-e Deylam": [{"Name": "Bandar-e Deylam", "Country Code": "IR", "Population": 0.0, "Lat": 30.0542, "Lon": 50.159}], "Bandar-e Emam Khomeyni": [{"Name": "Bandar-e Emam Khomeyni", "Country Code": "IR", "Population": 0.0, "Lat": 30.43698, "Lon": 49.10288}], "Bandar-e Gaz": [{"Name": "Bandar-e Gaz", "Country Code": "IR", "Population": 0.0, "Lat": 36.77409, "Lon": 53.94798}], "Bandar-e Genaveh": [{"Name": "Bandar-e Gen\u0101veh", "Country Code": "IR", "Population": 52750.0, "Lat": 29.5791, "Lon": 50.517}], "Bandar-e Khamir": [{"Name": "Bandar-e Kham\u012br", "Country Code": "IR", "Population": 0.0, "Lat": 26.9521, "Lon": 55.5851}], "Bandar-e Lengeh": [{"Name": "Bandar-e Lengeh", "Country Code": "IR", "Population": 22768.0, "Lat": 26.55792, "Lon": 54.88067}], "Bandar-e Mahshahr": [{"Name": "Bandar-e M\u0101hshahr", "Country Code": "IR", "Population": 0.0, "Lat": 30.55655, "Lon": 49.18852}], "Bandar-e Torkaman": [{"Name": "Bandar-e Torkaman", "Country Code": "IR", "Population": 0.0, "Lat": 36.90124, "Lon": 54.07195}], "Bandar-e `Asaluyah": [{"Name": "Bandar-e \u2018Asal\u016byah", "Country Code": "IR", "Population": 0.0, "Lat": 27.47383, "Lon": 52.60782}], "Bandaragung": [{"Name": "Bandaragung", "Country Code": "ID", "Population": 0.0, "Lat": -5.29229, "Lon": 105.69255}], "Bandarban": [{"Name": "B\u0101ndarban", "Country Code": "BD", "Population": 32523.0, "Lat": 22.19534, "Lon": 92.21946}], "Bandarbeyla": [{"Name": "Bandarbeyla", "Country Code": "SO", "Population": 13753.0, "Lat": 9.4942, "Lon": 50.8122}], "Bande": [{"Name": "Bande", "Country Code": "ES", "Population": 2310.0, "Lat": 42.0312, "Lon": -7.97489}], "Bandeirantes": [{"Name": "Bandeirantes", "Country Code": "BR", "Population": 29494.0, "Lat": -23.11, "Lon": -50.3675}], "Bandera": [{"Name": "Bandera", "Country Code": "AR", "Population": 0.0, "Lat": -28.88809, "Lon": -62.26902}, {"Name": "Bandera", "Country Code": "US", "Population": 877.0, "Lat": 29.72661, "Lon": -99.07365}], "Banderas": [{"Name": "Banderas", "Country Code": "MX", "Population": 1312.0, "Lat": 20.99083, "Lon": -97.39361}], "Banderas (Guatacalca 2da. Seccion)": [{"Name": "Banderas (Guatacalca 2da. Secci\u00f3n)", "Country Code": "MX", "Population": 1255.0, "Lat": 18.15167, "Lon": -92.89881}], "Banderas del Aguila": [{"Name": "Banderas del \u00c1guila", "Country Code": "MX", "Population": 1274.0, "Lat": 23.92596, "Lon": -105.3395}], "Banderilla": [{"Name": "Banderilla", "Country Code": "MX", "Population": 19649.0, "Lat": 19.58893, "Lon": -96.93727}], "Bandhi": [{"Name": "Bandhi", "Country Code": "PK", "Population": 8608.0, "Lat": 26.58761, "Lon": 68.30215}], "Bandiagara": [{"Name": "Bandiagara", "Country Code": "ML", "Population": 26460.0, "Lat": 14.35005, "Lon": -3.61038}], "Bandiay": [{"Name": "Bandiay", "Country Code": "CI", "Population": 8575.0, "Lat": 7.2, "Lon": -6.18333}], "Bandikui": [{"Name": "B\u0101nd\u012bk\u016bi", "Country Code": "IN", "Population": 16165.0, "Lat": 27.05087, "Lon": 76.57325}], "Banding Agung": [{"Name": "Banding Agung", "Country Code": "ID", "Population": 0.0, "Lat": -4.80947, "Lon": 103.92443}], "Bandipura": [{"Name": "Bandipura", "Country Code": "IN", "Population": 31978.0, "Lat": 34.41728, "Lon": 74.64308}], "Bandirma": [{"Name": "Band\u0131rma", "Country Code": "TR", "Population": 107631.0, "Lat": 40.35222, "Lon": 27.97667}], "Bandito": [{"Name": "Bandito", "Country Code": "IT", "Population": 2164.0, "Lat": 44.72282, "Lon": 7.82403}], "Bandjoun": [{"Name": "Bandjoun", "Country Code": "CM", "Population": 31750.0, "Lat": 5.37568, "Lon": 10.41326}], "Bando": [{"Name": "Band\u014d", "Country Code": "JP", "Population": 0.0, "Lat": 36.06997, "Lon": 139.86705}], "Bandol": [{"Name": "Bandol", "Country Code": "FR", "Population": 8546.0, "Lat": 43.14247, "Lon": 5.74718}], "Bandoli": [{"Name": "Bandoli", "Country Code": "CI", "Population": 5073.0, "Lat": 8.59226, "Lon": -2.70806}], "Bandon": [{"Name": "Bandon", "Country Code": "IE", "Population": 6957.0, "Lat": 51.74694, "Lon": -8.7425}, {"Name": "Bandon", "Country Code": "US", "Population": 3115.0, "Lat": 43.119, "Lon": -124.40845}], "Bandora": [{"Name": "Bandora", "Country Code": "IN", "Population": 12819.0, "Lat": 15.40823, "Lon": 73.98129}], "Bandraboua": [{"Name": "Bandraboua", "Country Code": "YT", "Population": 7880.0, "Lat": -12.7044, "Lon": 45.12231}], "Bandrele": [{"Name": "Bandr\u00e9l\u00e9", "Country Code": "YT", "Population": 6350.0, "Lat": -12.91276, "Lon": 45.19256}], "Bandundu Province": [{"Name": "Bandundu Province", "Country Code": "CD", "Population": 202904.0, "Lat": -3.31687, "Lon": 17.38063}], "Bandung": [{"Name": "Bandung", "Country Code": "ID", "Population": 0.0, "Lat": -8.1676, "Lon": 111.7844}, {"Name": "Bandung", "Country Code": "ID", "Population": 2444160.0, "Lat": -6.92222, "Lon": 107.60694}], "Baneasa": [{"Name": "B\u0103neasa", "Country Code": "RO", "Population": 2184.0, "Lat": 45.93333, "Lon": 27.93333}, {"Name": "B\u0103neasa", "Country Code": "RO", "Population": 5280.0, "Lat": 44.06667, "Lon": 27.7}, {"Name": "B\u0103neasa", "Country Code": "RO", "Population": 1285.0, "Lat": 43.93975, "Lon": 24.94997}, {"Name": "B\u0103neasa", "Country Code": "RO", "Population": 5582.0, "Lat": 44.04611, "Lon": 26.06417}], "Baneh": [{"Name": "B\u0101neh", "Country Code": "IR", "Population": 104799.0, "Lat": 35.9975, "Lon": 45.8853}], "Banepa": [{"Name": "Banep\u0101", "Country Code": "NP", "Population": 67629.0, "Lat": 27.63245, "Lon": 85.52192}], "Banes": [{"Name": "Banes", "Country Code": "CU", "Population": 53104.0, "Lat": 20.96116, "Lon": -75.722}], "Banesti": [{"Name": "B\u0103ne\u015fti", "Country Code": "RO", "Population": 5636.0, "Lat": 45.1, "Lon": 25.76667}, {"Name": "B\u0103ne\u0219ti", "Country Code": "RO", "Population": 1154.0, "Lat": 47.58946, "Lon": 26.52335}], "Banff": [{"Name": "Banff", "Country Code": "CA", "Population": 7502.0, "Lat": 51.17622, "Lon": -115.56982}, {"Name": "Banff", "Country Code": "GB", "Population": 4020.0, "Lat": 57.66477, "Lon": -2.52964}], "Banfora": [{"Name": "Banfora", "Country Code": "BF", "Population": 117452.0, "Lat": 10.63333, "Lon": -4.76667}], "Bang Ban": [{"Name": "Bang Ban", "Country Code": "TH", "Population": 16588.0, "Lat": 14.37395, "Lon": 100.48528}], "Bang Bo": [{"Name": "Bang Bo", "Country Code": "TH", "Population": 0.0, "Lat": 13.57428, "Lon": 100.83533}], "Bang Bo District": [{"Name": "Bang Bo District", "Country Code": "TH", "Population": 28376.0, "Lat": 13.58333, "Lon": 100.81667}], "Bang Bon": [{"Name": "Bang Bon", "Country Code": "TH", "Population": 0.0, "Lat": 13.66185, "Lon": 100.39567}], "Bang Bua Thong": [{"Name": "Bang Bua Thong", "Country Code": "TH", "Population": 41567.0, "Lat": 13.91783, "Lon": 100.42403}], "Bang Kaeo": [{"Name": "Bang Kaeo", "Country Code": "TH", "Population": 0.0, "Lat": 7.42947, "Lon": 100.17803}], "Bang Kapi": [{"Name": "Bang Kapi", "Country Code": "TH", "Population": 0.0, "Lat": 13.7653, "Lon": 100.647}], "Bang Khae": [{"Name": "Bang Khae", "Country Code": "TH", "Population": 0.0, "Lat": 13.69196, "Lon": 100.40691}], "Bang Khan": [{"Name": "Bang Khan", "Country Code": "TH", "Population": 0.0, "Lat": 8.02689, "Lon": 99.47372}], "Bang Khen": [{"Name": "Bang Khen", "Country Code": "TH", "Population": 0.0, "Lat": 13.87741, "Lon": 100.6255}], "Bang Khla": [{"Name": "Bang Khla", "Country Code": "TH", "Population": 13528.0, "Lat": 13.72144, "Lon": 101.20814}], "Bang Kho Laem": [{"Name": "Bang Kho Laem", "Country Code": "TH", "Population": 0.0, "Lat": 13.69347, "Lon": 100.5022}], "Bang Khon Thi": [{"Name": "Bang Khon Thi", "Country Code": "TH", "Population": 0.0, "Lat": 13.46906, "Lon": 99.94021}], "Bang Khun Thian": [{"Name": "Bang Khun Thian", "Country Code": "TH", "Population": 0.0, "Lat": 13.66302, "Lon": 100.43416}], "Bang Klam": [{"Name": "Bang Klam", "Country Code": "TH", "Population": 0.0, "Lat": 7.08953, "Lon": 100.41075}], "Bang Krathum": [{"Name": "Bang Krathum", "Country Code": "TH", "Population": 18874.0, "Lat": 16.57831, "Lon": 100.30034}], "Bang Kruai": [{"Name": "Bang Kruai", "Country Code": "TH", "Population": 78305.0, "Lat": 13.805, "Lon": 100.47283}], "Bang Lamung": [{"Name": "Bang Lamung", "Country Code": "TH", "Population": 39620.0, "Lat": 13.04704, "Lon": 100.92891}], "Bang Len": [{"Name": "Bang Len", "Country Code": "TH", "Population": 17914.0, "Lat": 14.02188, "Lon": 100.17183}], "Bang Lung": [{"Name": "B\u1eb1ng L\u0169ng", "Country Code": "VN", "Population": 0.0, "Lat": 22.15777, "Lon": 105.59559}], "Bang Mun Nak": [{"Name": "Bang Mun Nak", "Country Code": "TH", "Population": 15616.0, "Lat": 16.02781, "Lon": 100.37917}], "Bang Na": [{"Name": "Bang Na", "Country Code": "TH", "Population": 0.0, "Lat": 13.66744, "Lon": 100.64206}], "Bang Nam Priao": [{"Name": "Bang Nam Priao", "Country Code": "TH", "Population": 8642.0, "Lat": 13.84739, "Lon": 101.05306}], "Bang Pa-in": [{"Name": "Bang Pa-in", "Country Code": "TH", "Population": 20484.0, "Lat": 14.22783, "Lon": 100.57589}], "Bang Pahan": [{"Name": "Bang Pahan", "Country Code": "TH", "Population": 0.0, "Lat": 14.46217, "Lon": 100.54478}], "Bang Pakong": [{"Name": "Bang Pakong", "Country Code": "TH", "Population": 25620.0, "Lat": 13.54297, "Lon": 100.99333}], "Bang Phae": [{"Name": "Bang Phae", "Country Code": "TH", "Population": 29548.0, "Lat": 13.69157, "Lon": 99.92982}], "Bang Phlat": [{"Name": "Bang Phlat", "Country Code": "TH", "Population": 0.0, "Lat": 13.79425, "Lon": 100.50447}], "Bang Phli": [{"Name": "Bang Phli", "Country Code": "TH", "Population": 0.0, "Lat": 13.60678, "Lon": 100.71201}], "Bang Pla Ma": [{"Name": "Bang Pla Ma", "Country Code": "TH", "Population": 0.0, "Lat": 14.39604, "Lon": 100.1587}], "Bang Racham": [{"Name": "Bang Racham", "Country Code": "TH", "Population": 15313.0, "Lat": 14.892, "Lon": 100.31728}], "Bang Rachan": [{"Name": "Bang Rachan", "Country Code": "TH", "Population": 0.0, "Lat": 14.79717, "Lon": 100.3065}], "Bang Rak": [{"Name": "Bang Rak", "Country Code": "TH", "Population": 0.0, "Lat": 13.73058, "Lon": 100.52388}], "Bang Rakam": [{"Name": "Bang Rakam", "Country Code": "TH", "Population": 16841.0, "Lat": 16.75847, "Lon": 100.11742}], "Bang Sai": [{"Name": "Bang Sai", "Country Code": "TH", "Population": 0.0, "Lat": 14.33433, "Lon": 100.30378}], "Bang Sao Thong": [{"Name": "Bang Sao Thong", "Country Code": "TH", "Population": 0.0, "Lat": 13.595, "Lon": 100.83042}], "Bang Saphan": [{"Name": "Bang Saphan", "Country Code": "TH", "Population": 15134.0, "Lat": 11.21259, "Lon": 99.51167}], "Bang Saphan Noi": [{"Name": "Bang Saphan Noi", "Country Code": "TH", "Population": 0.0, "Lat": 11.07535, "Lon": 99.44152}], "Bang Sue": [{"Name": "Bang Sue", "Country Code": "TH", "Population": 0.0, "Lat": 13.81003, "Lon": 100.53714}], "Bang Yai": [{"Name": "Bang Yai", "Country Code": "TH", "Population": 14012.0, "Lat": 13.84341, "Lon": 100.36251}], "Banga": [{"Name": "Banga", "Country Code": "IN", "Population": 19234.0, "Lat": 31.18874, "Lon": 75.99495}, {"Name": "Ba\u00f1ga", "Country Code": "PH", "Population": 58855.0, "Lat": 6.42389, "Lon": 124.77833}, {"Name": "Banga", "Country Code": "PH", "Population": 2058.0, "Lat": 10.5018, "Lon": 122.8289}, {"Name": "Ba\u00f1ga", "Country Code": "PH", "Population": 2136.0, "Lat": 11.6387, "Lon": 122.3341}], "Bangad": [{"Name": "Bangad", "Country Code": "PH", "Population": 3321.0, "Lat": 12.16125, "Lon": 123.40131}, {"Name": "Bangad", "Country Code": "PH", "Population": 4498.0, "Lat": 15.5019, "Lon": 121.0275}, {"Name": "Bangad", "Country Code": "PH", "Population": 2216.0, "Lat": 17.49543, "Lon": 121.77714}], "Bangahan": [{"Name": "Bangahan", "Country Code": "PH", "Population": 2728.0, "Lat": 7.79634, "Lon": 124.73361}], "Bangalidougou": [{"Name": "Bangalidougou", "Country Code": "CI", "Population": 1617.0, "Lat": 5.62677, "Lon": -6.04211}], "Bangalow": [{"Name": "Bangalow", "Country Code": "AU", "Population": 1980.0, "Lat": -28.68634, "Lon": 153.52153}], "Bangan-Oda": [{"Name": "Bangan-Oda", "Country Code": "PH", "Population": 3456.0, "Lat": 16.1087, "Lon": 119.8307}], "Banganan": [{"Name": "Banganan", "Country Code": "PH", "Population": 2594.0, "Lat": 16.3144, "Lon": 121.0544}], "Banganapalle": [{"Name": "Banganapalle", "Country Code": "IN", "Population": 25325.0, "Lat": 15.31771, "Lon": 78.22669}], "Bangandho": [{"Name": "Bangandh\u00f3", "Country Code": "MX", "Population": 1027.0, "Lat": 20.48277, "Lon": -99.14901}], "Bangangte": [{"Name": "Bangangt\u00e9", "Country Code": "CM", "Population": 43694.0, "Lat": 5.14079, "Lon": 10.52535}], "Bangao": [{"Name": "Bangao", "Country Code": "PH", "Population": 3902.0, "Lat": 16.8211, "Lon": 120.8404}], "Bangaon": [{"Name": "Bangaon", "Country Code": "IN", "Population": 60000.0, "Lat": 25.86728, "Lon": 86.51152}, {"Name": "Bangaon", "Country Code": "IN", "Population": 111693.0, "Lat": 23.04553, "Lon": 88.83084}], "Bangar": [{"Name": "Bangar", "Country Code": "BN", "Population": 3970.0, "Lat": 4.70861, "Lon": 115.07167}, {"Name": "Bangar", "Country Code": "PH", "Population": 11068.0, "Lat": 16.8936, "Lon": 120.4243}], "Bangarapet": [{"Name": "Bangarapet", "Country Code": "IN", "Population": 42789.0, "Lat": 12.99116, "Lon": 78.17804}], "Bangarmau": [{"Name": "B\u0101ngarmau", "Country Code": "IN", "Population": 37425.0, "Lat": 26.8912, "Lon": 80.21149}], "Bangassou": [{"Name": "Bangassou", "Country Code": "CF", "Population": 54059.0, "Lat": 4.74132, "Lon": 22.81838}], "Bangdong": [{"Name": "Bangdong", "Country Code": "CN", "Population": 1460.0, "Lat": 26.97556, "Lon": 109.18583}], "Bangert": [{"Name": "Bangert", "Country Code": "NL", "Population": 1470.0, "Lat": 52.73582, "Lon": 5.1801}], "Banggai": [{"Name": "Banggai", "Country Code": "ID", "Population": 0.0, "Lat": -1.5887, "Lon": 123.4992}], "Bangi": [{"Name": "Bangi", "Country Code": "NG", "Population": 0.0, "Lat": 10.83368, "Lon": 5.82688}], "Bangil": [{"Name": "Bangil", "Country Code": "ID", "Population": 120551.0, "Lat": -7.59939, "Lon": 112.8186}], "Bangilan": [{"Name": "Bangilan", "Country Code": "ID", "Population": 0.0, "Lat": -6.97, "Lon": 111.7141}], "Bangjun": [{"Name": "Bangjun", "Country Code": "CN", "Population": 7052.0, "Lat": 39.99111, "Lon": 117.26278}], "Bangkal": [{"Name": "Bangkal", "Country Code": "PH", "Population": 2288.0, "Lat": 6.06667, "Lon": 121.06667}], "Bangkalan": [{"Name": "Bangkalan", "Country Code": "ID", "Population": 86250.0, "Lat": -7.0455, "Lon": 112.7351}], "Bangkinang": [{"Name": "Bangkinang", "Country Code": "ID", "Population": 0.0, "Lat": 0.33833, "Lon": 101.02361}], "Bangkir": [{"Name": "Bangkir", "Country Code": "ID", "Population": 0.0, "Lat": 0.78049, "Lon": 120.22799}], "Bangkirohan": [{"Name": "Bangkirohan", "Country Code": "PH", "Population": 9040.0, "Lat": 13.0553, "Lon": 123.7468}], "Bangkle": [{"Name": "Bangkle", "Country Code": "ID", "Population": 0.0, "Lat": -6.9706, "Lon": 111.4307}], "Bangko": [{"Name": "Bangko", "Country Code": "ID", "Population": 0.0, "Lat": -2.0796, "Lon": 102.2573}], "Bangkok": [{"Name": "Bangkok", "Country Code": "TH", "Population": 5104476.0, "Lat": 13.75398, "Lon": 100.50144}], "Bangkok Noi": [{"Name": "Bangkok Noi", "Country Code": "TH", "Population": 0.0, "Lat": 13.76266, "Lon": 100.47798}], "Bangkok Yai": [{"Name": "Bangkok Yai", "Country Code": "TH", "Population": 0.0, "Lat": 13.72319, "Lon": 100.476}], "Bangli": [{"Name": "Bangli", "Country Code": "ID", "Population": 0.0, "Lat": -8.4542, "Lon": 115.3545}], "Bangofla": [{"Name": "Bangofla", "Country Code": "CI", "Population": 1893.0, "Lat": 7.68876, "Lon": -5.93241}], "Bangokro": [{"Name": "Bangokro", "Country Code": "CI", "Population": 1571.0, "Lat": 6.75496, "Lon": -4.55463}], "Bangolo": [{"Name": "Bangolo", "Country Code": "CI", "Population": 21861.0, "Lat": 7.01232, "Lon": -7.48639}], "Bangolo Tahouake": [{"Name": "Bangolo Tahouake", "Country Code": "CI", "Population": 23420.0, "Lat": 7.04119, "Lon": -7.168}], "Bangonay": [{"Name": "Bangonay", "Country Code": "PH", "Population": 2643.0, "Lat": 9.31444, "Lon": 125.55389}], "Bangor": [{"Name": "Bangor", "Country Code": "AU", "Population": 5471.0, "Lat": -34.01667, "Lon": 151.03333}, {"Name": "Bangor", "Country Code": "GB", "Population": 61011.0, "Lat": 54.66079, "Lon": -5.66802}, {"Name": "Bangor", "Country Code": "GB", "Population": 18322.0, "Lat": 53.22752, "Lon": -4.12936}, {"Name": "Bangor", "Country Code": "US", "Population": 1850.0, "Lat": 42.31254, "Lon": -86.11308}, {"Name": "Bangor", "Country Code": "US", "Population": 32391.0, "Lat": 44.79884, "Lon": -68.77265}, {"Name": "Bangor", "Country Code": "US", "Population": 5203.0, "Lat": 40.86565, "Lon": -75.20657}, {"Name": "Bangor", "Country Code": "US", "Population": 1492.0, "Lat": 43.89302, "Lon": -90.99041}], "Bangor Trident Base": [{"Name": "Bangor Trident Base", "Country Code": "US", "Population": 6054.0, "Lat": 47.72274, "Lon": -122.71446}], "Bangoredoukou": [{"Name": "Bangor\u00e9doukou", "Country Code": "CI", "Population": 2307.0, "Lat": 5.28157, "Lon": -5.13427}], "Bangoua": [{"Name": "Bangoua", "Country Code": "CI", "Population": 7259.0, "Lat": 7.33542, "Lon": -3.47303}], "Bangs": [{"Name": "Bangs", "Country Code": "US", "Population": 1581.0, "Lat": 31.7171, "Lon": -99.13255}], "Bangsalsari": [{"Name": "Bangsalsari", "Country Code": "ID", "Population": 0.0, "Lat": -8.2029, "Lon": 113.5346}], "Bangsan": [{"Name": "Bangsan", "Country Code": "KR", "Population": 0.0, "Lat": 38.2088, "Lon": 127.95028}], "Bangued": [{"Name": "Bangued", "Country Code": "PH", "Population": 0.0, "Lat": 17.60833, "Lon": 120.63806}], "Bangui": [{"Name": "Bangui", "Country Code": "CF", "Population": 812407.0, "Lat": 4.36122, "Lon": 18.55496}, {"Name": "Bangui", "Country Code": "PH", "Population": 2458.0, "Lat": 18.5376, "Lon": 120.7671}], "Banguie I": [{"Name": "Bangui\u00e9 I", "Country Code": "CI", "Population": 6259.0, "Lat": 5.90159, "Lon": -4.20054}], "Bangunrejo": [{"Name": "Bangunrejo", "Country Code": "ID", "Population": 0.0, "Lat": -5.1403, "Lon": 105.0372}], "Banha": [{"Name": "Banh\u0101", "Country Code": "EG", "Population": 182254.0, "Lat": 30.45977, "Lon": 31.1842}], "Banham": [{"Name": "Banham", "Country Code": "GB", "Population": 1159.0, "Lat": 52.4524, "Lon": 1.03683}], "Banhigan": [{"Name": "Banhigan", "Country Code": "PH", "Population": 2359.0, "Lat": 9.85903, "Lon": 123.38926}], "Banholt": [{"Name": "Banholt", "Country Code": "NL", "Population": 1005.0, "Lat": 50.79, "Lon": 5.80833}], "Banhui": [{"Name": "Banhui", "Country Code": "CI", "Population": 3204.0, "Lat": 8.33333, "Lon": -3.06667}], "Bani": [{"Name": "Ban\u00ed", "Country Code": "DO", "Population": 66709.0, "Lat": 18.27964, "Lon": -70.33185}, {"Name": "Bani", "Country Code": "PH", "Population": 3066.0, "Lat": 15.5823, "Lon": 119.9335}, {"Name": "Bani", "Country Code": "PH", "Population": 0.0, "Lat": 16.185, "Lon": 119.8613}], "Bani 'Ubayd": [{"Name": "Ban\u012b \u2018Ubayd", "Country Code": "EG", "Population": 46060.0, "Lat": 27.95243, "Lon": 30.78082}], "Bani Bakr": [{"Name": "Ban\u012b Bakr", "Country Code": "YE", "Population": 0.0, "Lat": 13.93333, "Lon": 45.26667}], "Bani Bangou": [{"Name": "Bani Bangou", "Country Code": "NE", "Population": 9187.0, "Lat": 15.0416, "Lon": 2.7037}], "Bani Hujjaj": [{"Name": "Ban\u012b \u1e28ujj\u0101j", "Country Code": "YE", "Population": 0.0, "Lat": 15.41683, "Lon": 43.3193}], "Bani Mazar": [{"Name": "Ban\u012b Maz\u0101r", "Country Code": "EG", "Population": 115759.0, "Lat": 28.49456, "Lon": 30.80526}], "Bani Na'im": [{"Name": "Ban\u012b Na\u2018\u012bm", "Country Code": "PS", "Population": 19783.0, "Lat": 31.51591, "Lon": 35.16416}], "Bani Suhayla": [{"Name": "Ban\u012b Suhayl\u0101", "Country Code": "PS", "Population": 31272.0, "Lat": 31.34337, "Lon": 34.32337}], "Bani Suwayf": [{"Name": "Ban\u012b Suwayf", "Country Code": "EG", "Population": 273151.0, "Lat": 29.07441, "Lon": 31.09785}], "Bani Suwayf al Jadidah": [{"Name": "Ban\u012b Suwayf al Jad\u012bdah", "Country Code": "EG", "Population": 32278.0, "Lat": 29.033, "Lon": 31.11408}], "Bani Walid": [{"Name": "Bani Walid", "Country Code": "LY", "Population": 45734.0, "Lat": 31.74554, "Lon": 13.98354}], "Bani Yas City": [{"Name": "Bani Yas City", "Country Code": "AE", "Population": 80498.0, "Lat": 24.30978, "Lon": 54.62944}], "Bani Zayd": [{"Name": "Ban\u012b Zayd", "Country Code": "PS", "Population": 5441.0, "Lat": 32.03924, "Lon": 35.10316}], "Bani Zayd ash Sharqiyah": [{"Name": "Ban\u012b Zayd ash Sh\u0101rq\u012byah", "Country Code": "PS", "Population": 5015.0, "Lat": 32.04935, "Lon": 35.16593}], "Bani al `Awwam": [{"Name": "Ban\u012b al \u2018Aww\u0101m", "Country Code": "YE", "Population": 41.0, "Lat": 15.58119, "Lon": 43.58727}], "Bani an Nahari": [{"Name": "Ban\u012b an Nah\u0101r\u012b", "Country Code": "YE", "Population": 0.0, "Lat": 15.63981, "Lon": 43.55633}], "Bania": [{"Name": "B\u0103nia", "Country Code": "RO", "Population": 1939.0, "Lat": 44.89583, "Lon": 22.04472}], "Baniachang": [{"Name": "Baniachang", "Country Code": "BD", "Population": 37807.0, "Lat": 24.51863, "Lon": 91.35787}], "Banian": [{"Name": "Banian", "Country Code": "PK", "Population": 2000.0, "Lat": 32.61799, "Lon": 73.99235}], "Banica": [{"Name": "B\u00e1nica", "Country Code": "DO", "Population": 1443.0, "Lat": 19.08239, "Lon": -71.7054}], "Banie": [{"Name": "Banie", "Country Code": "PL", "Population": 1967.0, "Lat": 53.10031, "Lon": 14.66228}], "Banie Mazurskie": [{"Name": "Banie Mazurskie", "Country Code": "PL", "Population": 1500.0, "Lat": 54.24662, "Lon": 22.03617}], "Banigbe": [{"Name": "Banigb\u00e9", "Country Code": "BJ", "Population": 31984.0, "Lat": 6.64756, "Lon": 2.70695}], "Banihal": [{"Name": "Banih\u0101l", "Country Code": "IN", "Population": 3278.0, "Lat": 33.43647, "Lon": 75.19684}], "Banikoara": [{"Name": "Banikoara", "Country Code": "BJ", "Population": 37571.0, "Lat": 11.29845, "Lon": 2.43856}], "Banilad": [{"Name": "Banilad", "Country Code": "PH", "Population": 4031.0, "Lat": 14.0667, "Lon": 120.7347}, {"Name": "Banilad", "Country Code": "PH", "Population": 2690.0, "Lat": 9.2786, "Lon": 123.2936}], "Banino": [{"Name": "Banino", "Country Code": "PL", "Population": 2593.0, "Lat": 54.39215, "Lon": 18.40622}], "Baniocha": [{"Name": "Baniocha", "Country Code": "PL", "Population": 4000.0, "Lat": 52.01653, "Lon": 21.13984}], "Baniona": [{"Name": "Baniona", "Country Code": "ID", "Population": 0.0, "Lat": -8.4, "Lon": 123.0848}], "Banisilan": [{"Name": "Banisilan", "Country Code": "PH", "Population": 5749.0, "Lat": 7.49083, "Lon": 124.72417}], "Banisor": [{"Name": "B\u0103ni\u015for", "Country Code": "RO", "Population": 2385.0, "Lat": 47.10431, "Lon": 22.83731}], "Banissa": [{"Name": "Banissa", "Country Code": "KE", "Population": 14974.0, "Lat": 3.94102, "Lon": 40.34248}], "Banita": [{"Name": "B\u0103ni\u0163a", "Country Code": "RO", "Population": 1352.0, "Lat": 45.45, "Lon": 23.26667}], "Banite": [{"Name": "Banite", "Country Code": "BG", "Population": 1279.0, "Lat": 41.61667, "Lon": 25.01667}], "Baniyas": [{"Name": "B\u0101niy\u0101s", "Country Code": "SY", "Population": 39066.0, "Lat": 35.18188, "Lon": 35.94871}], "Banja Luka": [{"Name": "Banja Luka", "Country Code": "BA", "Population": 221106.0, "Lat": 44.77842, "Lon": 17.19386}], "Banjar": [{"Name": "Banjar", "Country Code": "ID", "Population": 89040.0, "Lat": -8.19, "Lon": 114.9675}, {"Name": "Banjar", "Country Code": "ID", "Population": 0.0, "Lat": -7.3688, "Lon": 108.5329}, {"Name": "Banjar", "Country Code": "ID", "Population": 200970.0, "Lat": -7.1955, "Lon": 107.4313}, {"Name": "Banj\u0101r", "Country Code": "IN", "Population": 1351.0, "Lat": 31.639, "Lon": 77.34055}], "Banjar Mandung": [{"Name": "Banjar Mandung", "Country Code": "ID", "Population": 0.0, "Lat": -8.5179, "Lon": 115.0919}], "Banjar Wangsian": [{"Name": "Banjar Wangsian", "Country Code": "ID", "Population": 2353.0, "Lat": -8.49497, "Lon": 115.42342}], "Banjaran": [{"Name": "Banjaran", "Country Code": "ID", "Population": 164952.0, "Lat": -7.04528, "Lon": 107.58778}], "Banjaranyar": [{"Name": "Banjaranyar", "Country Code": "ID", "Population": 0.0, "Lat": -6.9013, "Lon": 112.1538}], "Banjarejo": [{"Name": "Banjarejo", "Country Code": "ID", "Population": 0.0, "Lat": -7.0344, "Lon": 111.3441}], "Banjarmasin": [{"Name": "Banjarmasin", "Country Code": "ID", "Population": 657663.0, "Lat": -3.31987, "Lon": 114.59075}], "Banjarnegara": [{"Name": "Banjarnegara", "Country Code": "ID", "Population": 0.0, "Lat": -7.39611, "Lon": 109.69611}], "Banjarsari": [{"Name": "Banjarsari", "Country Code": "ID", "Population": 0.0, "Lat": -7.4819, "Lon": 108.5998}], "Banjarwangi": [{"Name": "Banjarwangi", "Country Code": "ID", "Population": 0.0, "Lat": -7.4398, "Lon": 107.9026}], "Banjol": [{"Name": "Banjol", "Country Code": "HR", "Population": 1708.0, "Lat": 44.75372, "Lon": 14.77378}], "Banjul": [{"Name": "Banjul", "Country Code": "GM", "Population": 37274.0, "Lat": 13.45274, "Lon": -16.57803}], "Banjul NDing": [{"Name": "Banjul NDing", "Country Code": "GM", "Population": 7110.0, "Lat": 13.37333, "Lon": -16.65722}], "Banjup": [{"Name": "Banjup", "Country Code": "AU", "Population": 1999.0, "Lat": -32.14179, "Lon": 115.88671}], "Banka": [{"Name": "B\u0101nka", "Country Code": "IN", "Population": 38939.0, "Lat": 24.88091, "Lon": 86.92257}], "Bankass": [{"Name": "Bankass", "Country Code": "ML", "Population": 0.0, "Lat": 14.0775, "Lon": -3.51594}], "Bankaw": [{"Name": "Bankaw", "Country Code": "PH", "Population": 3908.0, "Lat": 5.0192, "Lon": 120.0091}], "Bankeryd": [{"Name": "Bankeryd", "Country Code": "SE", "Population": 8506.0, "Lat": 57.86021, "Lon": 14.124}], "Banket": [{"Name": "Banket", "Country Code": "ZW", "Population": 9641.0, "Lat": -17.38333, "Lon": 30.4}], "Bankfoot": [{"Name": "Bankfoot", "Country Code": "GB", "Population": 1270.0, "Lat": 56.50058, "Lon": -3.51707}], "Banki": [{"Name": "B\u0101nki", "Country Code": "IN", "Population": 16555.0, "Lat": 20.37912, "Lon": 85.52953}], "Bankilare": [{"Name": "Bankilar\u00e9", "Country Code": "NE", "Population": 5347.0, "Lat": 14.57653, "Lon": 0.72669}], "Bankim": [{"Name": "Bankim", "Country Code": "CM", "Population": 5727.0, "Lat": 6.08303, "Lon": 11.4905}], "Banknock": [{"Name": "Banknock", "Country Code": "GB", "Population": 2370.0, "Lat": 55.98967, "Lon": -3.95611}], "Bankolo": [{"Name": "Bankolo", "Country Code": "CI", "Population": 1166.0, "Lat": 8.53148, "Lon": -4.20922}], "Bankra": [{"Name": "Bankra", "Country Code": "IN", "Population": 56273.0, "Lat": 22.60291, "Lon": 88.27751}], "Banks": [{"Name": "Banks", "Country Code": "AU", "Population": 4869.0, "Lat": -35.47194, "Lon": 149.09965}, {"Name": "Banks", "Country Code": "GB", "Population": 3572.0, "Lat": 53.68333, "Lon": -2.91667}, {"Name": "Banks", "Country Code": "US", "Population": 1934.0, "Lat": 45.61872, "Lon": -123.11428}], "Banks Springs": [{"Name": "Banks Springs", "Country Code": "US", "Population": 1192.0, "Lat": 32.0821, "Lon": -92.09291}], "Banksia": [{"Name": "Banksia", "Country Code": "AU", "Population": 3342.0, "Lat": -33.94601, "Lon": 151.14304}], "Banksia Beach": [{"Name": "Banksia Beach", "Country Code": "AU", "Population": 5915.0, "Lat": -27.04027, "Lon": 153.1439}], "Banksia Grove": [{"Name": "Banksia Grove", "Country Code": "AU", "Population": 9180.0, "Lat": -31.69615, "Lon": 115.80501}], "Banksia Park": [{"Name": "Banksia Park", "Country Code": "AU", "Population": 3214.0, "Lat": -34.81015, "Lon": 138.7357}], "Bankstown": [{"Name": "Bankstown", "Country Code": "AU", "Population": 34933.0, "Lat": -33.91667, "Lon": 151.03333}], "Bankura": [{"Name": "B\u0101nkura", "Country Code": "IN", "Population": 133966.0, "Lat": 23.23241, "Lon": 87.0716}], "Banle": [{"Name": "Banl\u00e9", "Country Code": "CI", "Population": 1190.0, "Lat": 7.16775, "Lon": -7.55263}], "Banloc": [{"Name": "Banloc", "Country Code": "RO", "Population": 4497.0, "Lat": 45.38742, "Lon": 21.13581}], "Banlung": [{"Name": "Banlung", "Country Code": "KH", "Population": 17000.0, "Lat": 13.73939, "Lon": 106.98727}], "Banmankhi": [{"Name": "Banmankhi", "Country Code": "IN", "Population": 26806.0, "Lat": 25.88857, "Lon": 87.19421}], "Bann": [{"Name": "Bann", "Country Code": "DE", "Population": 2390.0, "Lat": 49.38333, "Lon": 7.61667}], "Bannalec": [{"Name": "Bannalec", "Country Code": "FR", "Population": 5068.0, "Lat": 47.93236, "Lon": -3.69835}], "Bannam": [{"Name": "Bannam", "Country Code": "KR", "Population": 0.0, "Lat": 34.90444, "Lon": 126.65175}], "Banner Elk": [{"Name": "Banner Elk", "Country Code": "US", "Population": 1138.0, "Lat": 36.16318, "Lon": -81.8715}], "Banner Hill": [{"Name": "Banner Hill", "Country Code": "US", "Population": 1497.0, "Lat": 36.13066, "Lon": -82.42458}], "Banneu": [{"Name": "Banneu", "Country Code": "CI", "Population": 5830.0, "Lat": 7.07343, "Lon": -8.25311}], "Bannewitz": [{"Name": "Bannewitz", "Country Code": "DE", "Population": 10851.0, "Lat": 50.99291, "Lon": 13.71712}], "Banning": [{"Name": "Banning", "Country Code": "US", "Population": 30945.0, "Lat": 33.92557, "Lon": -116.87641}], "Bannio": [{"Name": "Bannio", "Country Code": "IT", "Population": 247.0, "Lat": 45.98397, "Lon": 8.14611}], "Bannivka": [{"Name": "Bannivka", "Country Code": "UA", "Population": 1211.0, "Lat": 45.68862, "Lon": 28.92266}], "Bannockburn": [{"Name": "Bannockburn", "Country Code": "AU", "Population": 5203.0, "Lat": -38.04894, "Lon": 144.16882}, {"Name": "Bannockburn", "Country Code": "GB", "Population": 7040.0, "Lat": 56.08978, "Lon": -3.91092}, {"Name": "Bannockburn", "Country Code": "US", "Population": 1571.0, "Lat": 42.19336, "Lon": -87.86646}], "Bannu": [{"Name": "Bannu", "Country Code": "PK", "Population": 49008.0, "Lat": 32.98527, "Lon": 70.60403}], "Bannur": [{"Name": "Bann\u016br", "Country Code": "IN", "Population": 25455.0, "Lat": 12.33295, "Lon": 76.86201}], "Banobarez": [{"Name": "Ba\u00f1ob\u00e1rez", "Country Code": "ES", "Population": 356.0, "Lat": 40.84825, "Lon": -6.61311}], "Banocboc": [{"Name": "Banocboc", "Country Code": "PH", "Population": 3963.0, "Lat": 14.3, "Lon": 122.58333}], "Banog Sur": [{"Name": "Banog Sur", "Country Code": "PH", "Population": 3699.0, "Lat": 16.16542, "Lon": 119.89802}], "Banon": [{"Name": "Ba\u00f1\u00f3n", "Country Code": "ES", "Population": 179.0, "Lat": 40.83825, "Lon": -1.19091}], "Banora": [{"Name": "Banora", "Country Code": "GN", "Population": 0.0, "Lat": 11.6, "Lon": -10.3}], "Banora Point": [{"Name": "Banora Point", "Country Code": "AU", "Population": 15868.0, "Lat": -28.21298, "Lon": 153.53634}], "Banos": [{"Name": "Ba\u00f1os", "Country Code": "EC", "Population": 9501.0, "Lat": -1.39699, "Lon": -78.42289}, {"Name": "Ba\u00f1os", "Country Code": "PE", "Population": 0.0, "Lat": -10.07667, "Lon": -76.73528}, {"Name": "Banos", "Country Code": "PH", "Population": 2340.0, "Lat": 12.64553, "Lon": 120.90972}], "Banos de Molgas": [{"Name": "Ba\u00f1os de Molgas", "Country Code": "ES", "Population": 1992.0, "Lat": 42.24148, "Lon": -7.67223}], "Banos de Montemayor": [{"Name": "Ba\u00f1os de Montemayor", "Country Code": "ES", "Population": 643.0, "Lat": 40.31671, "Lon": -5.86009}], "Banos de Rio Tobia": [{"Name": "Ba\u00f1os de R\u00edo Tob\u00eda", "Country Code": "ES", "Population": 1698.0, "Lat": 42.33533, "Lon": -2.76099}], "Banos de Rioja": [{"Name": "Ba\u00f1os de Rioja", "Country Code": "ES", "Population": 93.0, "Lat": 42.5123, "Lon": -2.94635}], "Banos de Tajo": [{"Name": "Ba\u00f1os de Tajo", "Country Code": "ES", "Population": 30.0, "Lat": 40.71667, "Lon": -1.96667}], "Banos de Valdearados": [{"Name": "Ba\u00f1os de Valdearados", "Country Code": "ES", "Population": 413.0, "Lat": 41.7701, "Lon": -3.55589}], "Banos de la Encina": [{"Name": "Ba\u00f1os de la Encina", "Country Code": "ES", "Population": 2611.0, "Lat": 38.17379, "Lon": -3.77477}], "Banoufla": [{"Name": "Banoufla", "Country Code": "CI", "Population": 5264.0, "Lat": 7.11998, "Lon": -6.31833}], "Banov": [{"Name": "B\u00e1nov", "Country Code": "CZ", "Population": 2095.0, "Lat": 48.98801, "Lon": 17.71752}], "Banovce nad Bebravou": [{"Name": "B\u00e1novce nad Bebravou", "Country Code": "SK", "Population": 18933.0, "Lat": 48.7213, "Lon": 18.25754}], "Banovici": [{"Name": "Banovi\u0107i", "Country Code": "BA", "Population": 7211.0, "Lat": 44.40596, "Lon": 18.52648}], "Banovo Polje": [{"Name": "Banovo Polje", "Country Code": "RS", "Population": 1732.0, "Lat": 44.9104, "Lon": 19.44916}], "Banphot Phisai": [{"Name": "Banphot Phisai", "Country Code": "TH", "Population": 0.0, "Lat": 15.93558, "Lon": 99.98129}], "Banposh": [{"Name": "B\u0101nposh", "Country Code": "IN", "Population": 10430.0, "Lat": 22.24834, "Lon": 84.81044}], "Banqiao": [{"Name": "Banqiao", "Country Code": "CN", "Population": 7249.0, "Lat": 28.70304, "Lon": 108.71925}, {"Name": "Banqiao", "Country Code": "CN", "Population": 22725.0, "Lat": 29.51302, "Lon": 105.95341}, {"Name": "Banqiao", "Country Code": "TW", "Population": 543342.0, "Lat": 25.01427, "Lon": 121.46719}], "Banquero": [{"Name": "Banquero", "Country Code": "PH", "Population": 2173.0, "Lat": 17.02305, "Lon": 121.77834}], "Banraeaba Village": [{"Name": "Banraeaba Village", "Country Code": "KI", "Population": 1789.0, "Lat": 1.3454, "Lon": 173.03464}], "Bansalan": [{"Name": "Bansalan", "Country Code": "PH", "Population": 21391.0, "Lat": 6.78611, "Lon": 125.21333}], "Bansang": [{"Name": "Bansang", "Country Code": "GM", "Population": 9528.0, "Lat": 13.43333, "Lon": -14.65}], "Bansbaria": [{"Name": "B\u0101nsb\u0101ria", "Country Code": "IN", "Population": 108474.0, "Lat": 22.95387, "Lon": 88.40098}], "Bansdih": [{"Name": "B\u0101nsd\u012bh", "Country Code": "IN", "Population": 21457.0, "Lat": 25.88377, "Lon": 84.21827}], "Bansgaon": [{"Name": "B\u0101nsg\u0101on", "Country Code": "IN", "Population": 14282.0, "Lat": 26.55032, "Lon": 83.34503}], "Bansi": [{"Name": "B\u0101nsi", "Country Code": "IN", "Population": 39926.0, "Lat": 27.17749, "Lon": 82.93442}], "Banska Bystrica": [{"Name": "Bansk\u00e1 Bystrica", "Country Code": "SK", "Population": 75317.0, "Lat": 48.73946, "Lon": 19.15349}], "Banska Stiavnica": [{"Name": "Bansk\u00e1 \u0160tiavnica", "Country Code": "SK", "Population": 10191.0, "Lat": 48.44858, "Lon": 18.91003}], "Bansko": [{"Name": "Bansko", "Country Code": "BG", "Population": 9232.0, "Lat": 41.8361, "Lon": 23.48745}], "Bansoa": [{"Name": "Bansoa", "Country Code": "CM", "Population": 7560.0, "Lat": 5.44836, "Lon": 10.31355}], "Banstead": [{"Name": "Banstead", "Country Code": "GB", "Population": 46280.0, "Lat": 51.32233, "Lon": -0.20685}], "Bansud": [{"Name": "Bansud", "Country Code": "PH", "Population": 13758.0, "Lat": 12.865, "Lon": 121.45639}], "Banswada": [{"Name": "B\u0101nsw\u0101da", "Country Code": "IN", "Population": 22665.0, "Lat": 18.37725, "Lon": 77.88007}], "Banswara": [{"Name": "B\u0101nsw\u0101ra", "Country Code": "IN", "Population": 93648.0, "Lat": 23.54109, "Lon": 74.4425}], "Bantacan": [{"Name": "Bantacan", "Country Code": "PH", "Population": 3299.0, "Lat": 7.604, "Lon": 126.1298}], "Bantaeng": [{"Name": "Bantaeng", "Country Code": "ID", "Population": 0.0, "Lat": -5.5475, "Lon": 119.9509}], "Bantay": [{"Name": "Bantay", "Country Code": "PH", "Population": 10091.0, "Lat": 17.58472, "Lon": 120.38917}, {"Name": "Bantay", "Country Code": "PH", "Population": 2838.0, "Lat": 17.43793, "Lon": 120.75775}], "Bantayan": [{"Name": "Bantayan", "Country Code": "PH", "Population": 3976.0, "Lat": 12.5237, "Lon": 124.8283}, {"Name": "Bantayan", "Country Code": "PH", "Population": 18984.0, "Lat": 11.1683, "Lon": 123.7223}], "Bante": [{"Name": "Bant\u00e9", "Country Code": "BJ", "Population": 17682.0, "Lat": 8.41221, "Lon": 1.88969}], "Banteay Meas": [{"Name": "Banteay Meas", "Country Code": "KH", "Population": 0.0, "Lat": 10.66781, "Lon": 104.56026}], "Banteln": [{"Name": "Banteln", "Country Code": "DE", "Population": 1674.0, "Lat": 52.06667, "Lon": 9.75}], "Bantengan": [{"Name": "Bantengan", "Country Code": "ID", "Population": 0.0, "Lat": -6.6597, "Lon": 111.0634}], "Bantifla": [{"Name": "Bantifla", "Country Code": "CI", "Population": 2092.0, "Lat": 6.74876, "Lon": -6.10672}], "Bantilan": [{"Name": "Bantilan", "Country Code": "PH", "Population": 5406.0, "Lat": 14.75814, "Lon": 121.66902}], "Banting": [{"Name": "Banting", "Country Code": "MY", "Population": 48240.0, "Lat": 2.8136, "Lon": 101.50185}], "Bantiqui": [{"Name": "Bantiqui", "Country Code": "PH", "Population": 2026.0, "Lat": 10.9245, "Lon": 124.4154}], "Bantog": [{"Name": "Bantog", "Country Code": "PH", "Population": 4111.0, "Lat": 16.0091, "Lon": 120.6929}], "Bantogon": [{"Name": "Bantogon", "Country Code": "PH", "Population": 5379.0, "Lat": 6.53333, "Lon": 124.03333}], "Bantry": [{"Name": "Bantry", "Country Code": "IE", "Population": 2722.0, "Lat": 51.68025, "Lon": -9.45254}], "Bantuanon": [{"Name": "Bantuanon", "Country Code": "PH", "Population": 4673.0, "Lat": 8.01528, "Lon": 125.07083}], "Bantul": [{"Name": "Bantul", "Country Code": "ID", "Population": 0.0, "Lat": -3.0432, "Lon": 114.7614}, {"Name": "Bantul", "Country Code": "ID", "Population": 64360.0, "Lat": -7.88806, "Lon": 110.32889}], "Bantur": [{"Name": "Bantur", "Country Code": "ID", "Population": 0.0, "Lat": -8.314, "Lon": 112.5807}], "Bantva": [{"Name": "B\u0101ntva", "Country Code": "IN", "Population": 15051.0, "Lat": 21.48815, "Lon": 70.07576}], "Bantval": [{"Name": "Bantv\u0101l", "Country Code": "IN", "Population": 37619.0, "Lat": 12.8905, "Lon": 75.03489}], "Bantzenheim": [{"Name": "Bantzenheim", "Country Code": "FR", "Population": 1649.0, "Lat": 47.82452, "Lon": 7.51445}], "Banu": [{"Name": "Ban\u016b", "Country Code": "AF", "Population": 0.0, "Lat": 35.63348, "Lon": 69.26019}], "Banuelos": [{"Name": "Ba\u00f1uelos", "Country Code": "ES", "Population": 20.0, "Lat": 41.28601, "Lon": -2.91477}], "Banuelos de Bureba": [{"Name": "Ba\u00f1uelos de Bureba", "Country Code": "ES", "Population": 41.0, "Lat": 42.50258, "Lon": -3.27957}], "Banugao": [{"Name": "Banugao", "Country Code": "PH", "Population": 2795.0, "Lat": 14.74825, "Lon": 121.6184}], "Banur": [{"Name": "Ban\u016br", "Country Code": "IN", "Population": 17349.0, "Lat": 30.55407, "Lon": 76.71948}], "Banus Vallarta (Verde Vallarta)": [{"Name": "Banus Vallarta (Verde Vallarta)", "Country Code": "MX", "Population": 1315.0, "Lat": 20.71611, "Lon": -105.22306}], "Banwell": [{"Name": "Banwell", "Country Code": "GB", "Population": 1956.0, "Lat": 51.32894, "Lon": -2.86914}], "Banxi": [{"Name": "Banxi", "Country Code": "CN", "Population": 11164.0, "Lat": 28.73428, "Lon": 108.81708}], "Banyalbufar": [{"Name": "Banyalbufar", "Country Code": "ES", "Population": 568.0, "Lat": 39.68734, "Lon": 2.51409}], "Banyan Garden": [{"Name": "Banyan Garden", "Country Code": "HK", "Population": 6515.0, "Lat": 22.3346, "Lon": 114.14797}], "Banyeleu": [{"Name": "Banyeleu", "Country Code": "CI", "Population": 1139.0, "Lat": 6.87099, "Lon": -8.24156}], "Banyliv": [{"Name": "Banyliv", "Country Code": "UA", "Population": 3897.0, "Lat": 48.36221, "Lon": 25.34966}], "Banyliv-Pidhirnyi": [{"Name": "Banyliv-Pidhirnyi", "Country Code": "UA", "Population": 4012.0, "Lat": 48.08333, "Lon": 25.48333}], "Banyo": [{"Name": "Banyo", "Country Code": "AU", "Population": 5717.0, "Lat": -27.38236, "Lon": 153.07903}, {"Name": "Banyo", "Country Code": "CM", "Population": 47936.0, "Lat": 6.75, "Lon": 11.81667}], "Banyoles": [{"Name": "Banyoles", "Country Code": "ES", "Population": 18327.0, "Lat": 42.11667, "Lon": 2.76667}], "Banyuates": [{"Name": "Banyuates", "Country Code": "ID", "Population": 0.0, "Lat": -6.8967, "Lon": 113.1554}], "Banyuls de la Marenda": [{"Name": "Banyuls de la Marenda", "Country Code": "FR", "Population": 5006.0, "Lat": 42.48375, "Lon": 3.12897}], "Banyuls-dels-Aspres": [{"Name": "Banyuls-dels-Aspres", "Country Code": "FR", "Population": 1100.0, "Lat": 42.56611, "Lon": 2.86607}], "Banyumas": [{"Name": "Banyumas", "Country Code": "ID", "Population": 48378.0, "Lat": -7.51417, "Lon": 109.29417}], "Banyuresmi": [{"Name": "Banyuresmi", "Country Code": "ID", "Population": 0.0, "Lat": -7.1605, "Lon": 107.9517}], "Banyuwangi": [{"Name": "Banyuwangi", "Country Code": "ID", "Population": 117558.0, "Lat": -8.2325, "Lon": 114.35755}], "Banza Damba": [{"Name": "Banza Damba", "Country Code": "AO", "Population": 12000.0, "Lat": -6.88831, "Lon": 15.01522}], "Banzano": [{"Name": "Banzano", "Country Code": "IT", "Population": 2102.0, "Lat": 40.84338, "Lon": 14.80182}], "Banzi": [{"Name": "Banzi", "Country Code": "IT", "Population": 1381.0, "Lat": 40.86063, "Lon": 16.00976}], "Banzkow": [{"Name": "Banzkow", "Country Code": "DE", "Population": 2249.0, "Lat": 53.52497, "Lon": 11.52306}], "Bao": [{"Name": "Bao", "Country Code": "PH", "Population": 3006.0, "Lat": 13.6414, "Lon": 122.8314}], "Bao Loc": [{"Name": "B\u1ea3o L\u1ed9c", "Country Code": "VN", "Population": 151915.0, "Lat": 11.54798, "Lon": 107.80772}], "Bao'an": [{"Name": "Bao\u2019an", "Country Code": "CN", "Population": 0.0, "Lat": 36.82899, "Lon": 108.75814}], "Baocheng": [{"Name": "Baocheng", "Country Code": "CN", "Population": 0.0, "Lat": 18.64028, "Lon": 109.69944}], "Baoding": [{"Name": "Baoding", "Country Code": "CN", "Population": 17591.0, "Lat": 29.7488, "Lon": 105.75843}, {"Name": "Baoding", "Country Code": "CN", "Population": 2739887.0, "Lat": 38.87288, "Lon": 115.46246}], "Baofeng": [{"Name": "Baofeng", "Country Code": "CN", "Population": 14007.0, "Lat": 29.28065, "Lon": 105.70568}], "Baofeng Chengguanzhen": [{"Name": "Baofeng Chengguanzhen", "Country Code": "CN", "Population": 0.0, "Lat": 33.87028, "Lon": 113.06528}], "Baohe": [{"Name": "Baohe", "Country Code": "CN", "Population": 0.0, "Lat": 27.19582, "Lon": 99.32483}, {"Name": "Baohe", "Country Code": "CN", "Population": 18112.0, "Lat": 30.06084, "Lon": 107.70172}], "Baoji": [{"Name": "Baoji", "Country Code": "CN", "Population": 1437802.0, "Lat": 34.36775, "Lon": 107.23705}], "Baojia": [{"Name": "Baojia", "Country Code": "CN", "Population": 13452.0, "Lat": 30.07673, "Lon": 107.28371}, {"Name": "Baojia", "Country Code": "CN", "Population": 39738.0, "Lat": 29.43869, "Lon": 108.31324}], "Baokang": [{"Name": "Baokang", "Country Code": "CN", "Population": 0.0, "Lat": 44.11972, "Lon": 123.30472}], "Baokang Chengguanzhen": [{"Name": "Baokang Chengguanzhen", "Country Code": "CN", "Population": 0.0, "Lat": 31.87806, "Lon": 111.25639}], "Baolong": [{"Name": "Baolong", "Country Code": "CN", "Population": 19472.0, "Lat": 30.94229, "Lon": 110.00588}, {"Name": "Baolong", "Country Code": "CN", "Population": 14600.0, "Lat": 30.35498, "Lon": 105.92034}], "Baoluan": [{"Name": "Baoluan", "Country Code": "CN", "Population": 21417.0, "Lat": 29.76416, "Lon": 107.67834}], "Baoma": [{"Name": "Baoma", "Country Code": "SL", "Population": 7044.0, "Lat": 7.99344, "Lon": -11.71468}], "Baon": [{"Name": "Baon", "Country Code": "PH", "Population": 3601.0, "Lat": 6.79562, "Lon": 126.08778}], "Baone": [{"Name": "Baone", "Country Code": "IT", "Population": 728.0, "Lat": 45.24174, "Lon": 11.68463}], "Baonfla": [{"Name": "Baonfla", "Country Code": "CI", "Population": 9363.0, "Lat": 6.83328, "Lon": -5.49849}], "Baoqing": [{"Name": "Baoqing", "Country Code": "CN", "Population": 62991.0, "Lat": 46.32452, "Lon": 132.1897}], "Baoro": [{"Name": "Baoro", "Country Code": "CF", "Population": 18089.0, "Lat": 5.66667, "Lon": 15.96667}], "Baoshan": [{"Name": "Baoshan", "Country Code": "CN", "Population": 123791.0, "Lat": 46.57472, "Lon": 131.39318}, {"Name": "Baoshan", "Country Code": "CN", "Population": 0.0, "Lat": 31.40845, "Lon": 121.48956}, {"Name": "Baoshan", "Country Code": "CN", "Population": 935618.0, "Lat": 25.11626, "Lon": 99.16366}], "Baotou": [{"Name": "Baotou", "Country Code": "CN", "Population": 2150000.0, "Lat": 40.6516, "Lon": 109.84389}], "Baou": [{"Name": "Baou", "Country Code": "CI", "Population": 1534.0, "Lat": 7.26825, "Lon": -7.37117}], "Baoubli": [{"Name": "Baoubli", "Country Code": "CI", "Population": 5929.0, "Lat": 6.80566, "Lon": -7.39931}], "Baoulekofikro": [{"Name": "Baoul\u00e9kofikro", "Country Code": "CI", "Population": 1902.0, "Lat": 7.37505, "Lon": -2.97013}], "Baoutifla": [{"Name": "Baoutifla", "Country Code": "CI", "Population": 17712.0, "Lat": 7.23425, "Lon": -6.47485}], "Baoxing": [{"Name": "Baoxing", "Country Code": "CN", "Population": 18963.0, "Lat": 29.62173, "Lon": 105.69265}], "Baoying": [{"Name": "Baoying", "Country Code": "CN", "Population": 80292.0, "Lat": 33.22917, "Lon": 119.30917}], "Baoyou": [{"Name": "Baoyou", "Country Code": "CN", "Population": 0.0, "Lat": 18.74932, "Lon": 109.17172}], "Baoziba": [{"Name": "Baoziba", "Country Code": "CN", "Population": 12604.0, "Lat": 33.05794, "Lon": 104.62296}], "Bapatla": [{"Name": "B\u0101patla", "Country Code": "IN", "Population": 70117.0, "Lat": 15.90422, "Lon": 80.46743}], "Bapaume": [{"Name": "Bapaume", "Country Code": "FR", "Population": 4157.0, "Lat": 50.10379, "Lon": 2.84966}], "Bape": [{"Name": "Bap\u00e9", "Country Code": "CI", "Population": 3537.0, "Lat": 4.98131, "Lon": -7.50861}], "Baqa el Gharbiya": [{"Name": "B\u0101qa el Gharb\u012bya", "Country Code": "IL", "Population": 29950.0, "Lat": 32.41806, "Lon": 35.04312}], "Baqah ash Sharqiyah": [{"Name": "B\u0101qah ash Sharq\u012byah", "Country Code": "PS", "Population": 4165.0, "Lat": 32.41032, "Lon": 35.07054}], "Baqat al Hatab": [{"Name": "B\u0101qat al \u1e28a\u0163ab", "Country Code": "PS", "Population": 1624.0, "Lat": 32.20434, "Lon": 35.11433}], "Baqim as Suq": [{"Name": "B\u0101qim as S\u016bq", "Country Code": "YE", "Population": 0.0, "Lat": 17.39713, "Lon": 43.47743}], "Baqubah": [{"Name": "Baqubah", "Country Code": "IQ", "Population": 152550.0, "Lat": 33.75403, "Lon": 44.60518}], "Baquedano": [{"Name": "Baquedano", "Country Code": "CL", "Population": 0.0, "Lat": -23.33374, "Lon": -69.84055}], "Baquerin de Campos": [{"Name": "Baquer\u00edn de Campos", "Country Code": "ES", "Population": 23.0, "Lat": 42.016, "Lon": -4.78185}], "Baquero Norte": [{"Name": "Baquero Norte", "Country Code": "PH", "Population": 5145.0, "Lat": 15.7162, "Lon": 120.5543}], "Bar": [{"Name": "Bar", "Country Code": "ME", "Population": 17727.0, "Lat": 42.0937, "Lon": 19.09841}, {"Name": "Bar", "Country Code": "UA", "Population": 15337.0, "Lat": 49.07362, "Lon": 27.67404}], "Bar Beach": [{"Name": "Bar Beach", "Country Code": "AU", "Population": 1166.0, "Lat": -32.94128, "Lon": 151.76544}], "Bar Bigha": [{"Name": "Bar Bigha", "Country Code": "IN", "Population": 41758.0, "Lat": 25.21855, "Lon": 85.7332}], "Bar Harbor": [{"Name": "Bar Harbor", "Country Code": "US", "Population": 2552.0, "Lat": 44.38758, "Lon": -68.2039}], "Bar Hill": [{"Name": "Bar Hill", "Country Code": "GB", "Population": 4032.0, "Lat": 52.24899, "Lon": 0.02883}], "Bar Kaev": [{"Name": "Bar Kaev", "Country Code": "KH", "Population": 0.0, "Lat": 13.6862, "Lon": 107.21417}], "Bar Nunn": [{"Name": "Bar Nunn", "Country Code": "US", "Population": 2820.0, "Lat": 42.91358, "Lon": -106.34336}], "Bar Yuhay": [{"Name": "Bar Yu\u1e96ay", "Country Code": "IL", "Population": 1072.0, "Lat": 32.99848, "Lon": 35.44419}], "Bar-le-Duc": [{"Name": "Bar-le-Duc", "Country Code": "FR", "Population": 18595.0, "Lat": 48.77275, "Lon": 5.16108}], "Bar-sur-Aube": [{"Name": "Bar-sur-Aube", "Country Code": "FR", "Population": 5387.0, "Lat": 48.23315, "Lon": 4.7064}], "Bar-sur-Seine": [{"Name": "Bar-sur-Seine", "Country Code": "FR", "Population": 3838.0, "Lat": 48.11295, "Lon": 4.37656}], "Bara": [{"Name": "Bara", "Country Code": "NG", "Population": 0.0, "Lat": 10.93605, "Lon": 11.68242}, {"Name": "Bara", "Country Code": "NG", "Population": 11673.0, "Lat": 10.37444, "Lon": 10.72884}, {"Name": "B\u00e2ra", "Country Code": "RO", "Population": 4436.0, "Lat": 47.03333, "Lon": 27.05}, {"Name": "Bara", "Country Code": "RO", "Population": 374.0, "Lat": 45.89472, "Lon": 21.87194}, {"Name": "Bara", "Country Code": "SE", "Population": 3270.0, "Lat": 58.68333, "Lon": 17.06667}, {"Name": "Bara", "Country Code": "SE", "Population": 3743.0, "Lat": 55.58155, "Lon": 13.17862}], "Bara Bazar": [{"Name": "Bara Bazar", "Country Code": "IN", "Population": 7985.0, "Lat": 22.56667, "Lon": 88.35}], "Bara Datu": [{"Name": "Bara Datu", "Country Code": "ID", "Population": 0.0, "Lat": -4.74423, "Lon": 104.4964}], "Bara Uchana": [{"Name": "Bara Uch\u0101na", "Country Code": "IN", "Population": 15830.0, "Lat": 29.46747, "Lon": 76.17798}], "Bara de Chachalacas": [{"Name": "Bara de Chachalacas", "Country Code": "MX", "Population": 1433.0, "Lat": 19.40643, "Lon": -96.34159}], "Baraba": [{"Name": "Baraba", "Country Code": "RU", "Population": 1153.0, "Lat": 56.75, "Lon": 61.76667}], "Barabai": [{"Name": "Barabai", "Country Code": "ID", "Population": 60873.0, "Lat": -2.58333, "Lon": 115.38333}], "Barabant": [{"Name": "B\u0103r\u0103ban\u021b", "Country Code": "RO", "Population": 2145.0, "Lat": 46.0993, "Lon": 23.58487}], "Barabash": [{"Name": "Barabash", "Country Code": "RU", "Population": 3603.0, "Lat": 43.19948, "Lon": 131.49185}], "Barabinsk": [{"Name": "Barabinsk", "Country Code": "RU", "Population": 31508.0, "Lat": 55.35709, "Lon": 78.35697}], "Baraboi": [{"Name": "Baraboi", "Country Code": "UA", "Population": 1533.0, "Lat": 46.28769, "Lon": 30.51368}], "Baraboo": [{"Name": "Baraboo", "Country Code": "US", "Population": 12155.0, "Lat": 43.47109, "Lon": -89.74429}], "Baracatan": [{"Name": "Baracatan", "Country Code": "PH", "Population": 7298.0, "Lat": 6.9675, "Lon": 125.41583}], "Baracoa": [{"Name": "Baracoa", "Country Code": "CU", "Population": 48362.0, "Lat": 20.34711, "Lon": -74.49624}, {"Name": "Baracoa", "Country Code": "HN", "Population": 9202.0, "Lat": 15.77581, "Lon": -87.85255}], "Baracs": [{"Name": "Baracs", "Country Code": "HU", "Population": 3294.0, "Lat": 46.88202, "Lon": 18.90658}], "Baracska": [{"Name": "Baracska", "Country Code": "HU", "Population": 2701.0, "Lat": 47.28225, "Lon": 18.75853}], "Baraderes": [{"Name": "Barad\u00e8res", "Country Code": "HT", "Population": 1666.0, "Lat": 18.48255, "Lon": -73.63884}], "Baradero": [{"Name": "Baradero", "Country Code": "AR", "Population": 0.0, "Lat": -33.81199, "Lon": -59.50467}], "Baradili": [{"Name": "Baradili", "Country Code": "IT", "Population": 90.0, "Lat": 39.72189, "Lon": 8.89731}], "Baradougou": [{"Name": "Baradougou", "Country Code": "CI", "Population": 1764.0, "Lat": 8.10156, "Lon": -5.64934}], "Baraga": [{"Name": "Baraga", "Country Code": "US", "Population": 1996.0, "Lat": 46.77854, "Lon": -88.48902}], "Baraganu": [{"Name": "B\u0103r\u0103ganu", "Country Code": "RO", "Population": 948.0, "Lat": 44.08939, "Lon": 28.4198}], "Baraganul": [{"Name": "B\u0103r\u0103ganul", "Country Code": "RO", "Population": 3561.0, "Lat": 44.8, "Lon": 27.51667}], "Baragaon": [{"Name": "Bar\u0101gaon", "Country Code": "IN", "Population": 8655.0, "Lat": 25.47554, "Lon": 78.71224}, {"Name": "Bar\u0101gaon", "Country Code": "IN", "Population": 11362.0, "Lat": 25.42936, "Lon": 82.81709}], "Baraggia": [{"Name": "Baraggia", "Country Code": "IT", "Population": 1563.0, "Lat": 45.85516, "Lon": 8.90885}], "Baragiano": [{"Name": "Baragiano", "Country Code": "IT", "Population": 549.0, "Lat": 40.68001, "Lon": 15.59398}], "Baragoi": [{"Name": "Baragoi", "Country Code": "KE", "Population": 4254.0, "Lat": 1.78398, "Lon": 36.78597}], "Baragua": [{"Name": "Baragu\u00e1", "Country Code": "CU", "Population": 15268.0, "Lat": 21.68216, "Lon": -78.62567}], "Barah": [{"Name": "B\u0101rah", "Country Code": "SD", "Population": 16969.0, "Lat": 13.7, "Lon": 30.36667}], "Barahan": [{"Name": "Barahan", "Country Code": "PH", "Population": 6414.0, "Lat": 13.0121, "Lon": 120.762}], "Barahona": [{"Name": "Barahona", "Country Code": "PR", "Population": 2632.0, "Lat": 18.35134, "Lon": -66.44545}], "Barajas de Madrid": [{"Name": "Barajas de Madrid", "Country Code": "ES", "Population": 43423.0, "Lat": 40.47366, "Lon": -3.57777}], "Barajas de Melo": [{"Name": "Barajas de Melo", "Country Code": "ES", "Population": 805.0, "Lat": 40.1234, "Lon": -2.91675}], "Barajevo": [{"Name": "Barajevo", "Country Code": "RS", "Population": 0.0, "Lat": 44.57889, "Lon": 20.41583}], "Baraka": [{"Name": "Baraka", "Country Code": "ID", "Population": 0.0, "Lat": -3.4079, "Lon": 119.8559}], "Barakaldo": [{"Name": "Barakaldo", "Country Code": "ES", "Population": 98460.0, "Lat": 43.29639, "Lon": -2.98813}], "Barakani": [{"Name": "Barakani", "Country Code": "KM", "Population": 6089.0, "Lat": -12.13861, "Lon": 44.43026}, {"Name": "Barakani", "Country Code": "YT", "Population": 3153.0, "Lat": -12.83799, "Lon": 45.1312}], "Baraki": [{"Name": "Baraki", "Country Code": "DZ", "Population": 105402.0, "Lat": 36.66655, "Lon": 3.09606}], "Baraki Barak": [{"Name": "Baraki Barak", "Country Code": "AF", "Population": 22305.0, "Lat": 33.96744, "Lon": 68.9492}], "Barakodi": [{"Name": "Barakodi", "Country Code": "CI", "Population": 1166.0, "Lat": 8.45682, "Lon": -3.21546}], "Barakpur": [{"Name": "B\u0101r\u0101kpur", "Country Code": "IN", "Population": 148174.0, "Lat": 22.76602, "Lon": 88.36336}], "Barala": [{"Name": "Barala", "Country Code": "CI", "Population": 1341.0, "Lat": 8.94863, "Lon": -7.62054}, {"Name": "Barala", "Country Code": "CI", "Population": 1039.0, "Lat": 8.94864, "Lon": -7.8178}], "Baralla": [{"Name": "Baralla", "Country Code": "ES", "Population": 3146.0, "Lat": 42.89207, "Lon": -7.25492}], "Baramati": [{"Name": "B\u0101r\u0101mati", "Country Code": "IN", "Population": 53919.0, "Lat": 18.15174, "Lon": 74.57767}], "Baramula": [{"Name": "B\u0101ram\u016bla", "Country Code": "IN", "Population": 77276.0, "Lat": 34.209, "Lon": 74.34285}], "Baran": [{"Name": "B\u0101r\u0101n", "Country Code": "IN", "Population": 87478.0, "Lat": 25.1, "Lon": 76.51667}], "Baran'": [{"Name": "Baran\u2019", "Country Code": "BY", "Population": 11600.0, "Lat": 54.4784, "Lon": 30.3159}], "Baranagar": [{"Name": "Baranagar", "Country Code": "IN", "Population": 260072.0, "Lat": 22.64132, "Lon": 88.37727}], "Baranain": [{"Name": "Bara\u00f1\u00e1in", "Country Code": "ES", "Population": 20039.0, "Lat": 42.80567, "Lon": -1.67731}], "Baranca": [{"Name": "Baranca", "Country Code": "RO", "Population": 1207.0, "Lat": 48.19651, "Lon": 26.47893}], "Baranchinskiy": [{"Name": "Baranchinskiy", "Country Code": "RU", "Population": 10970.0, "Lat": 58.1617, "Lon": 59.6991}], "Barand": [{"Name": "B\u00e1r\u00e1nd", "Country Code": "HU", "Population": 2728.0, "Lat": 47.3, "Lon": 21.23333}], "Baranda": [{"Name": "Baranda", "Country Code": "RS", "Population": 1656.0, "Lat": 45.08459, "Lon": 20.44264}], "Baranduda": [{"Name": "Baranduda", "Country Code": "AU", "Population": 2311.0, "Lat": -36.19114, "Lon": 146.9538}], "Baranello": [{"Name": "Baranello", "Country Code": "IT", "Population": 684.0, "Lat": 41.52722, "Lon": 14.558}], "Barangobong": [{"Name": "Barangobong", "Country Code": "PH", "Population": 3644.0, "Lat": 15.87778, "Lon": 120.54833}], "Barani": [{"Name": "Barani", "Country Code": "BF", "Population": 5000.0, "Lat": 13.1691, "Lon": -3.8899}], "Baranivka": [{"Name": "Baranivka", "Country Code": "UA", "Population": 11161.0, "Lat": 50.29691, "Lon": 27.6622}], "Barano d'Ischia": [{"Name": "Barano d'Ischia", "Country Code": "IT", "Population": 9044.0, "Lat": 40.71472, "Lon": 13.92522}], "Baranoa": [{"Name": "Baranoa", "Country Code": "CO", "Population": 68383.0, "Lat": 10.79408, "Lon": -74.9164}], "Baranovichi": [{"Name": "Baranovichi", "Country Code": "BY", "Population": 179000.0, "Lat": 53.13253, "Lon": 26.00774}], "Baranow": [{"Name": "Baran\u00f3w", "Country Code": "PL", "Population": 1500.0, "Lat": 51.26342, "Lon": 18.0047}, {"Name": "Baran\u00f3w", "Country Code": "PL", "Population": 1672.0, "Lat": 51.55786, "Lon": 22.13625}], "Baranow Sandomierski": [{"Name": "Baran\u00f3w Sandomierski", "Country Code": "PL", "Population": 1426.0, "Lat": 50.49912, "Lon": 21.54204}], "Baranowo": [{"Name": "Baranowo", "Country Code": "PL", "Population": 1250.0, "Lat": 53.17554, "Lon": 21.29803}, {"Name": "Baranowo", "Country Code": "PL", "Population": 1331.0, "Lat": 52.43525, "Lon": 16.78631}], "Baranti": [{"Name": "Baranti", "Country Code": "ID", "Population": 0.0, "Lat": -3.8398, "Lon": 119.7838}], "Baranusa": [{"Name": "Baranusa", "Country Code": "ID", "Population": 0.0, "Lat": -8.3622, "Lon": 124.0888}], "Baranzate": [{"Name": "Baranzate", "Country Code": "IT", "Population": 11190.0, "Lat": 45.52717, "Lon": 9.11724}], "Baranzie": [{"Name": "Baranzi\u00e9", "Country Code": "CI", "Population": 2643.0, "Lat": 7.97183, "Lon": -4.51204}], "Barao de Cocais": [{"Name": "Bar\u00e3o de Cocais", "Country Code": "BR", "Population": 22387.0, "Lat": -19.94583, "Lon": -43.48722}], "Barao de Melgaco": [{"Name": "Bar\u00e3o de Melga\u00e7o", "Country Code": "BR", "Population": 4353.0, "Lat": -16.19444, "Lon": -55.9675}], "Baraolt": [{"Name": "Baraolt", "Country Code": "RO", "Population": 9429.0, "Lat": 46.07514, "Lon": 25.60029}], "Barapas": [{"Name": "Barapas", "Country Code": "ID", "Population": 0.0, "Lat": -2.199, "Lon": 137.0013}], "Baraqueville": [{"Name": "Baraqueville", "Country Code": "FR", "Population": 2782.0, "Lat": 44.27655, "Lon": 2.43184}], "Baras": [{"Name": "Baras", "Country Code": "PH", "Population": 0.0, "Lat": 13.6588, "Lon": 124.37}, {"Name": "Baras", "Country Code": "PH", "Population": 2764.0, "Lat": 11.18333, "Lon": 125.01667}, {"Name": "Baras", "Country Code": "PH", "Population": 20250.0, "Lat": 14.51691, "Lon": 121.2658}], "Barasat": [{"Name": "B\u0101r\u0101sat", "Country Code": "IN", "Population": 298127.0, "Lat": 22.72154, "Lon": 88.48198}], "Barashevo": [{"Name": "Barashevo", "Country Code": "RU", "Population": 3651.0, "Lat": 54.5325, "Lon": 42.87917}], "Barasoain": [{"Name": "Bar\u00e1soain", "Country Code": "ES", "Population": 572.0, "Lat": 42.60339, "Lon": -1.64658}], "Barasso": [{"Name": "Barasso", "Country Code": "IT", "Population": 1620.0, "Lat": 45.84048, "Lon": 8.75683}], "Barasti": [{"Name": "B\u0103r\u0103\u0219ti", "Country Code": "RO", "Population": 1099.0, "Lat": 45.25369, "Lon": 24.59651}], "Barastii de Vede": [{"Name": "B\u0103r\u0103\u0219tii de Vede", "Country Code": "RO", "Population": 370.0, "Lat": 44.71601, "Lon": 24.65919}], "Barataria": [{"Name": "Barataria", "Country Code": "US", "Population": 1109.0, "Lat": 29.72327, "Lon": -90.12369}], "Barati": [{"Name": "Bara\u021bi", "Country Code": "RO", "Population": 1503.0, "Lat": 46.57569, "Lon": 26.87118}], "Baratier": [{"Name": "Baratier", "Country Code": "CG", "Population": 1936.0, "Lat": -4.15417, "Lon": 14.90194}], "Baratili San Pietro": [{"Name": "Baratili San Pietro", "Country Code": "IT", "Population": 1290.0, "Lat": 39.9922, "Lon": 8.55586}], "Barativka": [{"Name": "Barativka", "Country Code": "UA", "Population": 1088.0, "Lat": 46.94606, "Lon": 32.77938}], "Baraton": [{"Name": "Baraton", "Country Code": "KE", "Population": 2043.0, "Lat": 0.25517, "Lon": 35.0827}], "Baratte": [{"Name": "Baratte", "Country Code": "IT", "Population": 1918.0, "Lat": 45.1116, "Lon": 7.23643}], "Barauli": [{"Name": "Barauli", "Country Code": "IN", "Population": 37302.0, "Lat": 26.38109, "Lon": 84.58648}], "Barauna": [{"Name": "Bara\u00fana", "Country Code": "BR", "Population": 14112.0, "Lat": -5.08, "Lon": -37.61667}], "Baraut": [{"Name": "Baraut", "Country Code": "IN", "Population": 93544.0, "Lat": 29.10199, "Lon": 77.26334}], "Baray": [{"Name": "Baray", "Country Code": "KH", "Population": 0.0, "Lat": 12.39429, "Lon": 105.07518}], "Baraya": [{"Name": "Baraya", "Country Code": "CO", "Population": 4402.0, "Lat": 3.15333, "Lon": -75.05306}], "Barayong": [{"Name": "Barayong", "Country Code": "PH", "Population": 2433.0, "Lat": 13.1, "Lon": 123.71667}], "Barba": [{"Name": "Barba", "Country Code": "IT", "Population": 1218.0, "Lat": 43.88291, "Lon": 10.97608}], "Barbacena": [{"Name": "Barbacena", "Country Code": "BR", "Population": 122211.0, "Lat": -21.22583, "Lon": -43.77361}], "Barbacha": [{"Name": "Barbacha", "Country Code": "DZ", "Population": 31983.0, "Lat": 36.56667, "Lon": 4.96667}], "Barbacoas": [{"Name": "Barbacoas", "Country Code": "CO", "Population": 7633.0, "Lat": 1.67154, "Lon": -78.13978}, {"Name": "Barbacoas", "Country Code": "VE", "Population": 0.0, "Lat": 9.47855, "Lon": -66.97458}], "Barbadillo de Herreros": [{"Name": "Barbadillo de Herreros", "Country Code": "ES", "Population": 151.0, "Lat": 42.14974, "Lon": -3.17702}], "Barbadillo del Mercado": [{"Name": "Barbadillo del Mercado", "Country Code": "ES", "Population": 166.0, "Lat": 42.03858, "Lon": -3.35669}], "Barbadillo del Pez": [{"Name": "Barbadillo del Pez", "Country Code": "ES", "Population": 99.0, "Lat": 42.11879, "Lon": -3.22803}], "Barbalha": [{"Name": "Barbalha", "Country Code": "BR", "Population": 33943.0, "Lat": -7.31111, "Lon": -39.30417}], "Barbalos": [{"Name": "Barbalos", "Country Code": "ES", "Population": 100.0, "Lat": 40.67678, "Lon": -5.94258}], "Barban": [{"Name": "Barban", "Country Code": "HR", "Population": 218.0, "Lat": 45.06444, "Lon": 14.01361}], "Barbania": [{"Name": "Barbania", "Country Code": "IT", "Population": 875.0, "Lat": 45.29143, "Lon": 7.6345}], "Barbara": [{"Name": "Barbara", "Country Code": "IT", "Population": 953.0, "Lat": 43.58036, "Lon": 13.02736}], "Barbarano Romano": [{"Name": "Barbarano Romano", "Country Code": "IT", "Population": 628.0, "Lat": 42.24908, "Lon": 12.06774}], "Barbarano Vicentino": [{"Name": "Barbarano Vicentino", "Country Code": "IT", "Population": 1412.0, "Lat": 45.40912, "Lon": 11.54342}], "Barbarasco": [{"Name": "Barbarasco", "Country Code": "IT", "Population": 930.0, "Lat": 44.2415, "Lon": 9.94571}], "Barbaresco": [{"Name": "Barbaresco", "Country Code": "IT", "Population": 290.0, "Lat": 44.72324, "Lon": 8.08194}], "Barbariga": [{"Name": "Barbariga", "Country Code": "IT", "Population": 1796.0, "Lat": 45.40508, "Lon": 10.05437}], "Barbaste": [{"Name": "Barbaste", "Country Code": "FR", "Population": 1605.0, "Lat": 44.1693, "Lon": 0.28603}], "Barbastro": [{"Name": "Barbastro", "Country Code": "ES", "Population": 16924.0, "Lat": 42.03565, "Lon": 0.12686}], "Barbat": [{"Name": "Barbat", "Country Code": "HR", "Population": 1140.0, "Lat": 44.73658, "Lon": 14.80091}], "Barbata": [{"Name": "Barbata", "Country Code": "IT", "Population": 586.0, "Lat": 45.47498, "Lon": 9.77736}], "Barbate": [{"Name": "Barbate", "Country Code": "ES", "Population": 22551.0, "Lat": 36.19237, "Lon": -5.92186}], "Barbatesti": [{"Name": "B\u0103rb\u0103te\u015fti", "Country Code": "RO", "Population": 3805.0, "Lat": 45.18333, "Lon": 24.11667}, {"Name": "B\u0103rb\u0103te\u015fti", "Country Code": "RO", "Population": 1886.0, "Lat": 44.86667, "Lon": 23.5}], "Barbatre": [{"Name": "Barb\u00e2tre", "Country Code": "FR", "Population": 1517.0, "Lat": 46.94359, "Lon": -2.17981}], "Barbaza": [{"Name": "Barbaza", "Country Code": "PH", "Population": 0.0, "Lat": 11.19572, "Lon": 122.03861}], "Barbazan-Debat": [{"Name": "Barbazan-Debat", "Country Code": "FR", "Population": 3399.0, "Lat": 43.1958, "Lon": 0.1206}], "Barbechat": [{"Name": "Barbechat", "Country Code": "FR", "Population": 1140.0, "Lat": 47.2775, "Lon": -1.28524}], "Barbentane": [{"Name": "Barbentane", "Country Code": "FR", "Population": 3916.0, "Lat": 43.89939, "Lon": 4.74756}], "Barber": [{"Name": "Barber", "Country Code": "CW", "Population": 2424.0, "Lat": 12.29014, "Lon": -69.07389}], "Barbera del Valles": [{"Name": "Barber\u00e0 del Vall\u00e8s", "Country Code": "ES", "Population": 31144.0, "Lat": 41.5159, "Lon": 2.12457}], "Barberaz": [{"Name": "Barberaz", "Country Code": "FR", "Population": 5059.0, "Lat": 45.56179, "Lon": 5.94306}], "Barberena": [{"Name": "Barberena", "Country Code": "GT", "Population": 47093.0, "Lat": 14.30739, "Lon": -90.36156}], "Barberi": [{"Name": "Barberi", "Country Code": "IT", "Population": 1244.0, "Lat": 42.44072, "Lon": 14.04268}], "Barberino Val d'Elsa": [{"Name": "Barberino Val d'Elsa", "Country Code": "IT", "Population": 1258.0, "Lat": 43.53987, "Lon": 11.17178}], "Barberino di Mugello": [{"Name": "Barberino di Mugello", "Country Code": "IT", "Population": 5680.0, "Lat": 43.9993, "Lon": 11.23676}], "Barberton": [{"Name": "Barberton", "Country Code": "US", "Population": 5661.0, "Lat": 45.69317, "Lon": -122.59899}, {"Name": "Barberton", "Country Code": "US", "Population": 26234.0, "Lat": 41.01283, "Lon": -81.60512}, {"Name": "Barberton", "Country Code": "ZA", "Population": 67927.0, "Lat": -25.78842, "Lon": 31.05319}], "Barbezieux-Saint-Hilaire": [{"Name": "Barbezieux-Saint-Hilaire", "Country Code": "FR", "Population": 5184.0, "Lat": 45.47265, "Lon": -0.15218}], "Barbianello": [{"Name": "Barbianello", "Country Code": "IT", "Population": 560.0, "Lat": 45.07571, "Lon": 9.20602}], "Barbiano": [{"Name": "Barbiano", "Country Code": "IT", "Population": 711.0, "Lat": 46.60412, "Lon": 11.5212}, {"Name": "Barbiano", "Country Code": "IT", "Population": 1329.0, "Lat": 44.3895, "Lon": 11.8865}], "Barbiano - Barbian": [{"Name": "Barbiano - Barbian", "Country Code": "IT", "Population": 1520.0, "Lat": 46.60332, "Lon": 11.52138}], "Barbican": [{"Name": "Barbican", "Country Code": "GB", "Population": 4000.0, "Lat": 51.51988, "Lon": -0.09446}], "Barbil": [{"Name": "Barbil", "Country Code": "IN", "Population": 52586.0, "Lat": 22.10194, "Lon": 85.37752}], "Barbing": [{"Name": "Barbing", "Country Code": "DE", "Population": 4776.0, "Lat": 49.0, "Lon": 12.2}], "Barbisano": [{"Name": "Barbisano", "Country Code": "IT", "Population": 1954.0, "Lat": 45.88224, "Lon": 12.18632}], "Barbizon": [{"Name": "Barbizon", "Country Code": "FR", "Population": 1629.0, "Lat": 48.44346, "Lon": 2.60313}], "Barboles": [{"Name": "B\u00e1rboles", "Country Code": "ES", "Population": 312.0, "Lat": 41.70898, "Lon": -1.18594}], "Barbolla": [{"Name": "Barbolla", "Country Code": "ES", "Population": 247.0, "Lat": 41.32567, "Lon": -3.67361}], "Barbona": [{"Name": "Barbona", "Country Code": "IT", "Population": 87.0, "Lat": 45.10339, "Lon": 11.70486}], "Barbosa": [{"Name": "Barbosa", "Country Code": "CO", "Population": 20372.0, "Lat": 5.93168, "Lon": -73.61507}, {"Name": "Barbosa", "Country Code": "CO", "Population": 53943.0, "Lat": 6.43809, "Lon": -75.33136}], "Barbourmeade": [{"Name": "Barbourmeade", "Country Code": "US", "Population": 1258.0, "Lat": 38.29729, "Lon": -85.60329}], "Barboursville": [{"Name": "Barboursville", "Country Code": "US", "Population": 4069.0, "Lat": 38.40953, "Lon": -82.29459}], "Barbourville": [{"Name": "Barbourville", "Country Code": "US", "Population": 3174.0, "Lat": 36.86648, "Lon": -83.88881}], "Barbues": [{"Name": "Barbu\u00e9s", "Country Code": "ES", "Population": 105.0, "Lat": 41.98085, "Lon": -0.41949}], "Barbulesti": [{"Name": "B\u0103rbule\u0219ti", "Country Code": "RO", "Population": 3753.0, "Lat": 44.72629, "Lon": 26.59929}], "Barbuletu": [{"Name": "B\u0103rbule\u0163u", "Country Code": "RO", "Population": 6777.0, "Lat": 45.13333, "Lon": 25.3}], "Barbunales": [{"Name": "Barbu\u00f1ales", "Country Code": "ES", "Population": 117.0, "Lat": 42.02563, "Lon": -0.08659}], "Barby": [{"Name": "Barby", "Country Code": "DE", "Population": 4646.0, "Lat": 51.96711, "Lon": 11.88261}, {"Name": "Barby", "Country Code": "FR", "Population": 3360.0, "Lat": 45.5681, "Lon": 5.97966}], "Barca": [{"Name": "Barca", "Country Code": "ES", "Population": 115.0, "Lat": 41.4549, "Lon": -2.62217}, {"Name": "B\u00e2rca", "Country Code": "RO", "Population": 4403.0, "Lat": 43.96667, "Lon": 23.61667}], "Barcabo": [{"Name": "B\u00e1rcabo", "Country Code": "ES", "Population": 100.0, "Lat": 42.24219, "Lon": 0.06934}], "Barcaldine": [{"Name": "Barcaldine", "Country Code": "AU", "Population": 1638.0, "Lat": -23.55353, "Lon": 145.28542}], "Barcanesti": [{"Name": "B\u0103rc\u0103ne\u015fti", "Country Code": "RO", "Population": 3936.0, "Lat": 44.63333, "Lon": 26.65}, {"Name": "B\u0103rc\u0103ne\u015fti", "Country Code": "RO", "Population": 4105.0, "Lat": 46.71667, "Lon": 26.58333}, {"Name": "B\u0103rc\u0103ne\u015fti", "Country Code": "RO", "Population": 9225.0, "Lat": 44.88333, "Lon": 26.05}], "Barcani": [{"Name": "Barcani", "Country Code": "RO", "Population": 3792.0, "Lat": 45.7, "Lon": 26.08333}], "Barcarena": [{"Name": "Barcarena", "Country Code": "BR", "Population": 29871.0, "Lat": -1.50583, "Lon": -48.62583}, {"Name": "Barcarena", "Country Code": "PT", "Population": 11968.0, "Lat": 38.73245, "Lon": -9.28}], "Barcarrota": [{"Name": "Barcarrota", "Country Code": "ES", "Population": 3643.0, "Lat": 38.51473, "Lon": -6.84923}], "Barcea": [{"Name": "Barcea", "Country Code": "RO", "Population": 5985.0, "Lat": 45.75, "Lon": 27.46667}], "Barcellona Pozzo di Gotto": [{"Name": "Barcellona Pozzo di Gotto", "Country Code": "IT", "Population": 34598.0, "Lat": 38.14772, "Lon": 15.21469}], "Barcelona": [{"Name": "Barcelona", "Country Code": "ES", "Population": 1620343.0, "Lat": 41.38879, "Lon": 2.15899}, {"Name": "Barcelona", "Country Code": "PH", "Population": 2639.0, "Lat": 13.7715, "Lon": 123.0485}, {"Name": "Barcelona", "Country Code": "PH", "Population": 3541.0, "Lat": 8.15917, "Lon": 126.43417}, {"Name": "Barcelona", "Country Code": "PH", "Population": 2255.0, "Lat": 8.5275, "Lon": 123.4587}, {"Name": "Barcelona", "Country Code": "PH", "Population": 3258.0, "Lat": 12.8683, "Lon": 124.1419}, {"Name": "Barcelona", "Country Code": "VE", "Population": 815141.0, "Lat": 10.13625, "Lon": -64.68618}], "Barceloneta": [{"Name": "Barceloneta", "Country Code": "PR", "Population": 22322.0, "Lat": 18.4505, "Lon": -66.53851}], "Barcelonne-du-Gers": [{"Name": "Barcelonne-du-Gers", "Country Code": "FR", "Population": 1379.0, "Lat": 43.70334, "Lon": -0.23632}], "Barcelonnette": [{"Name": "Barcelonnette", "Country Code": "FR", "Population": 3487.0, "Lat": 44.38691, "Lon": 6.65179}], "Barcelos": [{"Name": "Barcelos", "Country Code": "BR", "Population": 7353.0, "Lat": -0.97357, "Lon": -62.9269}, {"Name": "Barcelos", "Country Code": "PT", "Population": 19085.0, "Lat": 41.53174, "Lon": -8.61843}], "Barcena de Campos": [{"Name": "B\u00e1rcena de Campos", "Country Code": "ES", "Population": 59.0, "Lat": 42.48428, "Lon": -4.49875}], "Barcena de Cicero": [{"Name": "B\u00e1rcena de Cicero", "Country Code": "ES", "Population": 3003.0, "Lat": 43.4216, "Lon": -3.5103}], "Barcena de Pie de Concha": [{"Name": "B\u00e1rcena de Pie de Concha", "Country Code": "ES", "Population": 798.0, "Lat": 43.1258, "Lon": -4.05662}], "Barceo": [{"Name": "Barceo", "Country Code": "ES", "Population": 53.0, "Lat": 41.06108, "Lon": -6.45175}], "Barchfeld": [{"Name": "Barchfeld", "Country Code": "DE", "Population": 3397.0, "Lat": 50.82872, "Lon": 11.17955}], "Barchi": [{"Name": "Barchi", "Country Code": "IT", "Population": 551.0, "Lat": 43.6728, "Lon": 12.92823}], "Barchin del Hoyo": [{"Name": "Barch\u00edn del Hoyo", "Country Code": "ES", "Population": 115.0, "Lat": 39.66667, "Lon": -2.06667}], "Barchon": [{"Name": "Barchon", "Country Code": "BE", "Population": 1177.0, "Lat": 50.66894, "Lon": 5.7001}], "Barcial de la Loma": [{"Name": "Barcial de la Loma", "Country Code": "ES", "Population": 152.0, "Lat": 41.95139, "Lon": -5.28353}], "Barcial del Barco": [{"Name": "Barcial del Barco", "Country Code": "ES", "Population": 305.0, "Lat": 41.93353, "Lon": -5.66268}], "Barciany": [{"Name": "Barciany", "Country Code": "PL", "Population": 1100.0, "Lat": 54.21993, "Lon": 21.35347}], "Barcience": [{"Name": "Barcience", "Country Code": "ES", "Population": 92.0, "Lat": 39.98367, "Lon": -4.23437}], "Barcin": [{"Name": "Barcin", "Country Code": "PL", "Population": 7682.0, "Lat": 52.86607, "Lon": 17.94625}], "Barcis": [{"Name": "Barcis", "Country Code": "IT", "Population": 223.0, "Lat": 46.19071, "Lon": 12.56068}], "Barclayville": [{"Name": "Barclayville", "Country Code": "LR", "Population": 4692.0, "Lat": 4.67443, "Lon": -8.23306}], "Barco": [{"Name": "Barco", "Country Code": "IT", "Population": 2665.0, "Lat": 44.68833, "Lon": 10.49582}], "Barcones": [{"Name": "Barcones", "Country Code": "ES", "Population": 41.0, "Lat": 41.29146, "Lon": -2.8163}], "Barcs": [{"Name": "Barcs", "Country Code": "HU", "Population": 12116.0, "Lat": 45.96, "Lon": 17.45861}], "Barczewo": [{"Name": "Barczewo", "Country Code": "PL", "Population": 7315.0, "Lat": 53.83055, "Lon": 20.69112}], "Bard": [{"Name": "Bard", "Country Code": "IT", "Population": 135.0, "Lat": 45.60936, "Lon": 7.74491}], "Barda": [{"Name": "Barda", "Country Code": "AZ", "Population": 37372.0, "Lat": 40.37577, "Lon": 47.12619}, {"Name": "Barda", "Country Code": "RU", "Population": 8279.0, "Lat": 56.9287, "Lon": 55.5962}], "Bardai": [{"Name": "Barda\u00ef", "Country Code": "TD", "Population": 4078.0, "Lat": 21.35468, "Lon": 17.00158}], "Bardalah": [{"Name": "Bardalah", "Country Code": "PS", "Population": 1612.0, "Lat": 32.38632, "Lon": 35.48084}], "Bardallur": [{"Name": "Bardallur", "Country Code": "ES", "Population": 270.0, "Lat": 41.68423, "Lon": -1.21183}], "Bardaskan": [{"Name": "Bardaskan", "Country Code": "IR", "Population": 28233.0, "Lat": 35.26218, "Lon": 57.97075}], "Barddhaman": [{"Name": "Barddham\u0101n", "Country Code": "IN", "Population": 301725.0, "Lat": 23.25572, "Lon": 87.85691}], "Bardejov": [{"Name": "Bardejov", "Country Code": "SK", "Population": 33060.0, "Lat": 49.29175, "Lon": 21.27271}], "Bardello": [{"Name": "Bardello", "Country Code": "IT", "Population": 1377.0, "Lat": 45.83597, "Lon": 8.69683}], "Barden Ridge": [{"Name": "Barden Ridge", "Country Code": "AU", "Population": 4235.0, "Lat": -34.03413, "Lon": 151.01194}], "Bardi": [{"Name": "Bardi", "Country Code": "IT", "Population": 923.0, "Lat": 44.63138, "Lon": 9.72907}], "Bardia": [{"Name": "Bardia", "Country Code": "AU", "Population": 1604.0, "Lat": -33.97789, "Lon": 150.86306}], "Bardineto": [{"Name": "Bardineto", "Country Code": "IT", "Population": 577.0, "Lat": 44.18972, "Lon": 8.13529}], "Bardiya": [{"Name": "Bardiy\u0101", "Country Code": "NP", "Population": 0.0, "Lat": 28.30058, "Lon": 81.3536}], "Bardney": [{"Name": "Bardney", "Country Code": "GB", "Population": 1655.0, "Lat": 53.21005, "Lon": -0.32371}], "Bardo": [{"Name": "Bardo", "Country Code": "PL", "Population": 2763.0, "Lat": 50.50589, "Lon": 16.73986}], "Bardoli": [{"Name": "B\u0101rdoli", "Country Code": "IN", "Population": 57810.0, "Lat": 21.12297, "Lon": 73.11151}], "Bardolino": [{"Name": "Bardolino", "Country Code": "IT", "Population": 4873.0, "Lat": 45.54114, "Lon": 10.73298}], "Bardon": [{"Name": "Bardon", "Country Code": "AU", "Population": 9231.0, "Lat": -27.461, "Lon": 152.9792}], "Bardon Mill": [{"Name": "Bardon Mill", "Country Code": "GB", "Population": 0.0, "Lat": 54.97547, "Lon": -2.34309}], "Bardonecchia": [{"Name": "Bardonecchia", "Country Code": "IT", "Population": 2962.0, "Lat": 45.07462, "Lon": 6.69888}], "Bardonia": [{"Name": "Bardonia", "Country Code": "US", "Population": 4108.0, "Lat": 41.10954, "Lon": -73.99625}], "Bardos": [{"Name": "Bardos", "Country Code": "FR", "Population": 1453.0, "Lat": 43.47511, "Lon": -1.20354}], "Bardowick": [{"Name": "Bardowick", "Country Code": "DE", "Population": 6026.0, "Lat": 53.29354, "Lon": 10.38811}], "Bardsey": [{"Name": "Bardsey", "Country Code": "GB", "Population": 2876.0, "Lat": 53.88492, "Lon": -1.44539}], "Bardsir": [{"Name": "Bards\u012br", "Country Code": "IR", "Population": 37192.0, "Lat": 29.92266, "Lon": 56.57433}], "Bardstown": [{"Name": "Bardstown", "Country Code": "US", "Population": 13091.0, "Lat": 37.80923, "Lon": -85.4669}], "Bardwell": [{"Name": "Bardwell", "Country Code": "US", "Population": 694.0, "Lat": 36.87061, "Lon": -89.00979}], "Bardwell Park": [{"Name": "Bardwell Park", "Country Code": "AU", "Population": 2209.0, "Lat": -33.93534, "Lon": 151.12571}], "Bardwell Valley": [{"Name": "Bardwell Valley", "Country Code": "AU", "Population": 2299.0, "Lat": -33.93344, "Lon": 151.13668}], "Bardzrashen": [{"Name": "Bardzrashen", "Country Code": "AM", "Population": 1273.0, "Lat": 40.08533, "Lon": 44.57957}], "Bareggio": [{"Name": "Bareggio", "Country Code": "IT", "Population": 16546.0, "Lat": 45.47927, "Lon": 8.99789}], "Bareilly": [{"Name": "Bareilly", "Country Code": "IN", "Population": 745435.0, "Lat": 28.36678, "Lon": 79.43167}], "Barela": [{"Name": "Barela", "Country Code": "IN", "Population": 11648.0, "Lat": 23.09678, "Lon": 80.05084}], "Barellan Point": [{"Name": "Barellan Point", "Country Code": "AU", "Population": 1118.0, "Lat": -27.57196, "Lon": 152.84379}], "Barenburg": [{"Name": "Barenburg", "Country Code": "DE", "Population": 1277.0, "Lat": 52.61953, "Lon": 8.79999}], "Barendorf": [{"Name": "Barendorf", "Country Code": "DE", "Population": 2173.0, "Lat": 53.22896, "Lon": 10.52158}], "Barendrecht": [{"Name": "Barendrecht", "Country Code": "NL", "Population": 38672.0, "Lat": 51.85667, "Lon": 4.53472}], "Barengo": [{"Name": "Barengo", "Country Code": "IT", "Population": 760.0, "Lat": 45.57597, "Lon": 8.51403}], "Barenstein": [{"Name": "B\u00e4renstein", "Country Code": "DE", "Population": 2804.0, "Lat": 50.49989, "Lon": 13.02681}], "Barentin": [{"Name": "Barentin", "Country Code": "FR", "Population": 13441.0, "Lat": 49.54533, "Lon": 0.95515}], "Barenton": [{"Name": "Barenton", "Country Code": "FR", "Population": 1426.0, "Lat": 48.60027, "Lon": -0.83258}], "Barentu": [{"Name": "Barentu", "Country Code": "ER", "Population": 15891.0, "Lat": 15.10582, "Lon": 37.59067}], "Bareqet": [{"Name": "Bareqet", "Country Code": "IL", "Population": 2082.0, "Lat": 32.01839, "Lon": 34.94416}], "Baressa": [{"Name": "Baressa", "Country Code": "IT", "Population": 723.0, "Lat": 39.71308, "Lon": 8.87459}], "Barete": [{"Name": "Barete", "Country Code": "IT", "Population": 386.0, "Lat": 42.45009, "Lon": 13.28061}], "Baretswil": [{"Name": "B\u00e4retswil", "Country Code": "CH", "Population": 1313.0, "Lat": 47.33709, "Lon": 8.85645}], "Bareyo": [{"Name": "Bareyo", "Country Code": "ES", "Population": 1893.0, "Lat": 43.46686, "Lon": -3.60083}], "Barg-e Matal": [{"Name": "Barg-e Mat\u0101l", "Country Code": "AF", "Population": 0.0, "Lat": 35.67283, "Lon": 71.34339}], "Barga": [{"Name": "Barga", "Country Code": "IT", "Population": 3255.0, "Lat": 44.0731, "Lon": 10.47789}], "Bargaal": [{"Name": "Bargaal", "Country Code": "SO", "Population": 6798.0, "Lat": 11.28636, "Lon": 51.0773}], "Bargagli": [{"Name": "Bargagli", "Country Code": "IT", "Population": 1781.0, "Lat": 44.4475, "Lon": 9.09372}], "Bargano": [{"Name": "Bargano", "Country Code": "IT", "Population": 1087.0, "Lat": 45.24031, "Lon": 9.44689}], "Bargara": [{"Name": "Bargara", "Country Code": "AU", "Population": 8170.0, "Lat": -24.81476, "Lon": 152.46257}], "Bargarh": [{"Name": "Bargarh", "Country Code": "IN", "Population": 68670.0, "Lat": 21.33348, "Lon": 83.61905}], "Bargas": [{"Name": "Bargas", "Country Code": "ES", "Population": 7731.0, "Lat": 39.94113, "Lon": -4.01979}], "Bargauani": [{"Name": "B\u00e2rg\u0103uani", "Country Code": "RO", "Population": 1009.0, "Lat": 46.98333, "Lon": 26.63333}], "Barge": [{"Name": "Barge", "Country Code": "IT", "Population": 3950.0, "Lat": 44.72786, "Lon": 7.32283}], "Bargeddie": [{"Name": "Bargeddie", "Country Code": "GB", "Population": 2670.0, "Lat": 55.85366, "Lon": -4.07846}], "Bargemon": [{"Name": "Bargemon", "Country Code": "FR", "Population": 1316.0, "Lat": 43.61899, "Lon": 6.54957}], "Barger-Oosterveld": [{"Name": "Barger-Oosterveld", "Country Code": "NL", "Population": 3090.0, "Lat": 52.77, "Lon": 6.95833}], "Bargeres": [{"Name": "Bargeres", "Country Code": "NL", "Population": 9060.0, "Lat": 52.76152, "Lon": 6.88145}], "Bargersville": [{"Name": "Bargersville", "Country Code": "US", "Population": 6846.0, "Lat": 39.52088, "Lon": -86.16777}], "Bargfeld-Stegen": [{"Name": "Bargfeld-Stegen", "Country Code": "DE", "Population": 2917.0, "Lat": 53.76778, "Lon": 10.1875}], "Barghat": [{"Name": "Bargh\u0101t", "Country Code": "IN", "Population": 11219.0, "Lat": 22.03065, "Lon": 79.7328}], "Barghe": [{"Name": "Barghe", "Country Code": "IT", "Population": 867.0, "Lat": 45.67833, "Lon": 10.40775}], "Barghis": [{"Name": "B\u00e2rghi\u015f", "Country Code": "RO", "Population": 0.0, "Lat": 45.98333, "Lon": 24.53333}], "Bargi": [{"Name": "Bargi", "Country Code": "IN", "Population": 17588.0, "Lat": 22.99138, "Lon": 79.8755}], "Bargny": [{"Name": "Bargny", "Country Code": "SN", "Population": 51188.0, "Lat": 14.69707, "Lon": -17.23015}], "Bargny Guedj": [{"Name": "Bargny Gu\u00e8dj", "Country Code": "SN", "Population": 51188.0, "Lat": 14.68698, "Lon": -17.22808}], "Bargny Ngoude": [{"Name": "Bargny Ngoude", "Country Code": "SN", "Population": 51188.0, "Lat": 14.69407, "Lon": -17.2353}], "Bargo": [{"Name": "Bargo", "Country Code": "AU", "Population": 4335.0, "Lat": -34.29301, "Lon": 150.57806}], "Bargoed": [{"Name": "Bargoed", "Country Code": "GB", "Population": 13412.0, "Lat": 51.68333, "Lon": -3.23333}], "Bargota": [{"Name": "Bargota", "Country Code": "ES", "Population": 377.0, "Lat": 42.55982, "Lon": -2.31067}], "Bargstedt": [{"Name": "Bargstedt", "Country Code": "DE", "Population": 2117.0, "Lat": 53.46667, "Lon": 9.45}], "Bargteheide": [{"Name": "Bargteheide", "Country Code": "DE", "Population": 13640.0, "Lat": 53.72856, "Lon": 10.26695}], "Barguzin": [{"Name": "Barguzin", "Country Code": "RU", "Population": 6052.0, "Lat": 53.61875, "Lon": 109.63904}], "Barh": [{"Name": "B\u0101rh", "Country Code": "IN", "Population": 49557.0, "Lat": 25.48339, "Lon": 85.70928}], "Barham": [{"Name": "Barham", "Country Code": "AU", "Population": 1534.0, "Lat": -35.62647, "Lon": 144.12895}, {"Name": "Barham", "Country Code": "GB", "Population": 1114.0, "Lat": 51.2057, "Lon": 1.15734}], "Barhana": [{"Name": "Barhana", "Country Code": "CI", "Population": 1284.0, "Lat": 8.17194, "Lon": -6.81278}], "Barhi": [{"Name": "Barhi", "Country Code": "IN", "Population": 12136.0, "Lat": 23.90326, "Lon": 80.81516}], "Barhiya": [{"Name": "Barhiya", "Country Code": "IN", "Population": 43045.0, "Lat": 25.28814, "Lon": 86.02055}], "Bari": [{"Name": "B\u0101ri", "Country Code": "IN", "Population": 56136.0, "Lat": 26.64661, "Lon": 77.61634}, {"Name": "Bari", "Country Code": "IT", "Population": 316491.0, "Lat": 41.12066, "Lon": 16.86982}], "Bari Sadri": [{"Name": "Bari S\u0101dri", "Country Code": "IN", "Population": 15616.0, "Lat": 24.41339, "Lon": 74.47331}], "Bari Sardo": [{"Name": "Bari Sardo", "Country Code": "IT", "Population": 3374.0, "Lat": 39.84135, "Lon": 9.64606}], "Bariadi": [{"Name": "Bariadi", "Country Code": "TZ", "Population": 33865.0, "Lat": -2.8, "Lon": 33.98333}], "Bariano": [{"Name": "Bariano", "Country Code": "IT", "Population": 4263.0, "Lat": 45.51258, "Lon": 9.70366}], "Bariarpur": [{"Name": "Bari\u0101rpur", "Country Code": "IN", "Population": 14595.0, "Lat": 25.28791, "Lon": 86.57643}], "Baribour": [{"Name": "Baribour", "Country Code": "KH", "Population": 0.0, "Lat": 12.43758, "Lon": 104.46286}], "Baric": [{"Name": "Bari\u010d", "Country Code": "RS", "Population": 5033.0, "Lat": 44.6507, "Lon": 20.25941}], "Barice": [{"Name": "Barice", "Country Code": "BA", "Population": 3697.0, "Lat": 44.54065, "Lon": 18.48069}, {"Name": "Barice", "Country Code": "RS", "Population": 1044.0, "Lat": 45.18189, "Lon": 21.08279}], "Baricella": [{"Name": "Baricella", "Country Code": "IT", "Population": 3783.0, "Lat": 44.6482, "Lon": 11.538}], "Barichara": [{"Name": "Barichara", "Country Code": "CO", "Population": 4149.0, "Lat": 6.63572, "Lon": -73.22282}], "Barika": [{"Name": "Barika", "Country Code": "DZ", "Population": 98141.0, "Lat": 35.38901, "Lon": 5.36584}], "Barikin": [{"Name": "Barikin", "Country Code": "ID", "Population": 0.0, "Lat": -2.67986, "Lon": 115.32503}], "Barikokro": [{"Name": "Barikokro", "Country Code": "CI", "Population": 1547.0, "Lat": 7.24989, "Lon": -4.03464}], "Barile": [{"Name": "Barile", "Country Code": "IT", "Population": 2665.0, "Lat": 40.94327, "Lon": 15.67167}], "Barili": [{"Name": "Barili", "Country Code": "PH", "Population": 7588.0, "Lat": 10.115, "Lon": 123.5103}], "Barillas": [{"Name": "Barillas", "Country Code": "ES", "Population": 212.0, "Lat": 41.96667, "Lon": -1.63333}, {"Name": "Barillas", "Country Code": "GT", "Population": 14100.0, "Lat": 15.80361, "Lon": -91.31583}], "Barilovic": [{"Name": "Barilovi\u0107", "Country Code": "HR", "Population": 295.0, "Lat": 45.38333, "Lon": 15.55}], "Barimba": [{"Name": "Barimba", "Country Code": "ID", "Population": 0.0, "Lat": -2.9418, "Lon": 114.4427}], "Barinas": [{"Name": "Barinas", "Country Code": "VE", "Population": 397279.0, "Lat": 8.62261, "Lon": -70.20749}], "Baringo": [{"Name": "Baringo", "Country Code": "KE", "Population": 7656.0, "Lat": 0.46667, "Lon": 35.96667}], "Barinitas": [{"Name": "Barinitas", "Country Code": "VE", "Population": 51556.0, "Lat": 8.76171, "Lon": -70.41199}], "Bariometo": [{"Name": "Bariometo", "Country Code": "MX", "Population": 1171.0, "Lat": 24.76695, "Lon": -107.66254}], "Bariq": [{"Name": "Bariq", "Country Code": "SA", "Population": 75351.0, "Lat": 18.92966, "Lon": 41.92953}], "Barira": [{"Name": "Barira", "Country Code": "PH", "Population": 3717.0, "Lat": 7.48722, "Lon": 124.29917}], "Bariri": [{"Name": "Bariri", "Country Code": "BR", "Population": 28801.0, "Lat": -22.07444, "Lon": -48.74028}], "Barisciano": [{"Name": "Barisciano", "Country Code": "IT", "Population": 1250.0, "Lat": 42.32465, "Lon": 13.59036}], "Barishal": [{"Name": "Barishal", "Country Code": "BD", "Population": 202242.0, "Lat": 22.70497, "Lon": 90.37013}, {"Name": "Barishal", "Country Code": "PK", "Population": 2005.0, "Lat": 36.32162, "Lon": 74.69502}], "Baristepe": [{"Name": "Bar\u0131\u015ftepe", "Country Code": "TR", "Population": 1452.0, "Lat": 37.48273, "Lon": 41.40201}], "Bariswil": [{"Name": "B\u00e4riswil", "Country Code": "CH", "Population": 1036.0, "Lat": 47.01947, "Lon": 7.52709}], "Bariw": [{"Name": "Bariw", "Country Code": "PH", "Population": 2070.0, "Lat": 13.13333, "Lon": 123.73333}], "Barjac": [{"Name": "Barjac", "Country Code": "FR", "Population": 1503.0, "Lat": 44.30841, "Lon": 4.34774}], "Barjala": [{"Name": "Barjala", "Country Code": "IN", "Population": 17998.0, "Lat": 23.6182, "Lon": 91.35596}], "Barjas": [{"Name": "Barjas", "Country Code": "ES", "Population": 355.0, "Lat": 42.61182, "Lon": -6.97979}], "Barjols": [{"Name": "Barjols", "Country Code": "FR", "Population": 2619.0, "Lat": 43.55805, "Lon": 6.00752}], "Barjora": [{"Name": "Barjora", "Country Code": "IN", "Population": 12294.0, "Lat": 23.42754, "Lon": 87.29037}], "Barjouville": [{"Name": "Barjouville", "Country Code": "FR", "Population": 1473.0, "Lat": 48.41002, "Lon": 1.47639}], "Bark": [{"Name": "Bark", "Country Code": "DE", "Population": 1017.0, "Lat": 53.91146, "Lon": 10.17949}], "Barka Kana": [{"Name": "Bark\u0101 K\u0101n\u0101", "Country Code": "IN", "Population": 18182.0, "Lat": 23.62118, "Lon": 85.46748}], "Barka'": [{"Name": "Bark\u0101\u2019", "Country Code": "OM", "Population": 81647.0, "Lat": 23.67872, "Lon": 57.88605}], "Barkaker": [{"Name": "Bark\u00e5ker", "Country Code": "NO", "Population": 1238.0, "Lat": 59.31859, "Lon": 10.38963}], "Barkam": [{"Name": "Barkam", "Country Code": "CN", "Population": 0.0, "Lat": 31.90059, "Lon": 102.22092}], "Barkaroe": [{"Name": "Barkar\u00f6", "Country Code": "SE", "Population": 1404.0, "Lat": 59.54935, "Lon": 16.5074}], "Barkelsby": [{"Name": "Barkelsby", "Country Code": "DE", "Population": 1564.0, "Lat": 54.5, "Lon": 9.83333}], "Barker Heights": [{"Name": "Barker Heights", "Country Code": "US", "Population": 1254.0, "Lat": 35.31123, "Lon": -82.44401}], "Barkewol": [{"Name": "Bark\u00e9wol", "Country Code": "MR", "Population": 3622.0, "Lat": 16.64039, "Lon": -12.49849}], "Barkham": [{"Name": "Barkham", "Country Code": "GB", "Population": 0.0, "Lat": 51.39805, "Lon": -0.8759}], "Barkhan": [{"Name": "Barkhan", "Country Code": "PK", "Population": 8760.0, "Lat": 29.89773, "Lon": 69.52558}], "Barkhera Kalan": [{"Name": "Barkhera Kal\u0101n", "Country Code": "IN", "Population": 11209.0, "Lat": 28.45209, "Lon": 79.80655}], "Barki Saria": [{"Name": "Barki Saria", "Country Code": "IN", "Population": 24134.0, "Lat": 24.17594, "Lon": 85.88938}], "Barkin Ladi": [{"Name": "Barkin Ladi", "Country Code": "NG", "Population": 0.0, "Lat": 9.53812, "Lon": 8.8927}], "Barking": [{"Name": "Barking", "Country Code": "GB", "Population": 61000.0, "Lat": 51.53333, "Lon": 0.08333}], "Barkingside": [{"Name": "Barkingside", "Country Code": "GB", "Population": 12609.0, "Lat": 51.58131, "Lon": 0.0686}], "Barkisland": [{"Name": "Barkisland", "Country Code": "GB", "Population": 1004.0, "Lat": 53.67614, "Lon": -1.9184}], "Barkly East": [{"Name": "Barkly East", "Country Code": "ZA", "Population": 11965.0, "Lat": -30.9683, "Lon": 27.59567}], "Barkly West": [{"Name": "Barkly West", "Country Code": "ZA", "Population": 11621.0, "Lat": -28.53537, "Lon": 24.52151}], "Barkol": [{"Name": "Barkol", "Country Code": "CN", "Population": 0.0, "Lat": 43.59881, "Lon": 93.00862}], "Barkot": [{"Name": "Barkot", "Country Code": "IN", "Population": 7725.0, "Lat": 30.80861, "Lon": 78.20596}], "Barla": [{"Name": "B\u00e2rla", "Country Code": "RO", "Population": 5795.0, "Lat": 44.42606, "Lon": 24.77743}, {"Name": "Barla", "Country Code": "TR", "Population": 0.0, "Lat": 38.01778, "Lon": 30.78278}], "Barlad": [{"Name": "B\u00e2rlad", "Country Code": "RO", "Population": 67818.0, "Lat": 46.23175, "Lon": 27.66907}], "Barlassina": [{"Name": "Barlassina", "Country Code": "IT", "Population": 6826.0, "Lat": 45.65558, "Lon": 9.12878}], "Barlaston": [{"Name": "Barlaston", "Country Code": "GB", "Population": 1979.0, "Lat": 52.942, "Lon": -2.1705}], "Barlborough": [{"Name": "Barlborough", "Country Code": "GB", "Population": 2975.0, "Lat": 53.28795, "Lon": -1.28815}], "Barlby": [{"Name": "Barlby", "Country Code": "GB", "Population": 3860.0, "Lat": 53.79964, "Lon": -1.04061}], "Barleben": [{"Name": "Barleben", "Country Code": "DE", "Population": 5895.0, "Lat": 52.20193, "Lon": 11.6177}], "Barlestone": [{"Name": "Barlestone", "Country Code": "GB", "Population": 2607.0, "Lat": 52.64718, "Lon": -1.37013}], "Barletta": [{"Name": "Barletta", "Country Code": "IT", "Population": 93279.0, "Lat": 41.31429, "Lon": 16.28165}], "Barlig": [{"Name": "Barlig", "Country Code": "PH", "Population": 6168.0, "Lat": 17.03725, "Lon": 121.10384}], "Barlin": [{"Name": "Barlin", "Country Code": "FR", "Population": 7734.0, "Lat": 50.45238, "Lon": 2.61955}], "Barlinek": [{"Name": "Barlinek", "Country Code": "PL", "Population": 14385.0, "Lat": 52.99464, "Lon": 15.21864}], "Barling": [{"Name": "Barling", "Country Code": "US", "Population": 4740.0, "Lat": 35.32565, "Lon": -94.3016}], "Barlogu": [{"Name": "B\u00e2rlogu", "Country Code": "RO", "Population": 1193.0, "Lat": 44.62658, "Lon": 25.08066}], "Barlovento": [{"Name": "Barlovento", "Country Code": "ES", "Population": 2334.0, "Lat": 28.82708, "Lon": -17.80377}], "Barma": [{"Name": "Barma", "Country Code": "SL", "Population": 7529.0, "Lat": 8.34959, "Lon": -11.33059}], "Barmash": [{"Name": "Barmash", "Country Code": "AL", "Population": 0.0, "Lat": 40.27778, "Lon": 20.61833}], "Barmbek-Nord": [{"Name": "Barmbek-Nord", "Country Code": "DE", "Population": 40261.0, "Lat": 53.6052, "Lon": 10.03988}], "Barmbek-Sued": [{"Name": "Barmbek-S\u00fcd", "Country Code": "DE", "Population": 35880.0, "Lat": 53.58007, "Lon": 10.04067}], "Barmby on the Marsh": [{"Name": "Barmby on the Marsh", "Country Code": "GB", "Population": 372.0, "Lat": 53.74896, "Lon": -0.95607}], "Barmer": [{"Name": "B\u0101rmer", "Country Code": "IN", "Population": 89487.0, "Lat": 25.74572, "Lon": 71.39211}], "Barmera": [{"Name": "Barmera", "Country Code": "AU", "Population": 2953.0, "Lat": -34.25562, "Lon": 140.46147}], "Barmouth": [{"Name": "Barmouth", "Country Code": "GB", "Population": 2315.0, "Lat": 52.72377, "Lon": -4.05748}], "Barmstedt": [{"Name": "Barmstedt", "Country Code": "DE", "Population": 9521.0, "Lat": 53.79209, "Lon": 9.76739}], "Barmston": [{"Name": "Barmston", "Country Code": "GB", "Population": 0.0, "Lat": 54.01412, "Lon": -0.22857}], "Barna": [{"Name": "B\u00e2rna", "Country Code": "RO", "Population": 1531.0, "Lat": 45.71667, "Lon": 22.05}], "Barnack": [{"Name": "Barnack", "Country Code": "GB", "Population": 752.0, "Lat": 52.63181, "Lon": -0.40821}], "Barnala": [{"Name": "Barn\u0101la", "Country Code": "IN", "Population": 105016.0, "Lat": 30.37451, "Lon": 75.5487}], "Barnard Castle": [{"Name": "Barnard Castle", "Country Code": "GB", "Population": 7040.0, "Lat": 54.5415, "Lon": -1.919}], "Barnau": [{"Name": "B\u00e4rnau", "Country Code": "DE", "Population": 3475.0, "Lat": 49.81079, "Lon": 12.43318}], "Barnaul": [{"Name": "Barnaul", "Country Code": "RU", "Population": 632372.0, "Lat": 53.36056, "Lon": 83.76361}], "Barnburgh": [{"Name": "Barnburgh", "Country Code": "GB", "Population": 1924.0, "Lat": 53.52408, "Lon": -1.273}], "Barnegat": [{"Name": "Barnegat", "Country Code": "US", "Population": 2817.0, "Lat": 39.75318, "Lon": -74.22292}], "Barnes": [{"Name": "Barnes", "Country Code": "GB", "Population": 21218.0, "Lat": 51.47352, "Lon": -0.24839}], "Barnes Lake-Millers Lake": [{"Name": "Barnes Lake-Millers Lake", "Country Code": "US", "Population": 1093.0, "Lat": 43.17956, "Lon": -83.3123}], "Barnesboro": [{"Name": "Barnesboro", "Country Code": "US", "Population": 2534.0, "Lat": 40.66257, "Lon": -78.78003}], "Barnesville": [{"Name": "Barnesville", "Country Code": "US", "Population": 6625.0, "Lat": 33.05457, "Lon": -84.15575}, {"Name": "Barnesville", "Country Code": "US", "Population": 4125.0, "Lat": 39.98813, "Lon": -81.1765}, {"Name": "Barnesville", "Country Code": "US", "Population": 2577.0, "Lat": 46.65218, "Lon": -96.41979}], "Barnet": [{"Name": "Barnet", "Country Code": "GB", "Population": 30000.0, "Lat": 51.65, "Lon": -0.2}], "Barnetby le Wold": [{"Name": "Barnetby le Wold", "Country Code": "GB", "Population": 1741.0, "Lat": 53.5748, "Lon": -0.40607}], "Barneveld": [{"Name": "Barneveld", "Country Code": "NL", "Population": 35095.0, "Lat": 52.14, "Lon": 5.58472},