{"Tieli": [{"Name": "Tieli", "Country Code": "CN", "Population": 109636.0, "Lat": 46.97544, "Lon": 128.04804}], "Tieling": [{"Name": "Tieling", "Country Code": "CN", "Population": 333907.0, "Lat": 42.29306, "Lon": 123.84139}], "Tielmes": [{"Name": "Tielmes", "Country Code": "ES", "Population": 2359.0, "Lat": 40.24652, "Lon": -3.31461}], "Tielou": [{"Name": "Tielou", "Country Code": "CN", "Population": 8244.0, "Lat": 32.90665, "Lon": 104.46445}], "Tielrode": [{"Name": "Tielrode", "Country Code": "BE", "Population": 3804.0, "Lat": 51.11303, "Lon": 4.17707}], "Tielt": [{"Name": "Tielt", "Country Code": "BE", "Population": 5053.0, "Lat": 50.9421, "Lon": 4.90505}, {"Name": "Tielt", "Country Code": "BE", "Population": 19299.0, "Lat": 50.99931, "Lon": 3.32707}], "Tiema": [{"Name": "Ti\u00e9ma", "Country Code": "CI", "Population": 3152.0, "Lat": 8.02044, "Lon": -6.10892}], "Tieme": [{"Name": "Ti\u00e9me", "Country Code": "CI", "Population": 8123.0, "Lat": 9.54452, "Lon": -7.31778}], "Tiemelekro": [{"Name": "Ti\u00e9m\u00e9l\u00e9kro", "Country Code": "CI", "Population": 10856.0, "Lat": 6.49214, "Lon": -4.61985}], "Tiemen": [{"Name": "Tiemen", "Country Code": "CN", "Population": 5212.0, "Lat": 30.50249, "Lon": 107.71074}], "Tien Hai": [{"Name": "Ti\u1ec1n H\u1ea3i", "Country Code": "VN", "Population": 0.0, "Lat": 20.40557, "Lon": 106.50365}], "Tien Lang": [{"Name": "Ti\u00ean L\u00e3ng", "Country Code": "VN", "Population": 0.0, "Lat": 20.72464, "Lon": 106.55391}], "Tien Oula": [{"Name": "Ti\u00e9n Oula", "Country Code": "CI", "Population": 3688.0, "Lat": 6.74177, "Lon": -7.04076}], "Tien Phuoc": [{"Name": "Ti\u00ean Ph\u01b0\u1edbc", "Country Code": "VN", "Population": 0.0, "Lat": 15.48819, "Lon": 108.30736}], "Tienen": [{"Name": "Tienen", "Country Code": "BE", "Population": 31743.0, "Lat": 50.80745, "Lon": 4.9378}], "Tienguedougou": [{"Name": "Tiengu\u00e9dougou", "Country Code": "CI", "Population": 2251.0, "Lat": 8.39199, "Lon": -4.74843}], "Tieningboue": [{"Name": "Ti\u00e9ningbou\u00e9", "Country Code": "CI", "Population": 9692.0, "Lat": 8.17838, "Lon": -5.72147}], "Tienko": [{"Name": "Tienko", "Country Code": "CI", "Population": 3952.0, "Lat": 10.22472, "Lon": -7.4825}], "Tienkouakrou": [{"Name": "Tienkouakrou", "Country Code": "CI", "Population": 2116.0, "Lat": 7.21892, "Lon": -3.06483}], "Tienray": [{"Name": "Tienray", "Country Code": "NL", "Population": 1040.0, "Lat": 51.495, "Lon": 6.09306}], "Tienvolokaha": [{"Name": "Tienvolokaha", "Country Code": "CI", "Population": 1547.0, "Lat": 8.76177, "Lon": -6.38725}], "Tieny-Seably": [{"Name": "Ti\u00e9ny-S\u00e9ably", "Country Code": "CI", "Population": 2310.0, "Lat": 7.37758, "Lon": -7.4544}], "Tieouleoula": [{"Name": "Ti\u00e9oul\u00e9oula", "Country Code": "CI", "Population": 3273.0, "Lat": 5.73615, "Lon": -7.4018}], "Tiep": [{"Name": "Tiep", "Country Code": "PH", "Population": 2178.0, "Lat": 16.2382, "Lon": 119.8609}], "Tiepa": [{"Name": "Ti\u00e9pa", "Country Code": "CI", "Population": 1577.0, "Lat": 6.23694, "Lon": -5.92107}], "Tiepli": [{"Name": "Ti\u00e9pli", "Country Code": "CI", "Population": 1240.0, "Lat": 7.54151, "Lon": -5.0055}], "Tieqiao": [{"Name": "Tieqiao", "Country Code": "CN", "Population": 42085.0, "Lat": 31.04001, "Lon": 108.13362}], "Tierce": [{"Name": "Tierc\u00e9", "Country Code": "FR", "Population": 3936.0, "Lat": 47.6157, "Lon": -0.46787}], "Tiergarten": [{"Name": "Tiergarten", "Country Code": "DE", "Population": 14940.0, "Lat": 52.51667, "Lon": 13.36667}], "Tieri": [{"Name": "Tieri", "Country Code": "AU", "Population": 1685.0, "Lat": -23.03829, "Lon": 148.34463}], "Tierouma": [{"Name": "Ti\u00e9rouma", "Country Code": "CI", "Population": 1077.0, "Lat": 7.88644, "Lon": -5.97115}], "Tierp": [{"Name": "Tierp", "Country Code": "SE", "Population": 5826.0, "Lat": 60.34269, "Lon": 17.51812}], "Tierra Amarilla": [{"Name": "Tierra Amarilla", "Country Code": "US", "Population": 382.0, "Lat": 36.70029, "Lon": -106.54976}], "Tierra Blanca": [{"Name": "Tierra Blanca", "Country Code": "MX", "Population": 1165.0, "Lat": 20.875, "Lon": -97.46}, {"Name": "Tierra Blanca", "Country Code": "MX", "Population": 1361.0, "Lat": 23.82722, "Lon": -103.07667}, {"Name": "Tierra Blanca", "Country Code": "MX", "Population": 2058.0, "Lat": 21.10006, "Lon": -100.15931}, {"Name": "Tierra Blanca", "Country Code": "MX", "Population": 1718.0, "Lat": 21.15943, "Lon": -97.91993}, {"Name": "Tierra Blanca", "Country Code": "MX", "Population": 47824.0, "Lat": 18.44771, "Lon": -96.35912}, {"Name": "Tierra Blanca", "Country Code": "MX", "Population": 1061.0, "Lat": 27.18773, "Lon": -109.34514}, {"Name": "Tierra Blanca", "Country Code": "MX", "Population": 1366.0, "Lat": 19.50667, "Lon": -99.58389}, {"Name": "Tierra Blanca", "Country Code": "MX", "Population": 2327.0, "Lat": 22.34796, "Lon": -102.06536}, {"Name": "Tierra Blanca", "Country Code": "MX", "Population": 2955.0, "Lat": 20.78026, "Lon": -100.38}, {"Name": "Tierra Blanca", "Country Code": "MX", "Population": 1240.0, "Lat": 18.97222, "Lon": -99.59194}], "Tierra Blanca Booxter": [{"Name": "Tierra Blanca Booxter", "Country Code": "MX", "Population": 1602.0, "Lat": 20.99479, "Lon": -97.71681}], "Tierra Buena": [{"Name": "Tierra Buena", "Country Code": "US", "Population": 5797.0, "Lat": 39.14878, "Lon": -121.66691}], "Tierra Colorada": [{"Name": "Tierra Colorada", "Country Code": "MX", "Population": 1106.0, "Lat": 18.2695, "Lon": -99.47783}, {"Name": "Tierra Colorada", "Country Code": "MX", "Population": 1281.0, "Lat": 19.22544, "Lon": -96.36929}, {"Name": "Tierra Colorada", "Country Code": "MX", "Population": 11540.0, "Lat": 17.16571, "Lon": -99.52791}], "Tierra Fria": [{"Name": "Tierra Fr\u00eda", "Country Code": "MX", "Population": 3415.0, "Lat": 20.46145, "Lon": -101.03927}], "Tierra Larga (Campo Nuevo)": [{"Name": "Tierra Larga (Campo Nuevo)", "Country Code": "MX", "Population": 1052.0, "Lat": 18.86444, "Lon": -98.94806}], "Tierra Negra": [{"Name": "Tierra Negra", "Country Code": "MX", "Population": 1079.0, "Lat": 20.24333, "Lon": -97.95667}], "Tierra Nueva": [{"Name": "Tierra Nueva", "Country Code": "MX", "Population": 1210.0, "Lat": 19.93925, "Lon": -97.01644}, {"Name": "Tierra Nueva", "Country Code": "MX", "Population": 5261.0, "Lat": 21.66904, "Lon": -100.57287}, {"Name": "Tierra Nueva", "Country Code": "MX", "Population": 1159.0, "Lat": 18.2082, "Lon": -95.02201}], "Tierra Verde": [{"Name": "Tierra Verde", "Country Code": "US", "Population": 3721.0, "Lat": 27.69197, "Lon": -82.72343}], "Tierra y Libertad": [{"Name": "Tierra y Libertad", "Country Code": "MX", "Population": 2600.0, "Lat": 16.37889, "Lon": -93.86056}], "Tierralta": [{"Name": "Tierralta", "Country Code": "CO", "Population": 26242.0, "Lat": 8.17361, "Lon": -76.05917}], "Tierras Coloradas": [{"Name": "Tierras Coloradas", "Country Code": "MX", "Population": 1546.0, "Lat": 20.72889, "Lon": -102.86083}], "Tierras Coloradas (San Pedro)": [{"Name": "Tierras Coloradas (San Pedro)", "Country Code": "MX", "Population": 1120.0, "Lat": 19.71889, "Lon": -100.64639}], "Tierras Nuevas Poniente": [{"Name": "Tierras Nuevas Poniente", "Country Code": "PR", "Population": 2366.0, "Lat": 18.46189, "Lon": -66.4885}], "Tierz": [{"Name": "Tierz", "Country Code": "ES", "Population": 314.0, "Lat": 42.13356, "Lon": -0.35489}], "Tierzo": [{"Name": "Tierzo", "Country Code": "ES", "Population": 50.0, "Lat": 40.74925, "Lon": -1.93069}], "Tieschen": [{"Name": "Tieschen", "Country Code": "AT", "Population": 333.0, "Lat": 46.78611, "Lon": 15.94222}], "Tieshan": [{"Name": "Tieshan", "Country Code": "CN", "Population": 15669.0, "Lat": 29.68947, "Lon": 105.501}], "Tieshangang": [{"Name": "Tieshangang", "Country Code": "CN", "Population": 0.0, "Lat": 21.53305, "Lon": 109.4168}], "Tiessou": [{"Name": "Ti\u00e9ssou", "Country Code": "CI", "Population": 1031.0, "Lat": 7.51764, "Lon": -5.65598}], "Tietar": [{"Name": "Ti\u00e9tar", "Country Code": "ES", "Population": 0.0, "Lat": 40.02945, "Lon": -5.48192}], "Tiete": [{"Name": "Tiet\u00ea", "Country Code": "BR", "Population": 32061.0, "Lat": -23.10194, "Lon": -47.71472}], "Tieton": [{"Name": "Tieton", "Country Code": "US", "Population": 1253.0, "Lat": 46.70207, "Lon": -120.75535}], "Tieu Can": [{"Name": "Ti\u1ec3u C\u1ea7n", "Country Code": "VN", "Population": 0.0, "Lat": 9.81166, "Lon": 106.19067}], "Tieupleu": [{"Name": "Tieupleu", "Country Code": "CI", "Population": 10033.0, "Lat": 7.04069, "Lon": -8.15318}], "Tievopleu I": [{"Name": "Ti\u00e9vopleu I", "Country Code": "CI", "Population": 1694.0, "Lat": 7.0802, "Lon": -8.13699}], "Tiexi": [{"Name": "Tiexi", "Country Code": "CN", "Population": 0.0, "Lat": 43.14569, "Lon": 124.3448}], "Tifesti": [{"Name": "\u0162ife\u015fti", "Country Code": "RO", "Population": 5202.0, "Lat": 45.85, "Lon": 27.1}], "Tiffauges": [{"Name": "Tiffauges", "Country Code": "FR", "Population": 1437.0, "Lat": 47.01288, "Lon": -1.11173}], "Tiffin": [{"Name": "Tiffin", "Country Code": "US", "Population": 2657.0, "Lat": 41.70585, "Lon": -91.66295}, {"Name": "Tiffin", "Country Code": "US", "Population": 17687.0, "Lat": 41.1145, "Lon": -83.17797}], "Tiflet": [{"Name": "Tiflet", "Country Code": "MA", "Population": 94684.0, "Lat": 33.89469, "Lon": -6.30649}], "Tifni": [{"Name": "Tifni", "Country Code": "MA", "Population": 0.0, "Lat": 31.62777, "Lon": -6.94093}], "Tifrah": [{"Name": "Tifra\u1e96", "Country Code": "IL", "Population": 2178.0, "Lat": 31.32657, "Lon": 34.67689}], "Tifton": [{"Name": "Tifton", "Country Code": "US", "Population": 16725.0, "Lat": 31.45046, "Lon": -83.5085}], "Tiganasi": [{"Name": "\u0162ig\u0103na\u015fi", "Country Code": "RO", "Population": 4283.0, "Lat": 47.33333, "Lon": 27.46667}], "Tiganesti": [{"Name": "\u0162ig\u0103ne\u015fti", "Country Code": "RO", "Population": 5397.0, "Lat": 43.9, "Lon": 25.36667}], "Tigao": [{"Name": "Tigao", "Country Code": "PH", "Population": 2077.0, "Lat": 9.20889, "Lon": 126.17611}], "Tigaon": [{"Name": "Tigaon", "Country Code": "PH", "Population": 12509.0, "Lat": 13.6331, "Lon": 123.4968}], "Tigaraksa": [{"Name": "Tigaraksa", "Country Code": "ID", "Population": 0.0, "Lat": -6.22806, "Lon": 106.51389}], "Tigard": [{"Name": "Tigard", "Country Code": "US", "Population": 51253.0, "Lat": 45.43123, "Lon": -122.77149}], "Tigarunggu": [{"Name": "Tigarunggu", "Country Code": "ID", "Population": 0.0, "Lat": 2.8965, "Lon": 98.7226}], "Tigbao": [{"Name": "Tigbao", "Country Code": "PH", "Population": 2207.0, "Lat": 7.42833, "Lon": 122.3275}, {"Name": "Tigbao", "Country Code": "PH", "Population": 2294.0, "Lat": 12.5546, "Lon": 123.3389}], "Tigbauan": [{"Name": "Tigbauan", "Country Code": "PH", "Population": 12659.0, "Lat": 10.67466, "Lon": 122.3776}], "Tigbaw": [{"Name": "Tigbaw", "Country Code": "PH", "Population": 3119.0, "Lat": 12.1483, "Lon": 123.5909}], "Tigbinan": [{"Name": "Tigbinan", "Country Code": "PH", "Population": 2805.0, "Lat": 14.18648, "Lon": 122.46923}], "Tiger Point": [{"Name": "Tiger Point", "Country Code": "US", "Population": 3090.0, "Lat": 30.37853, "Lon": -87.05552}], "Tigerville": [{"Name": "Tigerville", "Country Code": "US", "Population": 1312.0, "Lat": 35.06845, "Lon": -82.36845}], "Tigery": [{"Name": "Tigery", "Country Code": "FR", "Population": 1406.0, "Lat": 48.64257, "Lon": 2.50779}], "Tiggiano": [{"Name": "Tiggiano", "Country Code": "IT", "Population": 2822.0, "Lat": 39.90284, "Lon": 18.36501}], "Tighenif": [{"Name": "Tighenif", "Country Code": "DZ", "Population": 39938.0, "Lat": 35.41722, "Lon": 0.32982}], "Tighes Hill": [{"Name": "Tighes Hill", "Country Code": "AU", "Population": 1646.0, "Lat": -32.90732, "Lon": 151.7509}], "Tighza": [{"Name": "Tighza", "Country Code": "MA", "Population": 1950.0, "Lat": 33.18739, "Lon": -5.62436}], "Tigi": [{"Name": "Tigi", "Country Code": "ID", "Population": 0.0, "Lat": -3.96667, "Lon": 136.26667}], "Tigil'": [{"Name": "Tigil\u2019", "Country Code": "RU", "Population": 1993.0, "Lat": 57.75979, "Lon": 158.68161}], "Tiglauigan": [{"Name": "Tiglauigan", "Country Code": "PH", "Population": 6848.0, "Lat": 10.9527, "Lon": 123.3575}], "Tiglieto": [{"Name": "Tiglieto", "Country Code": "IT", "Population": 613.0, "Lat": 44.52324, "Lon": 8.61925}], "Tigliole": [{"Name": "Tigliole", "Country Code": "IT", "Population": 154.0, "Lat": 44.88625, "Lon": 8.07663}], "Tignapalan": [{"Name": "Tignapalan", "Country Code": "PH", "Population": 4098.0, "Lat": 8.26389, "Lon": 124.57472}], "Tignere": [{"Name": "Tign\u00e8re", "Country Code": "CM", "Population": 4353.0, "Lat": 7.36667, "Lon": 12.65}], "Tignes": [{"Name": "Tignes", "Country Code": "FR", "Population": 2385.0, "Lat": 45.49604, "Lon": 6.92463}], "Tignieu": [{"Name": "Tignieu", "Country Code": "FR", "Population": 5244.0, "Lat": 45.75164, "Lon": 5.18911}], "Tignoan": [{"Name": "Tignoan", "Country Code": "PH", "Population": 4164.0, "Lat": 14.56522, "Lon": 121.61786}], "Tigpalay": [{"Name": "Tigpalay", "Country Code": "PH", "Population": 5480.0, "Lat": 7.49479, "Lon": 122.34496}], "Tigre": [{"Name": "Tigre", "Country Code": "AR", "Population": 31106.0, "Lat": -34.42603, "Lon": -58.57962}], "Tigtabon": [{"Name": "Tigtabon", "Country Code": "PH", "Population": 3546.0, "Lat": 6.89556, "Lon": 122.16694}], "Tiguha": [{"Name": "Tiguha", "Country Code": "PH", "Population": 2142.0, "Lat": 7.70444, "Lon": 123.21139}], "Tigui": [{"Name": "Tigui", "Country Code": "PH", "Population": 2543.0, "Lat": 13.2681, "Lon": 122.0415}], "Tiguib": [{"Name": "Tiguib", "Country Code": "PH", "Population": 2573.0, "Lat": 9.8008, "Lon": 123.1352}], "Tiguion": [{"Name": "Tiguion", "Country Code": "PH", "Population": 3018.0, "Lat": 13.3347, "Lon": 121.861}], "Tiguisan": [{"Name": "Tiguisan", "Country Code": "PH", "Population": 2486.0, "Lat": 12.83941, "Lon": 121.46052}], "Tigum": [{"Name": "Tigum", "Country Code": "PH", "Population": 2168.0, "Lat": 10.78333, "Lon": 122.56667}], "Tigveni": [{"Name": "Tigveni", "Country Code": "RO", "Population": 3634.0, "Lat": 45.13333, "Lon": 24.58333}], "Tigwav": [{"Name": "Tigwav", "Country Code": "HT", "Population": 117504.0, "Lat": 18.43117, "Lon": -72.86521}], "Tigy": [{"Name": "Tigy", "Country Code": "FR", "Population": 2071.0, "Lat": 47.79365, "Lon": 2.19767}], "Tiha Bargaului": [{"Name": "Tiha B\u00e2rg\u0103ului", "Country Code": "RO", "Population": 4332.0, "Lat": 47.23333, "Lon": 24.76667}], "Tihange": [{"Name": "Tihange", "Country Code": "BE", "Population": 3140.0, "Lat": 50.52974, "Lon": 5.26176}], "Tihany": [{"Name": "Tihany", "Country Code": "HU", "Population": 1438.0, "Lat": 46.91369, "Lon": 17.88918}], "Tihau": [{"Name": "Tih\u0103u", "Country Code": "RO", "Population": 1113.0, "Lat": 47.22724, "Lon": 23.32964}], "Tiholop": [{"Name": "Tiholop", "Country Code": "MX", "Population": 1463.0, "Lat": 20.33234, "Lon": -88.68958}], "Tihosuco": [{"Name": "Tihosuco", "Country Code": "MX", "Population": 4994.0, "Lat": 20.19642, "Lon": -88.37361}], "Tihuatlan": [{"Name": "Tihuatlan", "Country Code": "MX", "Population": 14417.0, "Lat": 20.71449, "Lon": -97.53335}], "Tiinba": [{"Name": "Tiinba", "Country Code": "CI", "Population": 1079.0, "Lat": 9.48893, "Lon": -7.19808}], "Tijara": [{"Name": "Tij\u0101ra", "Country Code": "IN", "Population": 21833.0, "Lat": 27.93411, "Lon": 76.85541}], "Tijarafe": [{"Name": "Tijarafe", "Country Code": "ES", "Population": 2648.0, "Lat": 28.7, "Lon": -17.95}], "Tijeras": [{"Name": "Tijeras", "Country Code": "PA", "Population": 1148.0, "Lat": 8.46926, "Lon": -82.54838}], "Tiji": [{"Name": "T\u012bj\u012b", "Country Code": "LY", "Population": 6905.0, "Lat": 32.01493, "Lon": 11.35461}], "Tijnje": [{"Name": "Tijnje", "Country Code": "NL", "Population": 1120.0, "Lat": 53.03058, "Lon": 5.99193}], "Tijola": [{"Name": "T\u00edjola", "Country Code": "ES", "Population": 3724.0, "Lat": 37.34606, "Lon": -2.43326}], "Tijuana": [{"Name": "Tijuana", "Country Code": "MX", "Population": 1922523.0, "Lat": 32.5027, "Lon": -117.00371}], "Tijucas": [{"Name": "Tijucas", "Country Code": "BR", "Population": 22481.0, "Lat": -27.24139, "Lon": -48.63361}], "Tikaitnagar": [{"Name": "Tikaitnagar", "Country Code": "IN", "Population": 8806.0, "Lat": 26.94612, "Lon": 81.56583}], "Tikakro": [{"Name": "Tikakro", "Country Code": "CI", "Population": 1816.0, "Lat": 7.84246, "Lon": -5.16909}], "Tikamgarh": [{"Name": "T\u012bkamgarh", "Country Code": "IN", "Population": 74724.0, "Lat": 24.74327, "Lon": 78.83061}], "Tikapur": [{"Name": "\u1e6cik\u0101pur", "Country Code": "NP", "Population": 44758.0, "Lat": 28.52823, "Lon": 81.11798}], "Tikhoretsk": [{"Name": "Tikhoretsk", "Country Code": "RU", "Population": 64387.0, "Lat": 45.85472, "Lon": 40.12528}], "Tikhvin": [{"Name": "Tikhvin", "Country Code": "RU", "Population": 62075.0, "Lat": 59.63937, "Lon": 33.52967}], "Tiki Island": [{"Name": "Tiki Island", "Country Code": "US", "Population": 1026.0, "Lat": 29.29709, "Lon": -94.91709}], "Tikil Dingay": [{"Name": "Tikil Dingay", "Country Code": "ET", "Population": 28200.0, "Lat": 12.98417, "Lon": 37.04417}], "Tikinmul": [{"Name": "Tikinmul", "Country Code": "MX", "Population": 1663.0, "Lat": 19.76611, "Lon": -90.22306}], "Tikipunga": [{"Name": "Tikipunga", "Country Code": "NZ", "Population": 7740.0, "Lat": -35.68818, "Lon": 174.32018}], "Tikiw": [{"Name": "Tikiw", "Country Code": "PH", "Population": 2820.0, "Lat": 15.31193, "Lon": 120.86116}], "Tiko": [{"Name": "Tiko", "Country Code": "CM", "Population": 94836.0, "Lat": 4.075, "Lon": 9.36005}], "Tikri": [{"Name": "T\u012bkri", "Country Code": "IN", "Population": 13646.0, "Lat": 29.2291, "Lon": 77.35479}], "Tikrit": [{"Name": "Tikr\u012bt", "Country Code": "IQ", "Population": 42477.0, "Lat": 34.61581, "Lon": 43.67861}], "Tiksi": [{"Name": "Tiksi", "Country Code": "RU", "Population": 5700.0, "Lat": 71.69002, "Lon": 128.86467}], "Tiku": [{"Name": "Tiku", "Country Code": "ID", "Population": 0.0, "Lat": -0.3958, "Lon": 99.92307}], "Tikuch": [{"Name": "Tikuch", "Country Code": "MX", "Population": 1336.0, "Lat": 20.70301, "Lon": -88.11272}], "Tila": [{"Name": "Tila", "Country Code": "MX", "Population": 7164.0, "Lat": 17.30054, "Lon": -92.4273}], "Tilamuta": [{"Name": "Tilamuta", "Country Code": "ID", "Population": 0.0, "Lat": 0.5273, "Lon": 122.3463}], "Tilapa": [{"Name": "Tilapa", "Country Code": "MX", "Population": 2759.0, "Lat": 18.59717, "Lon": -98.55156}], "Tilapan": [{"Name": "Tilapan", "Country Code": "MX", "Population": 1809.0, "Lat": 18.34917, "Lon": -95.32806}], "Tilaran": [{"Name": "Tilar\u00e1n", "Country Code": "CR", "Population": 7301.0, "Lat": 10.46701, "Lon": -84.96775}], "Tilburg": [{"Name": "Tilburg", "Country Code": "NL", "Population": 199613.0, "Lat": 51.55551, "Lon": 5.0913}], "Tilbury": [{"Name": "Tilbury", "Country Code": "GB", "Population": 11717.0, "Lat": 51.46248, "Lon": 0.35856}], "Tilcara": [{"Name": "Tilcara", "Country Code": "AR", "Population": 5640.0, "Lat": -23.57817, "Lon": -65.39516}], "Tilden": [{"Name": "Tilden", "Country Code": "US", "Population": 261.0, "Lat": 28.46194, "Lon": -98.54918}], "Tildonk": [{"Name": "Tildonk", "Country Code": "BE", "Population": 3973.0, "Lat": 50.94383, "Lon": 4.64481}], "Tileagd": [{"Name": "Tileagd", "Country Code": "RO", "Population": 6994.0, "Lat": 47.06667, "Lon": 22.2}], "Tilehurst": [{"Name": "Tilehurst", "Country Code": "GB", "Population": 0.0, "Lat": 51.45647, "Lon": -1.0437}], "Tilff": [{"Name": "Tilff", "Country Code": "BE", "Population": 5455.0, "Lat": 50.56432, "Lon": 5.57642}], "Tilhar": [{"Name": "Tilhar", "Country Code": "IN", "Population": 57043.0, "Lat": 27.96282, "Lon": 79.73827}], "Tilichiki": [{"Name": "Tilichiki", "Country Code": "RU", "Population": 1968.0, "Lat": 60.42795, "Lon": 166.05764}], "Tilik": [{"Name": "Tilik", "Country Code": "PH", "Population": 2351.0, "Lat": 13.81436, "Lon": 120.20022}], "Tililan": [{"Name": "Tililan", "Country Code": "TR", "Population": 3372.0, "Lat": 37.37428, "Lon": 42.03386}], "Tilili": [{"Name": "T\u012bl\u012bl\u012b", "Country Code": "ET", "Population": 20400.0, "Lat": 10.85, "Lon": 37.01667}], "Tiling": [{"Name": "Tiling", "Country Code": "PH", "Population": 3332.0, "Lat": 9.9736, "Lon": 122.6544}], "Tilisarao": [{"Name": "Tilisarao", "Country Code": "AR", "Population": 5478.0, "Lat": -32.73125, "Lon": -65.29138}], "Tilisca": [{"Name": "Tili\u015fca", "Country Code": "RO", "Population": 1656.0, "Lat": 45.8, "Lon": 23.85}], "Tilisos": [{"Name": "T\u00edlisos", "Country Code": "GR", "Population": 1026.0, "Lat": 35.29607, "Lon": 25.01587}], "Till": [{"Name": "Till", "Country Code": "PS", "Population": 4605.0, "Lat": 32.20068, "Lon": 35.21293}], "Tillaberi": [{"Name": "Tillab\u00e9ri", "Country Code": "NE", "Population": 30822.0, "Lat": 14.20711, "Lon": 1.45418}], "Tillamook": [{"Name": "Tillamook", "Country Code": "US", "Population": 4997.0, "Lat": 45.4564, "Lon": -123.84553}], "Tillberga": [{"Name": "Tillberga", "Country Code": "SE", "Population": 2151.0, "Lat": 59.68333, "Lon": 16.61667}], "Tille": [{"Name": "Till\u00e9", "Country Code": "FR", "Population": 1041.0, "Lat": 49.46415, "Lon": 2.11038}], "Tilleur": [{"Name": "Tilleur", "Country Code": "BE", "Population": 4189.0, "Lat": 50.61805, "Lon": 5.54277}], "Tillia": [{"Name": "Tillia", "Country Code": "NE", "Population": 4598.0, "Lat": 16.12333, "Lon": 4.78972}], "Tillicoultry": [{"Name": "Tillicoultry", "Country Code": "GB", "Population": 5160.0, "Lat": 56.15251, "Lon": -3.74015}], "Tillieres": [{"Name": "Tilli\u00e8res", "Country Code": "FR", "Population": 1343.0, "Lat": 47.14397, "Lon": -1.16334}], "Tillieres-sur-Avre": [{"Name": "Tilli\u00e8res-sur-Avre", "Country Code": "FR", "Population": 1252.0, "Lat": 48.75585, "Lon": 1.05388}], "Tillmans Corner": [{"Name": "Tillmans Corner", "Country Code": "US", "Population": 17398.0, "Lat": 30.59019, "Lon": -88.17084}], "Tillmitsch": [{"Name": "Tillmitsch", "Country Code": "AT", "Population": 1426.0, "Lat": 46.81195, "Lon": 15.51679}], "Tillmitsch Links der Lassnitz": [{"Name": "Tillmitsch Links der La\u00dfnitz", "Country Code": "AT", "Population": 1026.0, "Lat": 46.80955, "Lon": 15.52394}], "Tillo": [{"Name": "Tillo", "Country Code": "TR", "Population": 3052.0, "Lat": 37.94911, "Lon": 42.0121}], "Tilloy-les-Mofflaines": [{"Name": "Tilloy-l\u00e8s-Mofflaines", "Country Code": "FR", "Population": 1556.0, "Lat": 50.27519, "Lon": 2.81456}], "Tillson": [{"Name": "Tillson", "Country Code": "US", "Population": 1586.0, "Lat": 41.82898, "Lon": -74.06848}], "Tilly": [{"Name": "Tilly", "Country Code": "BE", "Population": 1965.0, "Lat": 50.56078, "Lon": 4.55495}], "Tilly-sur-Seulles": [{"Name": "Tilly-sur-Seulles", "Country Code": "FR", "Population": 1311.0, "Lat": 49.17598, "Lon": -0.62605}], "Tilmi": [{"Name": "Tilmi", "Country Code": "MA", "Population": 0.0, "Lat": 31.81794, "Lon": -5.76812}], "Tilogne Tokossel": [{"Name": "Tilogne Tokossel", "Country Code": "SN", "Population": 10441.0, "Lat": 15.96667, "Lon": -13.6}], "Tilques": [{"Name": "Tilques", "Country Code": "FR", "Population": 1004.0, "Lat": 50.77712, "Lon": 2.19948}], "Tiltepec": [{"Name": "Tiltepec", "Country Code": "MX", "Population": 2007.0, "Lat": 16.39389, "Lon": -93.86972}, {"Name": "Tiltepec", "Country Code": "MX", "Population": 1272.0, "Lat": 20.31394, "Lon": -98.68288}], "Tilton": [{"Name": "Tilton", "Country Code": "US", "Population": 2626.0, "Lat": 40.09531, "Lon": -87.64752}, {"Name": "Tilton", "Country Code": "US", "Population": 3612.0, "Lat": 43.4423, "Lon": -71.58896}], "Tilton-Northfield": [{"Name": "Tilton-Northfield", "Country Code": "US", "Population": 3075.0, "Lat": 43.443, "Lon": -71.59364}], "Tiltonsville": [{"Name": "Tiltonsville", "Country Code": "US", "Population": 1320.0, "Lat": 40.16674, "Lon": -80.6998}], "Tilzapotla": [{"Name": "Tilzapotla", "Country Code": "MX", "Population": 4789.0, "Lat": 18.48916, "Lon": -99.27442}], "Tim": [{"Name": "Tim", "Country Code": "RU", "Population": 3673.0, "Lat": 51.62576, "Lon": 37.12733}], "Tima": [{"Name": "\u0162im\u0101", "Country Code": "EG", "Population": 101130.0, "Lat": 26.90843, "Lon": 31.43469}], "Timahdit": [{"Name": "Timahdit", "Country Code": "MA", "Population": 3895.0, "Lat": 33.23654, "Lon": -5.05954}], "Timan": [{"Name": "Timan", "Country Code": "CI", "Population": 1227.0, "Lat": 8.17533, "Lon": -6.73934}], "Timana": [{"Name": "Timan\u00e1", "Country Code": "CO", "Population": 8203.0, "Lat": 1.97136, "Lon": -75.93123}], "Timar": [{"Name": "Timar", "Country Code": "TR", "Population": 0.0, "Lat": 38.82865, "Lon": 43.4333}], "Timargara": [{"Name": "Timargara", "Country Code": "PK", "Population": 0.0, "Lat": 34.82659, "Lon": 71.84423}], "Timaru": [{"Name": "Timaru", "Country Code": "NZ", "Population": 28900.0, "Lat": -44.39672, "Lon": 171.25364}], "Timashyovsk": [{"Name": "Timashyovsk", "Country Code": "RU", "Population": 53940.0, "Lat": 45.61694, "Lon": 38.94528}], "Timau": [{"Name": "Timau", "Country Code": "KE", "Population": 10571.0, "Lat": 0.0835, "Lon": 37.23925}], "Timayy al Imdid": [{"Name": "Timayy al Imd\u012bd", "Country Code": "EG", "Population": 20389.0, "Lat": 30.94384, "Lon": 31.52926}], "Timbauba": [{"Name": "Timba\u00faba", "Country Code": "BR", "Population": 45121.0, "Lat": -7.50528, "Lon": -35.31833}], "Timbe": [{"Name": "Timb\u00e9", "Country Code": "CI", "Population": 2912.0, "Lat": 8.17009, "Lon": -4.94663}], "Timbedgha": [{"Name": "Timbedgha", "Country Code": "MR", "Population": 17465.0, "Lat": 16.2447, "Lon": -8.1643}], "Timber Lake": [{"Name": "Timber Lake", "Country Code": "US", "Population": 483.0, "Lat": 45.42915, "Lon": -101.07403}], "Timber Pines": [{"Name": "Timber Pines", "Country Code": "US", "Population": 5386.0, "Lat": 28.47028, "Lon": -82.60316}], "Timberlake": [{"Name": "Timberlake", "Country Code": "US", "Population": 12183.0, "Lat": 37.3207, "Lon": -79.25753}], "Timberlane": [{"Name": "Timberlane", "Country Code": "US", "Population": 10243.0, "Lat": 29.87743, "Lon": -90.03202}], "Timberville": [{"Name": "Timberville", "Country Code": "US", "Population": 2603.0, "Lat": 38.63901, "Lon": -78.77391}], "Timberwood Park": [{"Name": "Timberwood Park", "Country Code": "US", "Population": 13447.0, "Lat": 29.70578, "Lon": -98.47835}], "Timbio": [{"Name": "Timb\u00edo", "Country Code": "CO", "Population": 0.0, "Lat": 2.35017, "Lon": -76.68341}], "Timbiqui": [{"Name": "Timbiqu\u00ed", "Country Code": "CO", "Population": 21618.0, "Lat": 2.7717, "Lon": -77.66536}], "Timbiras": [{"Name": "Timbiras", "Country Code": "BR", "Population": 17875.0, "Lat": -4.25528, "Lon": -43.94056}], "Timbo": [{"Name": "Timb\u00f3", "Country Code": "BR", "Population": 33765.0, "Lat": -26.82333, "Lon": -49.27167}], "Timboon": [{"Name": "Timboon", "Country Code": "AU", "Population": 1159.0, "Lat": -38.48434, "Lon": 142.98033}], "Timboroa": [{"Name": "Timboroa", "Country Code": "KE", "Population": 4744.0, "Lat": 0.0855, "Lon": 35.53021}], "Timboroni": [{"Name": "Timboroni", "Country Code": "CI", "Population": 1091.0, "Lat": 9.93877, "Lon": -6.36844}], "Timbuktu": [{"Name": "Timbuktu", "Country Code": "ML", "Population": 84208.0, "Lat": 16.77348, "Lon": -3.00742}], "Timelkam": [{"Name": "Timelkam", "Country Code": "AT", "Population": 3061.0, "Lat": 48.00394, "Lon": 13.6076}], "Timezgadiouine": [{"Name": "Timezgadiouine", "Country Code": "MA", "Population": 0.0, "Lat": 30.88366, "Lon": -9.04548}], "Timezgana": [{"Name": "Timezgana", "Country Code": "MA", "Population": 0.0, "Lat": 34.58, "Lon": -4.73}], "Timimoun": [{"Name": "Timimoun", "Country Code": "DZ", "Population": 49237.0, "Lat": 29.26417, "Lon": 0.23583}], "Timiryazevo": [{"Name": "Timiryazevo", "Country Code": "KZ", "Population": 4147.0, "Lat": 53.74947, "Lon": 66.48852}], "Timiryazevskiy": [{"Name": "Timiryazevskiy", "Country Code": "RU", "Population": 3153.0, "Lat": 54.92917, "Lon": 60.7625}], "Timiryazevskoye": [{"Name": "Timiryazevskoye", "Country Code": "RU", "Population": 6229.0, "Lat": 56.48988, "Lon": 84.87795}], "Timisesti": [{"Name": "Timi\u015fe\u015fti", "Country Code": "RO", "Population": 4004.0, "Lat": 47.23333, "Lon": 26.55}], "Timisoara": [{"Name": "Timi\u015foara", "Country Code": "RO", "Population": 315053.0, "Lat": 45.75372, "Lon": 21.22571}], "Timizart": [{"Name": "Timizart", "Country Code": "DZ", "Population": 41158.0, "Lat": 36.8, "Lon": 4.26667}], "Timmaspe": [{"Name": "Timmaspe", "Country Code": "DE", "Population": 1124.0, "Lat": 54.13967, "Lon": 9.8943}], "Timmendorfer Strand": [{"Name": "Timmendorfer Strand", "Country Code": "DE", "Population": 9127.0, "Lat": 53.9953, "Lon": 10.77676}], "Timmenrode": [{"Name": "Timmenrode", "Country Code": "DE", "Population": 1116.0, "Lat": 51.77113, "Lon": 11.00624}], "Timmerlah": [{"Name": "Timmerlah", "Country Code": "DE", "Population": 2282.0, "Lat": 52.23936, "Lon": 10.45027}], "Timmernabben": [{"Name": "Timmernabben", "Country Code": "SE", "Population": 1357.0, "Lat": 56.96667, "Lon": 16.43333}], "Timmins": [{"Name": "Timmins", "Country Code": "CA", "Population": 41788.0, "Lat": 48.46686, "Lon": -81.33312}], "Timmonsville": [{"Name": "Timmonsville", "Country Code": "US", "Population": 2378.0, "Lat": 34.13488, "Lon": -79.93979}], "Timon": [{"Name": "Timon", "Country Code": "BR", "Population": 124427.0, "Lat": -5.09417, "Lon": -42.83667}], "Timonan": [{"Name": "Timonan", "Country Code": "PH", "Population": 2727.0, "Lat": 8.2117, "Lon": 123.0682}], "Timonium": [{"Name": "Timonium", "Country Code": "US", "Population": 9925.0, "Lat": 39.43705, "Lon": -76.61969}], "Timorossie": [{"Name": "Timorossi\u00e9", "Country Code": "CI", "Population": 1114.0, "Lat": 8.03046, "Lon": -2.69703}], "Timoteo": [{"Name": "Tim\u00f3teo", "Country Code": "BR", "Population": 91722.0, "Lat": -19.58106, "Lon": -42.64953}], "Timotes": [{"Name": "Timotes", "Country Code": "VE", "Population": 20098.0, "Lat": 8.98224, "Lon": -70.73926}], "Timoulilt": [{"Name": "Timoulilt", "Country Code": "MA", "Population": 0.0, "Lat": 32.20368, "Lon": -6.4666}], "Timpas": [{"Name": "Timpas", "Country Code": "PH", "Population": 3551.0, "Lat": 11.479, "Lon": 122.7324}], "Timperley": [{"Name": "Timperley", "Country Code": "GB", "Population": 11049.0, "Lat": 53.4, "Lon": -2.33333}], "Timpson": [{"Name": "Timpson", "Country Code": "US", "Population": 1149.0, "Lat": 31.90378, "Lon": -94.3952}], "Timra": [{"Name": "Timr\u00e5", "Country Code": "SE", "Population": 10495.0, "Lat": 62.48654, "Lon": 17.32613}], "Timrat": [{"Name": "Timrat", "Country Code": "IL", "Population": 1292.0, "Lat": 32.70302, "Lon": 35.22359}], "Timsbury": [{"Name": "Timsbury", "Country Code": "GB", "Population": 2504.0, "Lat": 51.32444, "Lon": -2.47917}], "Timucuy": [{"Name": "Timucuy", "Country Code": "MX", "Population": 3872.0, "Lat": 20.81091, "Lon": -89.51354}], "Tin Can Bay": [{"Name": "Tin Can Bay", "Country Code": "AU", "Population": 2378.0, "Lat": -25.91914, "Lon": 153.0032}], "Tin Hau": [{"Name": "Tin Hau", "Country Code": "HK", "Population": 13521.0, "Lat": 22.28093, "Lon": 114.1924}], "Tin Ma Court": [{"Name": "Tin Ma Court", "Country Code": "HK", "Population": 6034.0, "Lat": 22.34321, "Lon": 114.18691}], "Tin Shui Wai": [{"Name": "Tin Shui Wai", "Country Code": "HK", "Population": 282400.0, "Lat": 22.45679, "Lon": 114.00234}], "Tin Wan": [{"Name": "Tin Wan", "Country Code": "HK", "Population": 16811.0, "Lat": 22.25113, "Lon": 114.14726}], "Tin Wan Estate": [{"Name": "Tin Wan Estate", "Country Code": "HK", "Population": 8491.0, "Lat": 22.25073, "Lon": 114.1487}], "Tin-Akoff": [{"Name": "Tin-Akoff", "Country Code": "BF", "Population": 0.0, "Lat": 14.96549, "Lon": -0.16335}], "Tinaan": [{"Name": "Tinaan", "Country Code": "PH", "Population": 5959.0, "Lat": 11.26667, "Lon": 123.75}], "Tinabogan": [{"Name": "Tinabogan", "Country Code": "ID", "Population": 0.0, "Lat": 0.7823, "Lon": 120.5264}], "Tinaco": [{"Name": "Tinaco", "Country Code": "VE", "Population": 38172.0, "Lat": 9.69894, "Lon": -68.43273}], "Tinagacan": [{"Name": "Tinagacan", "Country Code": "PH", "Population": 4808.0, "Lat": 6.19917, "Lon": 125.22944}], "Tinago": [{"Name": "Tinago", "Country Code": "PH", "Population": 4491.0, "Lat": 13.18333, "Lon": 123.65}], "Tinajas": [{"Name": "Tinajas", "Country Code": "ES", "Population": 369.0, "Lat": 40.32547, "Lon": -2.58228}, {"Name": "Tinajas", "Country Code": "MX", "Population": 3705.0, "Lat": 19.89739, "Lon": -99.36662}, {"Name": "Tinajas", "Country Code": "PA", "Population": 905.0, "Lat": 8.5592, "Lon": -82.46217}], "Tinajas 1ra. Seccion": [{"Name": "Tinajas 1ra. Secci\u00f3n", "Country Code": "MX", "Population": 1055.0, "Lat": 14.7175, "Lon": -92.32861}], "Tinajdad": [{"Name": "Tinajdad", "Country Code": "MA", "Population": 9764.0, "Lat": 31.50764, "Lon": -5.03293}], "Tinajitas": [{"Name": "Tinajitas", "Country Code": "MX", "Population": 2090.0, "Lat": 19.61806, "Lon": -96.4425}], "Tinajo": [{"Name": "Tinajo", "Country Code": "ES", "Population": 5228.0, "Lat": 29.06326, "Lon": -13.67647}], "Tinalmud": [{"Name": "Tinalmud", "Country Code": "PH", "Population": 2217.0, "Lat": 13.5941, "Lon": 122.878}], "Tinambac": [{"Name": "Tinambac", "Country Code": "PH", "Population": 10299.0, "Lat": 13.8164, "Lon": 123.3261}], "Tinambacan": [{"Name": "Tinambacan", "Country Code": "PH", "Population": 4555.0, "Lat": 12.0943, "Lon": 124.5025}], "Tinampo": [{"Name": "Tinampo", "Country Code": "PH", "Population": 2590.0, "Lat": 13.22825, "Lon": 123.50723}], "Tinana": [{"Name": "Tinana", "Country Code": "AU", "Population": 5408.0, "Lat": -25.55196, "Lon": 152.6659}], "Tinang": [{"Name": "Tinang", "Country Code": "PH", "Population": 4217.0, "Lat": 15.37626, "Lon": 120.65343}], "Tinaogan": [{"Name": "Tinaogan", "Country Code": "PH", "Population": 2360.0, "Lat": 9.7791, "Lon": 123.1503}], "Tinaquillo": [{"Name": "Tinaquillo", "Country Code": "VE", "Population": 115937.0, "Lat": 9.91861, "Lon": -68.30472}], "Tinasso": [{"Name": "Tinasso", "Country Code": "CI", "Population": 4671.0, "Lat": 9.91667, "Lon": -6.65}], "Tinawagan": [{"Name": "Tinawagan", "Country Code": "PH", "Population": 2632.0, "Lat": 13.65, "Lon": 123.48333}], "Tinca": [{"Name": "Tinca", "Country Code": "RO", "Population": 4494.0, "Lat": 46.77529, "Lon": 21.933}], "Tinchebray": [{"Name": "Tinchebray", "Country Code": "FR", "Population": 3102.0, "Lat": 48.76437, "Lon": -0.73333}], "Tinchlik": [{"Name": "Tinchlik", "Country Code": "UZ", "Population": 13470.0, "Lat": 40.47591, "Lon": 71.55089}], "Tinco": [{"Name": "Tinco", "Country Code": "PE", "Population": 560.0, "Lat": -9.27117, "Lon": -77.682}], "Tincontlan": [{"Name": "Tincontl\u00e1n", "Country Code": "MX", "Population": 1162.0, "Lat": 20.82141, "Lon": -97.69083}], "Tindala": [{"Name": "Tindala", "Country Code": "CI", "Population": 1808.0, "Lat": 9.55081, "Lon": -4.74417}], "Tindara": [{"Name": "Tindara", "Country Code": "CI", "Population": 3573.0, "Lat": 10.00959, "Lon": -6.47599}], "Tinde": [{"Name": "Tinde", "Country Code": "TZ", "Population": 22082.0, "Lat": -3.88333, "Lon": 33.2}], "Tindene": [{"Name": "Tind\u00e9n\u00e9", "Country Code": "CI", "Population": 1766.0, "Lat": 8.46991, "Lon": -4.2401}], "Tindikan-Dioulasso": [{"Name": "Tindikan-Dioulasso", "Country Code": "CI", "Population": 2409.0, "Lat": 8.338, "Lon": -4.38405}], "Tindikoro": [{"Name": "Tindikoro", "Country Code": "CI", "Population": 1092.0, "Lat": 9.20693, "Lon": -7.17692}], "Tindivanam": [{"Name": "Tindivanam", "Country Code": "IN", "Population": 69839.0, "Lat": 12.234, "Lon": 79.65551}], "Tindog": [{"Name": "Tindog", "Country Code": "PH", "Population": 3306.0, "Lat": 11.1247, "Lon": 124.0118}], "Tindouf": [{"Name": "Tindouf", "Country Code": "DZ", "Population": 45610.0, "Lat": 27.67111, "Lon": -8.14743}], "Tindwari": [{"Name": "Tindw\u0101ri", "Country Code": "IN", "Population": 10406.0, "Lat": 25.61739, "Lon": 80.52718}], "Tine Biougra": [{"Name": "Tine Biougra", "Country Code": "MA", "Population": 41421.0, "Lat": 30.20942, "Lon": -9.37922}], "Tineo": [{"Name": "Tineo", "Country Code": "ES", "Population": 11146.0, "Lat": 43.33765, "Lon": -6.41452}], "Ting Kau": [{"Name": "Ting Kau", "Country Code": "HK", "Population": 17009.0, "Lat": 22.36956, "Lon": 114.07907}], "Ting Kok": [{"Name": "Ting Kok", "Country Code": "HK", "Population": 2000.0, "Lat": 22.47285, "Lon": 114.21995}], "Tinga": [{"Name": "Tinga", "Country Code": "NL", "Population": 2190.0, "Lat": 53.02064, "Lon": 5.64575}], "Tingalpa": [{"Name": "Tingalpa", "Country Code": "AU", "Population": 8051.0, "Lat": -27.4736, "Lon": 153.12704}], "Tingambato": [{"Name": "Tingambato", "Country Code": "MX", "Population": 7771.0, "Lat": 19.50109, "Lon": -101.85327}], "Tinganga": [{"Name": "Tinganga", "Country Code": "KE", "Population": 6059.0, "Lat": -1.13033, "Lon": 36.81358}], "Tingdong": [{"Name": "Tingdong", "Country Code": "CN", "Population": 1577.0, "Lat": 25.82444, "Lon": 108.6125}], "Tingewick": [{"Name": "Tingewick", "Country Code": "GB", "Population": 1093.0, "Lat": 51.99031, "Lon": -1.04804}], "Tinghir": [{"Name": "Tinghir", "Country Code": "MA", "Population": 45911.0, "Lat": 31.51472, "Lon": -5.53278}], "Tingi": [{"Name": "Tingi", "Country Code": "TZ", "Population": 16315.0, "Lat": -11.3, "Lon": 35.03333}], "Tingira Heights": [{"Name": "Tingira Heights", "Country Code": "AU", "Population": 2083.0, "Lat": -32.99725, "Lon": 151.67021}], "Tingjiang": [{"Name": "Tingjiang", "Country Code": "CN", "Population": 5320.0, "Lat": 26.07401, "Lon": 119.50574}], "Tinglayan": [{"Name": "Tinglayan", "Country Code": "PH", "Population": 0.0, "Lat": 17.27611, "Lon": 121.1625}], "Tinglev": [{"Name": "Tinglev", "Country Code": "DK", "Population": 2731.0, "Lat": 54.93788, "Lon": 9.25547}], "Tingloy": [{"Name": "Tingloy", "Country Code": "PH", "Population": 2646.0, "Lat": 13.66091, "Lon": 120.8711}], "Tingo": [{"Name": "Tingo", "Country Code": "PE", "Population": 162.0, "Lat": -6.37167, "Lon": -77.91194}], "Tingo Maria": [{"Name": "Tingo Mar\u00eda", "Country Code": "PE", "Population": 53177.0, "Lat": -9.29532, "Lon": -75.99574}], "Tingsryd": [{"Name": "Tingsryd", "Country Code": "SE", "Population": 3087.0, "Lat": 56.5247, "Lon": 14.97902}], "Tingueindin": [{"Name": "Ting\u00fcind\u00edn", "Country Code": "MX", "Population": 6923.0, "Lat": 19.73921, "Lon": -102.4812}], "Tingvatn": [{"Name": "Tingvatn", "Country Code": "NO", "Population": 0.0, "Lat": 58.3757, "Lon": 7.2197}], "Tingvoll": [{"Name": "Tingvoll", "Country Code": "NO", "Population": 1005.0, "Lat": 62.91318, "Lon": 8.20526}], "Tinh Gia": [{"Name": "T\u0129nh Gia", "Country Code": "VN", "Population": 0.0, "Lat": 19.44645, "Lon": 105.77861}], "Tinhou": [{"Name": "Tinhou", "Country Code": "CI", "Population": 6961.0, "Lat": 6.43832, "Lon": -8.1561}], "Tinicum": [{"Name": "Tinicum", "Country Code": "US", "Population": 4350.0, "Lat": 40.44844, "Lon": -75.10767}], "Tiniguiban": [{"Name": "Tiniguiban", "Country Code": "PH", "Population": 3267.0, "Lat": 11.3574, "Lon": 119.5049}], "Tiniroto": [{"Name": "Tiniroto", "Country Code": "NZ", "Population": 1539.0, "Lat": -38.76667, "Lon": 177.56667}], "Tinjaca": [{"Name": "Tinjac\u00e1", "Country Code": "CO", "Population": 400.0, "Lat": 5.57916, "Lon": -73.64486}], "Tinjan": [{"Name": "Tinjan", "Country Code": "HR", "Population": 433.0, "Lat": 45.21806, "Lon": 13.83944}], "Tinley Park": [{"Name": "Tinley Park", "Country Code": "US", "Population": 57143.0, "Lat": 41.57337, "Lon": -87.78449}], "Tinlot": [{"Name": "Tinlot", "Country Code": "BE", "Population": 2236.0, "Lat": 50.47493, "Lon": 5.37755}], "Tinnanur": [{"Name": "Tinnan\u016br", "Country Code": "IN", "Population": 22125.0, "Lat": 13.11448, "Lon": 80.02713}], "Tinnum": [{"Name": "Tinnum", "Country Code": "DE", "Population": 2997.0, "Lat": 54.89932, "Lon": 8.33476}], "Tinnura": [{"Name": "Tinnura", "Country Code": "IT", "Population": 268.0, "Lat": 40.26916, "Lon": 8.54815}], "Tinogasta": [{"Name": "Tinogasta", "Country Code": "AR", "Population": 14509.0, "Lat": -28.06556, "Lon": -67.56437}], "Tinogboc": [{"Name": "Tinogboc", "Country Code": "PH", "Population": 2208.0, "Lat": 12.00737, "Lon": 121.41221}], "Tinonee": [{"Name": "Tinonee", "Country Code": "AU", "Population": 1077.0, "Lat": -31.93634, "Lon": 152.41425}], "Tinongan": [{"Name": "Tinongan", "Country Code": "PH", "Population": 62146.0, "Lat": 10.215, "Lon": 123.03528}], "Tinos": [{"Name": "T\u00ednos", "Country Code": "GR", "Population": 4573.0, "Lat": 37.53753, "Lon": 25.16343}], "Tinosillos": [{"Name": "Ti\u00f1osillos", "Country Code": "ES", "Population": 785.0, "Lat": 40.934, "Lon": -4.72767}], "Tinosu": [{"Name": "Tinosu", "Country Code": "RO", "Population": 2551.0, "Lat": 44.81667, "Lon": 26.01667}], "Tinoto": [{"Name": "Tinoto", "Country Code": "PH", "Population": 3724.0, "Lat": 5.88667, "Lon": 125.07056}], "Tinqueux": [{"Name": "Tinqueux", "Country Code": "FR", "Population": 10197.0, "Lat": 49.25, "Lon": 3.98333}], "Tinskoy": [{"Name": "Tinskoy", "Country Code": "RU", "Population": 4147.0, "Lat": 56.1513, "Lon": 96.9173}], "Tinsukia": [{"Name": "Tinsukia", "Country Code": "IN", "Population": 89373.0, "Lat": 27.48905, "Lon": 95.35992}], "Tinta": [{"Name": "Tinta", "Country Code": "PE", "Population": 3466.0, "Lat": -14.145, "Lon": -71.40694}], "Tintafor": [{"Name": "Tintafor", "Country Code": "SL", "Population": 5460.0, "Lat": 8.62667, "Lon": -13.215}], "Tintagel": [{"Name": "Tintagel", "Country Code": "GB", "Population": 1028.0, "Lat": 50.66317, "Lon": -4.75047}], "Tintane": [{"Name": "\u1e6cin\u1e6d\u00e2ne", "Country Code": "MR", "Population": 15684.0, "Lat": 16.3946, "Lon": -10.1737}], "Tintay": [{"Name": "Tintay", "Country Code": "PE", "Population": 740.0, "Lat": -13.95964, "Lon": -73.18518}], "Tintea": [{"Name": "\u021aintea", "Country Code": "RO", "Population": 3042.0, "Lat": 45.03403, "Lon": 25.9046}], "Tinteniac": [{"Name": "Tint\u00e9niac", "Country Code": "FR", "Population": 2877.0, "Lat": 48.32908, "Lon": -1.83545}], "Tintern": [{"Name": "Tintern", "Country Code": "GB", "Population": 750.0, "Lat": 51.69677, "Lon": -2.68142}], "Tintesti": [{"Name": "\u0162inte\u015fti", "Country Code": "RO", "Population": 4475.0, "Lat": 45.06667, "Lon": 26.86667}], "Tintigny": [{"Name": "Tintigny", "Country Code": "BE", "Population": 3538.0, "Lat": 49.68326, "Lon": 5.51349}], "Tintina": [{"Name": "Tintina", "Country Code": "AR", "Population": 3868.0, "Lat": -27.02687, "Lon": -62.70643}], "Tinton Falls": [{"Name": "Tinton Falls", "Country Code": "US", "Population": 17772.0, "Lat": 40.30428, "Lon": -74.10042}], "Tinubuan": [{"Name": "Tinubuan", "Country Code": "PH", "Population": 2146.0, "Lat": 11.186, "Lon": 124.0078}], "Tinum": [{"Name": "Tinum", "Country Code": "MX", "Population": 2111.0, "Lat": 20.76779, "Lon": -88.39164}], "Tinutulan": [{"Name": "Tinutulan", "Country Code": "PH", "Population": 2305.0, "Lat": 7.1, "Lon": 124.65}], "Tinwald": [{"Name": "Tinwald", "Country Code": "NZ", "Population": 3780.0, "Lat": -43.91667, "Lon": 171.71667}], "Tinwell": [{"Name": "Tinwell", "Country Code": "GB", "Population": 0.0, "Lat": 52.64629, "Lon": -0.51498}], "Tinyahuarco": [{"Name": "Tinyahuarco", "Country Code": "PE", "Population": 5066.0, "Lat": -10.76771, "Lon": -76.27523}], "Tio Pujio": [{"Name": "T\u00edo Pujio", "Country Code": "AR", "Population": 2383.0, "Lat": -32.28752, "Lon": -63.3549}], "Tiobly": [{"Name": "Tiobly", "Country Code": "CI", "Population": 1258.0, "Lat": 6.5332, "Lon": -8.50041}], "Tioga": [{"Name": "Tioga", "Country Code": "US", "Population": 1643.0, "Lat": 48.39724, "Lon": -102.93824}], "Tiogo": [{"Name": "Tiogo", "Country Code": "CI", "Population": 1972.0, "Lat": 10.1681, "Lon": -6.30499}], "Tiokonou": [{"Name": "Tiokonou", "Country Code": "CI", "Population": 1101.0, "Lat": 7.42689, "Lon": -3.91733}], "Tiolasso": [{"Name": "Tiolasso", "Country Code": "CI", "Population": 1375.0, "Lat": 9.78687, "Lon": -6.82841}], "Tiolo": [{"Name": "Tiolo", "Country Code": "CI", "Population": 1231.0, "Lat": 9.94773, "Lon": -6.08269}], "Tiom": [{"Name": "Tiom", "Country Code": "ID", "Population": 0.0, "Lat": -3.92361, "Lon": 138.45472}], "Tione degli Abruzzi": [{"Name": "Tione degli Abruzzi", "Country Code": "IT", "Population": 140.0, "Lat": 42.20393, "Lon": 13.6357}], "Tione di Trento": [{"Name": "Tione di Trento", "Country Code": "IT", "Population": 3281.0, "Lat": 46.0355, "Lon": 10.72679}], "Tionesta": [{"Name": "Tionesta", "Country Code": "US", "Population": 451.0, "Lat": 41.49534, "Lon": -79.45588}], "Tiongoli": [{"Name": "Tiongoli", "Country Code": "CI", "Population": 1280.0, "Lat": 10.57073, "Lon": -6.29196}], "Tionk Essil": [{"Name": "Tionk Essil", "Country Code": "SN", "Population": 8389.0, "Lat": 12.78556, "Lon": -16.52167}], "Tioro": [{"Name": "Tioro", "Country Code": "CI", "Population": 1488.0, "Lat": 9.88985, "Lon": -6.30274}], "Tioroniaradougou": [{"Name": "Tioroniaradougou", "Country Code": "CI", "Population": 4907.0, "Lat": 9.35446, "Lon": -5.63766}], "Tiorotierie": [{"Name": "Tioroti\u00e9rie", "Country Code": "CI", "Population": 2870.0, "Lat": 10.08971, "Lon": -6.20916}], "Tiouli": [{"Name": "Tiouli", "Country Code": "MA", "Population": 0.0, "Lat": 34.36679, "Lon": -1.83705}], "Tioumoukro": [{"Name": "Tioumoukro", "Country Code": "CI", "Population": 3446.0, "Lat": 6.89701, "Lon": -4.42811}], "Tiout": [{"Name": "Tiout", "Country Code": "MA", "Population": 0.0, "Lat": 30.3887, "Lon": -8.69572}], "Tipacoque": [{"Name": "Tipacoque", "Country Code": "CO", "Population": 1036.0, "Lat": 6.42031, "Lon": -72.69184}], "Tipadipa": [{"Name": "Tipadipa", "Country Code": "CI", "Population": 2732.0, "Lat": 6.08669, "Lon": -5.86188}], "Tipar": [{"Name": "\u021aipar", "Country Code": "RO", "Population": 1405.0, "Lat": 46.47563, "Lon": 21.63431}], "Tiparak": [{"Name": "Tiparak", "Country Code": "PH", "Population": 2898.0, "Lat": 8.0341, "Lon": 123.5288}], "Tipasa": [{"Name": "Tipasa", "Country Code": "DZ", "Population": 15180.0, "Lat": 36.58972, "Lon": 2.44889}], "Tipaz": [{"Name": "Tipaz", "Country Code": "PH", "Population": 2594.0, "Lat": 13.8285, "Lon": 121.42506}], "Tipitapa": [{"Name": "Tipitapa", "Country Code": "NI", "Population": 50000.0, "Lat": 12.19732, "Lon": -86.09706}], "Tipo-Tipo": [{"Name": "Tipo-Tipo", "Country Code": "PH", "Population": 2981.0, "Lat": 6.58139, "Lon": 122.17944}], "Tipolo": [{"Name": "Tipolo", "Country Code": "PH", "Population": 2361.0, "Lat": 10.0196, "Lon": 124.5144}], "Tipp City": [{"Name": "Tipp City", "Country Code": "US", "Population": 9899.0, "Lat": 39.95839, "Lon": -84.17216}], "Tipperary": [{"Name": "Tipperary", "Country Code": "IE", "Population": 4979.0, "Lat": 52.47333, "Lon": -8.15583}], "Tipton": [{"Name": "Tipton", "Country Code": "GB", "Population": 47000.0, "Lat": 52.52956, "Lon": -2.06773}, {"Name": "Tipton", "Country Code": "US", "Population": 1083.0, "Lat": 40.6359, "Lon": -78.29585}, {"Name": "Tipton", "Country Code": "US", "Population": 3377.0, "Lat": 38.65558, "Lon": -92.77992}, {"Name": "Tipton", "Country Code": "US", "Population": 3200.0, "Lat": 41.76974, "Lon": -91.12793}, {"Name": "Tipton", "Country Code": "US", "Population": 5144.0, "Lat": 40.28226, "Lon": -86.0411}, {"Name": "Tipton", "Country Code": "US", "Population": 2543.0, "Lat": 36.0594, "Lon": -119.31206}], "Tiptonville": [{"Name": "Tiptonville", "Country Code": "US", "Population": 4352.0, "Lat": 36.3784, "Lon": -89.47202}], "Tiptree": [{"Name": "Tiptree", "Country Code": "GB", "Population": 9182.0, "Lat": 51.8123, "Lon": 0.7454}], "Tiptur": [{"Name": "Tipt\u016br", "Country Code": "IN", "Population": 60957.0, "Lat": 13.2563, "Lon": 76.47768}], "Tiquicheo": [{"Name": "Tiquicheo", "Country Code": "MX", "Population": 3210.0, "Lat": 18.90301, "Lon": -100.73731}], "Tiquillaca": [{"Name": "Tiquillaca", "Country Code": "PE", "Population": 261.0, "Lat": -15.81667, "Lon": -70.2}], "Tiquipaya": [{"Name": "Tiquipaya", "Country Code": "BO", "Population": 62675.0, "Lat": -17.33801, "Lon": -66.21579}], "Tiquisate": [{"Name": "Tiquisate", "Country Code": "GT", "Population": 18189.0, "Lat": 14.28356, "Lon": -91.36063}], "Tiquisio": [{"Name": "Tiquisio", "Country Code": "CO", "Population": 17939.0, "Lat": 8.55666, "Lon": -74.26355}], "Tir Pul": [{"Name": "T\u012br Pul", "Country Code": "AF", "Population": 6979.0, "Lat": 34.59431, "Lon": 61.26895}], "Tira Sujanpur": [{"Name": "T\u012bra Suj\u0101npur", "Country Code": "IN", "Population": 7747.0, "Lat": 31.83364, "Lon": 76.50539}], "Tirabin al-Sana": [{"Name": "Tirabin al-Sana", "Country Code": "IL", "Population": 1139.0, "Lat": 31.34479, "Lon": 34.73867}], "Tiradentes": [{"Name": "Tiradentes", "Country Code": "BR", "Population": 4439.0, "Lat": -21.11028, "Lon": -44.17806}], "Tiran": [{"Name": "T\u012br\u0101n", "Country Code": "IR", "Population": 0.0, "Lat": 32.70328, "Lon": 51.15381}], "Tirana": [{"Name": "Tirana", "Country Code": "AL", "Population": 418495.0, "Lat": 41.3275, "Lon": 19.81889}], "Tirano": [{"Name": "Tirano", "Country Code": "IT", "Population": 8348.0, "Lat": 46.21482, "Lon": 10.16335}], "Tirapata": [{"Name": "Tirapata", "Country Code": "PE", "Population": 691.0, "Lat": -14.95474, "Lon": -70.40323}], "Tirapu": [{"Name": "Tirapu", "Country Code": "ES", "Population": 54.0, "Lat": 42.6574, "Lon": -1.70263}], "Tiraspol": [{"Name": "Tiraspol", "Country Code": "MD", "Population": 157000.0, "Lat": 46.84274, "Lon": 29.62909}], "Tiraspolul Nou": [{"Name": "Tiraspolul Nou", "Country Code": "MD", "Population": 2200.0, "Lat": 46.82874, "Lon": 29.52174}], "Tirat Karmel": [{"Name": "Tirat Karmel", "Country Code": "IL", "Population": 27822.0, "Lat": 32.76021, "Lon": 34.97183}], "Tirat Yehuda": [{"Name": "Tirat Yehuda", "Country Code": "IL", "Population": 1201.0, "Lat": 32.01392, "Lon": 34.9342}], "Tire": [{"Name": "Tire", "Country Code": "TR", "Population": 47220.0, "Lat": 38.08877, "Lon": 27.73508}], "Tiream": [{"Name": "Tiream", "Country Code": "RO", "Population": 2317.0, "Lat": 47.61667, "Lon": 22.46667}], "Tirebolu": [{"Name": "Tirebolu", "Country Code": "TR", "Population": 17124.0, "Lat": 41.00694, "Lon": 38.81389}], "Tireli": [{"Name": "T\u012bre\u013ci", "Country Code": "LV", "Population": 2103.0, "Lat": 56.83991, "Lon": 23.58902}], "Tireo Arriba": [{"Name": "Tireo Arriba", "Country Code": "DO", "Population": 3816.0, "Lat": 18.93537, "Lon": -70.6885}], "Tires": [{"Name": "Tires", "Country Code": "IT", "Population": 406.0, "Lat": 46.46817, "Lon": 11.52704}], "Tirgo": [{"Name": "Tirgo", "Country Code": "ES", "Population": 280.0, "Lat": 42.54587, "Lon": -2.9494}], "Tirhanimine": [{"Name": "Tirhanim\u00eene", "Country Code": "MA", "Population": 55827.0, "Lat": 35.23619, "Lon": -3.95453}], "Tirhassaline": [{"Name": "Tirhassaline", "Country Code": "MA", "Population": 9620.0, "Lat": 32.7822, "Lon": -5.65282}], "Tirikoro": [{"Name": "Tirikoro", "Country Code": "CI", "Population": 1167.0, "Lat": 8.25551, "Lon": -7.87246}], "Tirindaro": [{"Name": "Tir\u00edndaro", "Country Code": "MX", "Population": 3256.0, "Lat": 19.77121, "Lon": -101.7435}], "Tiring": [{"Name": "Tiring", "Country Code": "PH", "Population": 2232.0, "Lat": 10.85, "Lon": 122.5067}], "Tiriolo": [{"Name": "Tiriolo", "Country Code": "IT", "Population": 2496.0, "Lat": 38.94069, "Lon": 16.51046}], "Tiripetio": [{"Name": "Tir\u00edpetio", "Country Code": "MX", "Population": 2050.0, "Lat": 19.54897, "Lon": -101.34667}], "Tiris": [{"Name": "Tiris", "Country Code": "ID", "Population": 0.0, "Lat": -7.96332, "Lon": 113.40198}], "Tirlyanskiy": [{"Name": "Tirlyanskiy", "Country Code": "RU", "Population": 5758.0, "Lat": 54.2109, "Lon": 58.5806}], "Tirmitine": [{"Name": "Tirmitine", "Country Code": "DZ", "Population": 26261.0, "Lat": 36.65393, "Lon": 3.98143}], "Tirmiz": [{"Name": "Tirmiz", "Country Code": "UZ", "Population": 182800.0, "Lat": 37.22417, "Lon": 67.27833}], "Tiro": [{"Name": "Tiro", "Country Code": "ID", "Population": 0.0, "Lat": 5.19196, "Lon": 95.93666}], "Tirodi": [{"Name": "Tirodi", "Country Code": "IN", "Population": 8870.0, "Lat": 21.68522, "Lon": 79.71906}], "Tirolo": [{"Name": "Tirolo", "Country Code": "IT", "Population": 1149.0, "Lat": 46.69102, "Lon": 11.15427}], "Tirpersdorf": [{"Name": "Tirpersdorf", "Country Code": "DE", "Population": 1548.0, "Lat": 50.43333, "Lon": 12.25}], "Tirrenia": [{"Name": "Tirrenia", "Country Code": "IT", "Population": 6790.0, "Lat": 43.62719, "Lon": 10.29204}], "Tirschenreuth": [{"Name": "Tirschenreuth", "Country Code": "DE", "Population": 9410.0, "Lat": 49.88263, "Lon": 12.33112}], "Tirthahalli": [{"Name": "T\u012brthahalli", "Country Code": "IN", "Population": 15422.0, "Lat": 13.68835, "Lon": 75.24548}], "Tirtopuro": [{"Name": "Tirtopuro", "Country Code": "ID", "Population": 0.0, "Lat": -8.1805, "Lon": 114.357}], "Tiruchchendur": [{"Name": "Tiruchchendur", "Country Code": "IN", "Population": 29872.0, "Lat": 8.49725, "Lon": 78.11906}], "Tiruchengode": [{"Name": "Tiruchengode", "Country Code": "IN", "Population": 87123.0, "Lat": 11.38016, "Lon": 77.89444}], "Tiruchirappalli": [{"Name": "Tiruchirappalli", "Country Code": "IN", "Population": 1022518.0, "Lat": 10.8155, "Lon": 78.69651}], "Tirukkoyilur": [{"Name": "Tirukkoyilur", "Country Code": "IN", "Population": 28337.0, "Lat": 11.9662, "Lon": 79.20259}], "Tirumakudal Narsipur": [{"Name": "Tirumak\u016bdal Narsipur", "Country Code": "IN", "Population": 9890.0, "Lat": 12.21207, "Lon": 76.9018}], "Tirumala": [{"Name": "Tirumala", "Country Code": "IN", "Population": 18013.0, "Lat": 13.68333, "Lon": 79.35}], "Tirumullaivasal": [{"Name": "Tirumullaiv\u0101sal", "Country Code": "IN", "Population": 13234.0, "Lat": 11.23996, "Lon": 79.83705}], "Tirunelveli": [{"Name": "Tirunelveli", "Country Code": "IN", "Population": 1435844.0, "Lat": 8.72742, "Lon": 77.6838}], "Tirupati": [{"Name": "Tirupati", "Country Code": "IN", "Population": 250821.0, "Lat": 13.63551, "Lon": 79.41989}], "Tirupattur": [{"Name": "Tirupattur", "Country Code": "IN", "Population": 0.0, "Lat": 12.49239, "Lon": 78.56804}], "Tiruppalaikudi": [{"Name": "Tirupp\u0101laikudi", "Country Code": "IN", "Population": 8824.0, "Lat": 9.54606, "Lon": 78.91721}], "Tirupparangunram": [{"Name": "Tirupparangunram", "Country Code": "IN", "Population": 42696.0, "Lat": 9.88151, "Lon": 78.07306}], "Tiruppur": [{"Name": "Tiruppur", "Country Code": "IN", "Population": 963173.0, "Lat": 11.11541, "Lon": 77.35456}], "Tiruppuvanam": [{"Name": "Tiruppuvanam", "Country Code": "IN", "Population": 22517.0, "Lat": 9.82564, "Lon": 78.25795}], "Tirur": [{"Name": "Tirur", "Country Code": "IN", "Population": 54934.0, "Lat": 10.91368, "Lon": 75.92118}], "Tiruttangal": [{"Name": "Tiruttangal", "Country Code": "IN", "Population": 54499.0, "Lat": 9.48333, "Lon": 77.83333}], "Tiruvalla": [{"Name": "Tiruvalla", "Country Code": "IN", "Population": 57223.0, "Lat": 9.3816, "Lon": 76.57489}], "Tiruvallur": [{"Name": "Tiruvallur", "Country Code": "IN", "Population": 48095.0, "Lat": 13.14376, "Lon": 79.90889}], "Tiruvannamalai": [{"Name": "Tiruvann\u0101malai", "Country Code": "IN", "Population": 138243.0, "Lat": 12.22662, "Lon": 79.07461}], "Tiruvottiyur": [{"Name": "Tiruvottiy\u016br", "Country Code": "IN", "Population": 248059.0, "Lat": 13.15823, "Lon": 80.30181}], "Tisa": [{"Name": "Tisa", "Country Code": "RO", "Population": 1322.0, "Lat": 47.94844, "Lon": 23.95768}], "Tisaiyanvilai": [{"Name": "Tisaiyanvilai", "Country Code": "IN", "Population": 20395.0, "Lat": 8.33702, "Lon": 77.86776}], "Tisbury": [{"Name": "Tisbury", "Country Code": "GB", "Population": 2178.0, "Lat": 51.06283, "Lon": -2.08058}], "Tisco": [{"Name": "Tisco", "Country Code": "PE", "Population": 199.0, "Lat": -15.34611, "Lon": -71.44778}], "Tisdale": [{"Name": "Tisdale", "Country Code": "CA", "Population": 2862.0, "Lat": 52.85002, "Lon": -104.05096}], "Tishchenskoye": [{"Name": "Tishchenskoye", "Country Code": "RU", "Population": 3437.0, "Lat": 45.46056, "Lon": 41.67382}], "Tishomingo": [{"Name": "Tishomingo", "Country Code": "US", "Population": 3075.0, "Lat": 34.23621, "Lon": -96.67861}], "Tisice": [{"Name": "Ti\u0161ice", "Country Code": "CZ", "Population": 1460.0, "Lat": 50.2698, "Lon": 14.55411}], "Tisina": [{"Name": "Ti\u0161ina", "Country Code": "SI", "Population": 412.0, "Lat": 46.65806, "Lon": 16.09167}], "Tisma": [{"Name": "Tisma", "Country Code": "NI", "Population": 5182.0, "Lat": 12.08194, "Lon": -86.01739}], "Tismana": [{"Name": "Tismana", "Country Code": "RO", "Population": 7751.0, "Lat": 45.05, "Lon": 22.96667}], "Tisno": [{"Name": "Tisno", "Country Code": "HR", "Population": 1192.0, "Lat": 43.80417, "Lon": 15.64333}], "Tisnov": [{"Name": "Ti\u0161nov", "Country Code": "CZ", "Population": 8227.0, "Lat": 49.34872, "Lon": 16.42438}], "Tisovec": [{"Name": "Tisovec", "Country Code": "SK", "Population": 4127.0, "Lat": 48.67738, "Lon": 19.94364}], "Tissa": [{"Name": "Tissa", "Country Code": "MA", "Population": 12224.0, "Lat": 34.28791, "Lon": -4.66372}], "Tisselt": [{"Name": "Tisselt", "Country Code": "BE", "Population": 3428.0, "Lat": 51.03398, "Lon": 4.35947}], "Tissemsilt": [{"Name": "Tissemsilt", "Country Code": "DZ", "Population": 66084.0, "Lat": 35.60722, "Lon": 1.81081}], "Tissi": [{"Name": "Tissi", "Country Code": "IT", "Population": 2142.0, "Lat": 40.67832, "Lon": 8.56127}], "Tistrup": [{"Name": "Tistrup", "Country Code": "DK", "Population": 1433.0, "Lat": 55.72363, "Lon": 8.61028}], "Tisul'": [{"Name": "Tisul\u2019", "Country Code": "RU", "Population": 9249.0, "Lat": 55.76173, "Lon": 88.31228}], "Tisvilde": [{"Name": "Tisvilde", "Country Code": "DK", "Population": 1444.0, "Lat": 56.05743, "Lon": 12.09752}], "Tiszaalpar": [{"Name": "Tiszaalp\u00e1r", "Country Code": "HU", "Population": 5070.0, "Lat": 46.81279, "Lon": 19.99841}], "Tiszabercel": [{"Name": "Tiszabercel", "Country Code": "HU", "Population": 2047.0, "Lat": 48.15, "Lon": 21.65}], "Tiszabezded": [{"Name": "Tiszabezd\u00e9d", "Country Code": "HU", "Population": 2054.0, "Lat": 48.36667, "Lon": 22.15}], "Tiszabo": [{"Name": "Tiszab\u0151", "Country Code": "HU", "Population": 2000.0, "Lat": 47.3, "Lon": 20.48333}], "Tiszabura": [{"Name": "Tiszabura", "Country Code": "HU", "Population": 2730.0, "Lat": 47.45, "Lon": 20.46667}], "Tiszacsege": [{"Name": "Tiszacsege", "Country Code": "HU", "Population": 4961.0, "Lat": 47.7, "Lon": 21.0}], "Tiszadada": [{"Name": "Tiszadada", "Country Code": "HU", "Population": 2505.0, "Lat": 48.03333, "Lon": 21.25}], "Tiszadob": [{"Name": "Tiszadob", "Country Code": "HU", "Population": 3311.0, "Lat": 48.01667, "Lon": 21.16667}], "Tiszaeszlar": [{"Name": "Tiszaeszl\u00e1r", "Country Code": "HU", "Population": 2857.0, "Lat": 48.05, "Lon": 21.46667}], "Tiszafoldvar": [{"Name": "Tiszaf\u00f6ldv\u00e1r", "Country Code": "HU", "Population": 11873.0, "Lat": 46.98333, "Lon": 20.25}], "Tiszafuered": [{"Name": "Tiszaf\u00fcred", "Country Code": "HU", "Population": 10872.0, "Lat": 47.61667, "Lon": 20.76667}], "Tiszakarad": [{"Name": "Tiszakar\u00e1d", "Country Code": "HU", "Population": 2522.0, "Lat": 48.2, "Lon": 21.71667}], "Tiszakecske": [{"Name": "Tiszak\u00e9cske", "Country Code": "HU", "Population": 11745.0, "Lat": 46.93261, "Lon": 20.10349}], "Tiszakeszi": [{"Name": "Tiszakeszi", "Country Code": "HU", "Population": 2692.0, "Lat": 47.78333, "Lon": 21.0}], "Tiszalok": [{"Name": "Tiszal\u00f6k", "Country Code": "HU", "Population": 6122.0, "Lat": 48.01667, "Lon": 21.38333}], "Tiszaluc": [{"Name": "Tiszal\u00fac", "Country Code": "HU", "Population": 5551.0, "Lat": 48.03774, "Lon": 21.07261}], "Tiszanagyfalu": [{"Name": "Tiszanagyfalu", "Country Code": "HU", "Population": 2010.0, "Lat": 48.09208, "Lon": 21.4728}], "Tiszanana": [{"Name": "Tiszan\u00e1na", "Country Code": "HU", "Population": 2607.0, "Lat": 47.56667, "Lon": 20.53333}], "Tiszapuspoki": [{"Name": "Tiszap\u00fcsp\u00f6ki", "Country Code": "HU", "Population": 2096.0, "Lat": 47.21667, "Lon": 20.31667}], "Tiszaroff": [{"Name": "Tiszaroff", "Country Code": "HU", "Population": 1874.0, "Lat": 47.4, "Lon": 20.45}], "Tiszasuly": [{"Name": "Tiszas\u00fcly", "Country Code": "HU", "Population": 1737.0, "Lat": 47.38333, "Lon": 20.4}], "Tiszaszentimre": [{"Name": "Tiszaszentimre", "Country Code": "HU", "Population": 2340.0, "Lat": 47.48333, "Lon": 20.73333}], "Tiszaszolos": [{"Name": "Tiszasz\u0151l\u0151s", "Country Code": "HU", "Population": 1946.0, "Lat": 47.55707, "Lon": 20.71949}], "Tiszaujvaros": [{"Name": "Tisza\u00fajv\u00e1ros", "Country Code": "HU", "Population": 17295.0, "Lat": 47.93333, "Lon": 21.08333}], "Tiszavasvari": [{"Name": "Tiszavasv\u00e1ri", "Country Code": "HU", "Population": 13631.0, "Lat": 47.96667, "Lon": 21.35}], "Tit Mellil": [{"Name": "Tit Mellil", "Country Code": "MA", "Population": 35797.0, "Lat": 33.55808, "Lon": -7.48647}], "Tita": [{"Name": "Tita", "Country Code": "BF", "Population": 16450.0, "Lat": 11.92092, "Lon": -2.51536}], "Titabar": [{"Name": "Tit\u0101bar", "Country Code": "IN", "Population": 7836.0, "Lat": 26.6014, "Lon": 94.20386}], "Titagarh": [{"Name": "Tit\u0101garh", "Country Code": "IN", "Population": 127751.0, "Lat": 22.74252, "Lon": 88.37326}], "Titaguas": [{"Name": "Titaguas", "Country Code": "ES", "Population": 544.0, "Lat": 39.86667, "Lon": -1.08333}], "Titahi Bay": [{"Name": "Titahi Bay", "Country Code": "NZ", "Population": 6870.0, "Lat": -41.1, "Lon": 174.83333}], "Titan": [{"Name": "T\u012bt\u0101n", "Country Code": "AF", "Population": 0.0, "Lat": 33.69032, "Lon": 63.86361}], "Titao": [{"Name": "Titao", "Country Code": "BF", "Population": 48241.0, "Lat": 13.76667, "Lon": -2.06667}], "Titay": [{"Name": "Titay", "Country Code": "PH", "Population": 11468.0, "Lat": 7.8125, "Lon": 122.53444}], "Titchfield": [{"Name": "Titchfield", "Country Code": "GB", "Population": 7280.0, "Lat": 50.85115, "Lon": -1.23716}], "Tite": [{"Name": "Tite", "Country Code": "GW", "Population": 1109.0, "Lat": 11.78333, "Lon": -15.4}], "Titel": [{"Name": "Titel", "Country Code": "RS", "Population": 6227.0, "Lat": 45.20611, "Lon": 20.29444}], "Titesti": [{"Name": "Tite\u0219ti", "Country Code": "RO", "Population": 713.0, "Lat": 45.41971, "Lon": 24.39323}, {"Name": "Tite\u015fti", "Country Code": "RO", "Population": 4581.0, "Lat": 45.01667, "Lon": 25.0}], "Titirangi": [{"Name": "Titirangi", "Country Code": "NZ", "Population": 7490.0, "Lat": -36.93754, "Lon": 174.65584}], "Titiribi": [{"Name": "Titirib\u00ed", "Country Code": "CO", "Population": 8316.0, "Lat": 6.06276, "Lon": -75.7937}], "Titisee-Neustadt": [{"Name": "Titisee-Neustadt", "Country Code": "DE", "Population": 12019.0, "Lat": 47.92104, "Lon": 8.19063}], "Titlagarh": [{"Name": "Titl\u0101garh", "Country Code": "IN", "Population": 28405.0, "Lat": 20.28961, "Lon": 83.15233}], "Tito": [{"Name": "Tito", "Country Code": "IT", "Population": 4237.0, "Lat": 40.5837, "Lon": 15.67621}], "Titron": [{"Name": "Titron", "Country Code": "IN", "Population": 11569.0, "Lat": 29.66824, "Lon": 77.32391}], "Tittling": [{"Name": "Tittling", "Country Code": "DE", "Population": 3800.0, "Lat": 48.72619, "Lon": 13.38221}], "Tittmoning": [{"Name": "Tittmoning", "Country Code": "DE", "Population": 6084.0, "Lat": 48.06164, "Lon": 12.7676}], "Titu": [{"Name": "Titu", "Country Code": "RO", "Population": 10081.0, "Lat": 44.65, "Lon": 25.53333}], "Titulcia": [{"Name": "Titulcia", "Country Code": "ES", "Population": 945.0, "Lat": 40.13537, "Lon": -3.56763}], "Titusville": [{"Name": "Titusville", "Country Code": "US", "Population": 5389.0, "Lat": 41.627, "Lon": -79.67366}, {"Name": "Titusville", "Country Code": "US", "Population": 45393.0, "Lat": 28.61222, "Lon": -80.80755}], "Titz": [{"Name": "Titz", "Country Code": "DE", "Population": 8461.0, "Lat": 51.00619, "Lon": 6.42477}], "Tiu Keng Leng": [{"Name": "Tiu Keng Leng", "Country Code": "HK", "Population": 51751.0, "Lat": 22.29853, "Lon": 114.25115}], "Tiur": [{"Name": "Tiur", "Country Code": "RO", "Population": 1765.0, "Lat": 46.16009, "Lon": 23.88927}], "Tiurana": [{"Name": "Tiurana", "Country Code": "ES", "Population": 41.0, "Lat": 41.97527, "Lon": 1.25608}], "Tivat": [{"Name": "Tivat", "Country Code": "ME", "Population": 6280.0, "Lat": 42.43623, "Lon": 18.69361}], "Tivenys": [{"Name": "Tivenys", "Country Code": "ES", "Population": 868.0, "Lat": 40.90787, "Lon": 0.51236}], "Tiverton": [{"Name": "Tiverton", "Country Code": "GB", "Population": 0.0, "Lat": 53.13333, "Lon": -2.66667}, {"Name": "Tiverton", "Country Code": "GB", "Population": 19544.0, "Lat": 50.90241, "Lon": -3.49232}, {"Name": "Tiverton", "Country Code": "US", "Population": 7557.0, "Lat": 41.62594, "Lon": -71.21338}], "Tivissa": [{"Name": "Tivissa", "Country Code": "ES", "Population": 0.0, "Lat": 41.03333, "Lon": 0.73333}], "Tivoli": [{"Name": "Tivoli", "Country Code": "AU", "Population": 1492.0, "Lat": -27.59278, "Lon": 152.76798}, {"Name": "Tivoli", "Country Code": "IT", "Population": 22018.0, "Lat": 41.95952, "Lon": 12.8016}, {"Name": "Tivoli", "Country Code": "NL", "Population": 1495.0, "Lat": 51.42069, "Lon": 5.50818}, {"Name": "Tivoli", "Country Code": "US", "Population": 1099.0, "Lat": 42.05842, "Lon": -73.9093}], "Tivolille Pasquali-Merenzata": [{"Name": "Tivolille Pasquali-Merenzata", "Country Code": "IT", "Population": 4381.0, "Lat": 39.27953, "Lon": 16.20738}], "Tiwi": [{"Name": "Tiwi", "Country Code": "AU", "Population": 2954.0, "Lat": -12.35876, "Lon": 130.878}, {"Name": "Tiwi", "Country Code": "PH", "Population": 2269.0, "Lat": 10.92972, "Lon": 122.73417}, {"Name": "Tiwi", "Country Code": "PH", "Population": 16826.0, "Lat": 13.4585, "Lon": 123.6805}], "Tixcacalcupul": [{"Name": "Tixcacalcupul", "Country Code": "MX", "Population": 3492.0, "Lat": 20.53603, "Lon": -88.27042}], "Tixcacaltuyub": [{"Name": "Tixcacaltuyub", "Country Code": "MX", "Population": 2146.0, "Lat": 20.49316, "Lon": -88.91637}], "Tixcancal": [{"Name": "Tixcancal", "Country Code": "MX", "Population": 2165.0, "Lat": 21.03588, "Lon": -87.85047}], "Tixhualactun": [{"Name": "Tixhualact\u00fan", "Country Code": "MX", "Population": 1576.0, "Lat": 20.64403, "Lon": -88.14308}], "Tixkokob": [{"Name": "Tixkokob", "Country Code": "MX", "Population": 10968.0, "Lat": 21.0027, "Lon": -89.39517}], "Tixmadeje Chiquito": [{"Name": "Tixmadeje Chiquito", "Country Code": "MX", "Population": 1377.0, "Lat": 19.96556, "Lon": -99.91444}], "Tixmehuac": [{"Name": "Tixmehuac", "Country Code": "MX", "Population": 2392.0, "Lat": 20.23609, "Lon": -89.10827}], "Tixpehual": [{"Name": "Tixp\u00e9hual", "Country Code": "MX", "Population": 3470.0, "Lat": 20.97739, "Lon": -89.44203}], "Tixtla de Guerrero": [{"Name": "Tixtla de Guerrero", "Country Code": "MX", "Population": 22826.0, "Lat": 17.56732, "Lon": -99.39799}], "Tixtlancingo": [{"Name": "Tixtlancingo", "Country Code": "MX", "Population": 3635.0, "Lat": 17.0578, "Lon": -99.96177}], "Tizapan el Alto": [{"Name": "Tizap\u00e1n el Alto", "Country Code": "MX", "Population": 14877.0, "Lat": 20.15942, "Lon": -103.0447}], "Tizayuca": [{"Name": "Tizayuca", "Country Code": "MX", "Population": 43250.0, "Lat": 19.83721, "Lon": -98.97607}], "Tizgane": [{"Name": "Tizgane", "Country Code": "MA", "Population": 0.0, "Lat": 35.41211, "Lon": -5.06836}], "Tizguine": [{"Name": "Tizguine", "Country Code": "MA", "Population": 0.0, "Lat": 31.22836, "Lon": -8.31611}], "Tizi Gheniff": [{"Name": "Tizi Gheniff", "Country Code": "DZ", "Population": 27974.0, "Lat": 36.58839, "Lon": 3.77445}], "Tizi Ouzli": [{"Name": "Tizi Ouzli", "Country Code": "MA", "Population": 1831.0, "Lat": 34.76214, "Lon": -3.79582}], "Tizi Ouzou": [{"Name": "Tizi Ouzou", "Country Code": "DZ", "Population": 104312.0, "Lat": 36.71182, "Lon": 4.04591}], "Tizi Rached": [{"Name": "Tizi Rached", "Country Code": "DZ", "Population": 17872.0, "Lat": 36.67176, "Lon": 4.19176}], "Tizi-n-Tleta": [{"Name": "Tizi-n-Tleta", "Country Code": "DZ", "Population": 22404.0, "Lat": 36.54569, "Lon": 4.05712}], "Tizimin": [{"Name": "Tizim\u00edn", "Country Code": "MX", "Population": 46971.0, "Lat": 21.14268, "Lon": -88.15101}], "Tiznit": [{"Name": "Tiznit", "Country Code": "MA", "Population": 81569.0, "Lat": 29.69742, "Lon": -9.73162}], "Tiztoutine": [{"Name": "Tiztoutine", "Country Code": "MA", "Population": 5224.0, "Lat": 34.97159, "Lon": -3.15273}], "Tizzano Val Parma": [{"Name": "Tizzano Val Parma", "Country Code": "IT", "Population": 367.0, "Lat": 44.51931, "Lon": 10.19819}], "Tjaereborg": [{"Name": "Tj\u00e6reborg", "Country Code": "DK", "Population": 2904.0, "Lat": 55.46457, "Lon": 8.57968}], "Tjome": [{"Name": "Tj\u00f8me", "Country Code": "NO", "Population": 4663.0, "Lat": 59.1109, "Lon": 10.3933}], "Tjuvkil": [{"Name": "Tjuvkil", "Country Code": "SE", "Population": 1013.0, "Lat": 57.9, "Lon": 11.73333}], "Tkon": [{"Name": "Tkon", "Country Code": "HR", "Population": 662.0, "Lat": 43.92096, "Lon": 15.41761}], "Tlacamilco": [{"Name": "Tlacamilco", "Country Code": "MX", "Population": 2819.0, "Lat": 19.0759, "Lon": -97.9164}], "Tlachaloya": [{"Name": "Tlachaloya", "Country Code": "MX", "Population": 3563.0, "Lat": 19.44846, "Lon": -99.66225}], "Tlachichila": [{"Name": "Tlachichila", "Country Code": "MX", "Population": 1514.0, "Lat": 21.55745, "Lon": -102.78613}], "Tlachichilco": [{"Name": "Tlachichilco", "Country Code": "MX", "Population": 725.0, "Lat": 17.6222, "Lon": -98.34312}, {"Name": "Tlachichilco", "Country Code": "MX", "Population": 1386.0, "Lat": 20.62123, "Lon": -98.199}], "Tlachichuca": [{"Name": "Tlachichuca", "Country Code": "MX", "Population": 7574.0, "Lat": 19.11485, "Lon": -97.41915}], "Tlacoachistlahuaca": [{"Name": "Tlacoachistlahuaca", "Country Code": "MX", "Population": 4359.0, "Lat": 16.81045, "Lon": -98.30078}], "Tlacoapa": [{"Name": "Tlacoapa", "Country Code": "MX", "Population": 1486.0, "Lat": 17.26361, "Lon": -98.74861}], "Tlacoatzintepec": [{"Name": "Tlacoatzintepec", "Country Code": "MX", "Population": 1103.0, "Lat": 17.85985, "Lon": -96.58647}], "Tlacoaxtla": [{"Name": "Tlacoaxtla", "Country Code": "MX", "Population": 1369.0, "Lat": 17.55485, "Lon": -99.20081}], "Tlacojalpan": [{"Name": "Tlacojalpan", "Country Code": "MX", "Population": 4006.0, "Lat": 18.23096, "Lon": -95.94682}], "Tlacolula": [{"Name": "Tlacolula", "Country Code": "MX", "Population": 2328.0, "Lat": 21.09177, "Lon": -97.9596}], "Tlacolula de Matamoros": [{"Name": "Tlacolula de Matamoros", "Country Code": "MX", "Population": 13821.0, "Lat": 16.95471, "Lon": -96.4759}], "Tlacolulan": [{"Name": "Tlacolulan", "Country Code": "MX", "Population": 1453.0, "Lat": 19.66687, "Lon": -97.00194}], "Tlacomulco": [{"Name": "Tlacomulco", "Country Code": "MX", "Population": 1932.0, "Lat": 20.15301, "Lon": -98.12027}, {"Name": "Tlacomulco", "Country Code": "MX", "Population": 1814.0, "Lat": 19.12111, "Lon": -99.4475}], "Tlacotalpan": [{"Name": "Tlacotalpan", "Country Code": "MX", "Population": 7600.0, "Lat": 18.61333, "Lon": -95.6589}], "Tlacote el Bajo": [{"Name": "Tlacote el Bajo", "Country Code": "MX", "Population": 4396.0, "Lat": 20.66139, "Lon": -100.50769}], "Tlacotepec": [{"Name": "Tlacotepec", "Country Code": "MX", "Population": 5087.0, "Lat": 18.81444, "Lon": -98.74514}, {"Name": "Tlacotepec", "Country Code": "MX", "Population": 8908.0, "Lat": 18.68193, "Lon": -97.65602}, {"Name": "Tlacotepec", "Country Code": "MX", "Population": 6848.0, "Lat": 17.78978, "Lon": -99.97961}, {"Name": "Tlacotepec", "Country Code": "MX", "Population": 1659.0, "Lat": 18.40389, "Lon": -96.8508}], "Tlacotepec (San Mateo)": [{"Name": "Tlacotepec (San Mateo)", "Country Code": "MX", "Population": 2554.0, "Lat": 20.06028, "Lon": -97.84917}], "Tlacotepec de Jose Manzo": [{"Name": "Tlacotepec de Jos\u00e9 Manzo", "Country Code": "MX", "Population": 2403.0, "Lat": 19.27194, "Lon": -98.48472}], "Tlacotepec de Mejia": [{"Name": "Tlacotepec de Mej\u00eda", "Country Code": "MX", "Population": 2401.0, "Lat": 19.18946, "Lon": -96.83805}], "Tlacpac": [{"Name": "Tlacpac", "Country Code": "MX", "Population": 1008.0, "Lat": 20.14889, "Lon": -98.21694}], "Tlacuilola": [{"Name": "Tlacuilola", "Country Code": "MX", "Population": 1045.0, "Lat": 21.2375, "Lon": -98.86806}], "Tlacuilolapan": [{"Name": "Tlacuilolapan", "Country Code": "MX", "Population": 1217.0, "Lat": 17.97778, "Lon": -94.26306}], "Tlacuilotepec": [{"Name": "Tlacuilotepec", "Country Code": "MX", "Population": 1685.0, "Lat": 20.32574, "Lon": -98.06867}], "Tlacuitapan": [{"Name": "Tlacuitapan", "Country Code": "MX", "Population": 1351.0, "Lat": 21.19829, "Lon": -102.12416}], "Tlacuitlapa": [{"Name": "Tlacuitlapa", "Country Code": "MX", "Population": 2234.0, "Lat": 19.12209, "Lon": -99.41534}], "Tlahuac": [{"Name": "Tl\u00e1huac", "Country Code": "MX", "Population": 305076.0, "Lat": 19.28689, "Lon": -99.00507}], "Tlahualilo de Zaragoza": [{"Name": "Tlahualilo de Zaragoza", "Country Code": "MX", "Population": 9517.0, "Lat": 26.10593, "Lon": -103.44257}], "Tlahuapa": [{"Name": "Tlahuapa", "Country Code": "MX", "Population": 1292.0, "Lat": 17.375, "Lon": -98.3375}], "Tlahuelilpan": [{"Name": "Tlahuelilpan", "Country Code": "MX", "Population": 8498.0, "Lat": 20.13076, "Lon": -99.23145}], "Tlahuelompa (San Francisco Tlahuelompa)": [{"Name": "Tlahuelompa (San Francisco Tlahuelompa)", "Country Code": "MX", "Population": 1015.0, "Lat": 20.65082, "Lon": -98.57522}], "Tlahuitoltepec": [{"Name": "Tlahuitoltepec", "Country Code": "MX", "Population": 3452.0, "Lat": 17.09746, "Lon": -96.06279}], "Tlaixpan": [{"Name": "Tlaixpan", "Country Code": "MX", "Population": 10513.0, "Lat": 18.91217, "Lon": -97.73818}], "Tlajomulco de Zuniga": [{"Name": "Tlajomulco de Z\u00fa\u00f1iga", "Country Code": "MX", "Population": 30273.0, "Lat": 20.47421, "Lon": -103.44654}], "Tlalchapa": [{"Name": "Tlalchapa", "Country Code": "MX", "Population": 4067.0, "Lat": 18.41027, "Lon": -100.47623}], "Tlalchiyahualica": [{"Name": "Tlalchiyahualica", "Country Code": "MX", "Population": 2122.0, "Lat": 20.97086, "Lon": -98.39975}], "Tlalconteno": [{"Name": "Tlalconteno", "Country Code": "MX", "Population": 1418.0, "Lat": 19.44863, "Lon": -97.24642}], "Tlalcozotitlan": [{"Name": "Tlalcozotitl\u00e1n", "Country Code": "MX", "Population": 1029.0, "Lat": 17.88355, "Lon": -99.13083}], "Tlalixcoyan": [{"Name": "Tlalixcoyan", "Country Code": "MX", "Population": 3335.0, "Lat": 18.80222, "Lon": -96.06056}], "Tlalixtac de Cabrera": [{"Name": "Tlalixtac de Cabrera", "Country Code": "MX", "Population": 8881.0, "Lat": 17.07112, "Lon": -96.6471}], "Tlalixtaquilla": [{"Name": "Tlalixtaquilla", "Country Code": "MX", "Population": 2240.0, "Lat": 17.57674, "Lon": -98.36727}], "Tlalmanalco": [{"Name": "Tlalmanalco", "Country Code": "MX", "Population": 14786.0, "Lat": 19.20521, "Lon": -98.80115}], "Tlalminulpa": [{"Name": "Tlalminulpa", "Country Code": "MX", "Population": 2486.0, "Lat": 20.07491, "Lon": -99.2222}], "Tlalnelhuayocan": [{"Name": "Tlalnelhuayocan", "Country Code": "MX", "Population": 957.0, "Lat": 19.56681, "Lon": -96.97534}], "Tlalnepantla": [{"Name": "Tlalnepantla", "Country Code": "MX", "Population": 2478.0, "Lat": 21.18, "Lon": -98.84611}, {"Name": "Tlalnepantla", "Country Code": "MX", "Population": 653410.0, "Lat": 19.54005, "Lon": -99.19538}, {"Name": "Tlalnepantla", "Country Code": "MX", "Population": 3872.0, "Lat": 19.00885, "Lon": -98.99613}], "Tlalpan": [{"Name": "Tlalpan", "Country Code": "MX", "Population": 574577.0, "Lat": 19.29513, "Lon": -99.16206}], "Tlalpujahua de Rayon": [{"Name": "Tlalpujahua de Ray\u00f3n", "Country Code": "MX", "Population": 3530.0, "Lat": 19.80523, "Lon": -100.17409}], "Tlaltecahuacan": [{"Name": "Tlaltecahuac\u00e1n", "Country Code": "MX", "Population": 1423.0, "Lat": 19.57896, "Lon": -98.88067}], "Tlaltempanapa": [{"Name": "Tlaltempanapa", "Country Code": "MX", "Population": 1517.0, "Lat": 17.73611, "Lon": -99.17722}], "Tlaltenango": [{"Name": "Tlaltenango", "Country Code": "MX", "Population": 5995.0, "Lat": 19.17165, "Lon": -98.34072}], "Tlaltenango de Sanchez Roman": [{"Name": "Tlaltenango de S\u00e1nchez Rom\u00e1n", "Country Code": "MX", "Population": 16396.0, "Lat": 21.78221, "Lon": -103.30298}], "Tlaltenanguito": [{"Name": "Tlaltenanguito", "Country Code": "MX", "Population": 1168.0, "Lat": 19.49822, "Lon": -99.58309}], "Tlaltepango": [{"Name": "Tlaltepango", "Country Code": "MX", "Population": 1756.0, "Lat": 20.14531, "Lon": -97.87723}], "Tlaltetela": [{"Name": "Tlaltetela", "Country Code": "MX", "Population": 4528.0, "Lat": 19.31421, "Lon": -96.90105}], "Tlaltetelco (San Miguel Tlaltetelco)": [{"Name": "Tlaltetelco (San Miguel Tlaltetelco)", "Country Code": "MX", "Population": 1424.0, "Lat": 18.95222, "Lon": -98.88806}], "Tlaltizapan": [{"Name": "Tlaltizap\u00e1n", "Country Code": "MX", "Population": 10563.0, "Lat": 18.6863, "Lon": -99.11868}], "Tlamacazapa": [{"Name": "Tlamacazapa", "Country Code": "MX", "Population": 6234.0, "Lat": 18.49649, "Lon": -99.50037}], "Tlamaco (San Geronimo Tlamaco)": [{"Name": "Tlamaco (San Ger\u00f3nimo Tlamaco)", "Country Code": "MX", "Population": 3285.0, "Lat": 20.03472, "Lon": -99.22917}], "Tlamanca": [{"Name": "Tlamanca", "Country Code": "MX", "Population": 1226.0, "Lat": 19.67457, "Lon": -97.6964}], "Tlamanca de Hernandez": [{"Name": "Tlamanca de Hern\u00e1ndez", "Country Code": "MX", "Population": 1937.0, "Lat": 19.95597, "Lon": -97.81489}], "Tlamatoca": [{"Name": "Tlamatoca", "Country Code": "MX", "Population": 1479.0, "Lat": 19.09336, "Lon": -96.93685}], "Tlamaya Grande": [{"Name": "Tlamaya Grande", "Country Code": "MX", "Population": 1008.0, "Lat": 20.14689, "Lon": -97.80313}], "Tlaminca": [{"Name": "Tlaminca", "Country Code": "MX", "Population": 1007.0, "Lat": 19.13571, "Lon": -99.43999}], "Tlamixtlahuacan": [{"Name": "Tlamixtlahuacan", "Country Code": "MX", "Population": 3031.0, "Lat": 17.50306, "Lon": -99.22583}], "Tlanalapa": [{"Name": "Tlanalapa", "Country Code": "MX", "Population": 7518.0, "Lat": 19.81868, "Lon": -98.60396}], "Tlanalapan": [{"Name": "Tlanalapan", "Country Code": "MX", "Population": 1050.0, "Lat": 19.25084, "Lon": -97.27604}], "Tlanchinol": [{"Name": "Tlanchinol", "Country Code": "MX", "Population": 5199.0, "Lat": 20.9919, "Lon": -98.65715}], "Tlancualpican": [{"Name": "Tlancualpican", "Country Code": "MX", "Population": 4024.0, "Lat": 18.43333, "Lon": -98.7}], "Tlanepantla": [{"Name": "Tlanepantla", "Country Code": "MX", "Population": 1293.0, "Lat": 19.21748, "Lon": -97.13404}, {"Name": "Tlanepantla", "Country Code": "MX", "Population": 4707.0, "Lat": 18.8631, "Lon": -97.88701}], "Tlanipatla": [{"Name": "Tlanipatla", "Country Code": "MX", "Population": 1276.0, "Lat": 17.80806, "Lon": -99.45139}], "Tlaola": [{"Name": "Tlaola", "Country Code": "MX", "Population": 1406.0, "Lat": 20.13861, "Lon": -97.92306}], "Tlapa de Comonfort": [{"Name": "Tlapa de Comonfort", "Country Code": "MX", "Population": 46975.0, "Lat": 17.54528, "Lon": -98.57599}], "Tlapacoyan": [{"Name": "Tlapacoyan", "Country Code": "MX", "Population": 35338.0, "Lat": 19.96268, "Lon": -97.21141}, {"Name": "Tlapacoyan", "Country Code": "MX", "Population": 2648.0, "Lat": 18.45667, "Lon": -95.40056}], "Tlapala": [{"Name": "Tlapala", "Country Code": "MX", "Population": 1292.0, "Lat": 19.26165, "Lon": -96.91878}], "Tlapanala": [{"Name": "Tlapanal\u00e1", "Country Code": "MX", "Population": 2727.0, "Lat": 18.69585, "Lon": -98.53561}], "Tlapanaloya": [{"Name": "Tlapanaloya", "Country Code": "MX", "Population": 6466.0, "Lat": 19.93619, "Lon": -99.09664}], "Tlapehuala": [{"Name": "Tlapehuala", "Country Code": "MX", "Population": 9331.0, "Lat": 18.24101, "Lon": -100.5379}], "Tlaquepaque": [{"Name": "Tlaquepaque", "Country Code": "MX", "Population": 575942.0, "Lat": 20.64091, "Lon": -103.29327}], "Tlaquilpa": [{"Name": "Tlaquilpa", "Country Code": "MX", "Population": 775.0, "Lat": 18.6102, "Lon": -97.11852}], "Tlaquiltenango": [{"Name": "Tlaquiltenango", "Country Code": "MX", "Population": 18334.0, "Lat": 18.63429, "Lon": -99.1632}], "Tlaquiltepec": [{"Name": "Tlaquiltepec", "Country Code": "MX", "Population": 1307.0, "Lat": 17.73143, "Lon": -98.54736}], "Tlatempa": [{"Name": "Tlatempa", "Country Code": "MX", "Population": 2189.0, "Lat": 19.94484, "Lon": -97.93526}], "Tlatempan": [{"Name": "Tlatempan", "Country Code": "MX", "Population": 2837.0, "Lat": 19.33167, "Lon": -98.20306}], "Tlatenchi": [{"Name": "Tlatenchi", "Country Code": "MX", "Population": 5555.0, "Lat": 18.59639, "Lon": -99.18639}], "Tlatilpa": [{"Name": "Tlatilpa", "Country Code": "MX", "Population": 1078.0, "Lat": 18.73389, "Lon": -97.14417}], "Tlatlauquitepec": [{"Name": "Tlatlauquitepec", "Country Code": "MX", "Population": 2188.0, "Lat": 17.54825, "Lon": -98.82711}, {"Name": "Tlatlauquitepec", "Country Code": "MX", "Population": 9720.0, "Lat": 19.84765, "Lon": -97.49718}], "Tlatlaya": [{"Name": "Tlatlaya", "Country Code": "MX", "Population": 572.0, "Lat": 18.61773, "Lon": -100.20779}], "Tlatzala": [{"Name": "Tlatzala", "Country Code": "MX", "Population": 1387.0, "Lat": 17.61498, "Lon": -98.5497}, {"Name": "Tlatzala", "Country Code": "MX", "Population": 1057.0, "Lat": 18.72861, "Lon": -97.14111}], "Tlaxcala": [{"Name": "Tlaxcala", "Country Code": "MX", "Population": 84670.0, "Lat": 19.31905, "Lon": -98.19982}], "Tlaxcalantongo": [{"Name": "Tlaxcalantongo", "Country Code": "MX", "Population": 1948.0, "Lat": 20.31397, "Lon": -97.87199}], "Tlaxcalilla": [{"Name": "Tlaxcalilla", "Country Code": "MX", "Population": 3274.0, "Lat": 20.37731, "Lon": -99.81545}], "Tlaxcalixtlahuaca": [{"Name": "Tlaxcalixtlahuaca", "Country Code": "MX", "Population": 1441.0, "Lat": 16.98179, "Lon": -98.77843}], "Tlaxco": [{"Name": "Tlaxco", "Country Code": "MX", "Population": 1272.0, "Lat": 20.42345, "Lon": -98.02917}, {"Name": "Tlaxco", "Country Code": "MX", "Population": 14806.0, "Lat": 19.61442, "Lon": -98.11997}], "Tlaxco (Santiago Tlaxco)": [{"Name": "Tlaxco (Santiago Tlaxco)", "Country Code": "MX", "Population": 1695.0, "Lat": 20.05788, "Lon": -97.96249}], "Tlaxcoapan": [{"Name": "Tlaxcoapan", "Country Code": "MX", "Population": 14241.0, "Lat": 20.09163, "Lon": -99.22042}], "Tlaxinga (Clatzinga)": [{"Name": "Tlaxinga (Clatzinga)", "Country Code": "MX", "Population": 1884.0, "Lat": 17.52106, "Lon": -99.19331}], "Tlaxmalac": [{"Name": "Tlaxmalac", "Country Code": "MX", "Population": 2217.0, "Lat": 18.36115, "Lon": -99.41316}], "Tlaxocoyucan": [{"Name": "Tlaxocoyucan", "Country Code": "MX", "Population": 1188.0, "Lat": 20.22895, "Lon": -98.49034}], "Tlaxpanaloya": [{"Name": "Tlaxpanaloya", "Country Code": "MX", "Population": 1429.0, "Lat": 20.22589, "Lon": -98.12036}], "Tlayacapan": [{"Name": "Tlayacapan", "Country Code": "MX", "Population": 7989.0, "Lat": 18.95556, "Lon": -98.98111}], "Tlayehualancingo": [{"Name": "Tlayehualancingo", "Country Code": "MX", "Population": 1320.0, "Lat": 20.03301, "Lon": -97.82661}], "Tlazala de Fabela": [{"Name": "Tlazala de Fabela", "Country Code": "MX", "Population": 2002.0, "Lat": 19.55857, "Lon": -99.41469}], "Tlazazalca": [{"Name": "Tlazazalca", "Country Code": "MX", "Population": 3228.0, "Lat": 19.97085, "Lon": -102.05842}], "Tlemcen": [{"Name": "Tlemcen", "Country Code": "DZ", "Population": 173531.0, "Lat": 34.87833, "Lon": -1.315}], "Tlet El Hanchane": [{"Name": "Tlet El Hanchane", "Country Code": "MA", "Population": 5421.0, "Lat": 31.52207, "Lon": -9.43594}], "Tlet Ighoud": [{"Name": "Tlet Ighoud", "Country Code": "MA", "Population": 1993.0, "Lat": 31.86011, "Lon": -8.88214}], "Tlet Sidi Bouguedra": [{"Name": "Tlet Sidi Bouguedra", "Country Code": "MA", "Population": 2127.0, "Lat": 32.25507, "Lon": -8.98067}], "Tlilapan": [{"Name": "Tlilapan", "Country Code": "MX", "Population": 3476.0, "Lat": 18.8056, "Lon": -97.09867}], "Tlixco": [{"Name": "Tlixco", "Country Code": "MX", "Population": 1329.0, "Lat": 18.27389, "Lon": -96.99972}], "Tlmace": [{"Name": "Tlma\u010de", "Country Code": "SK", "Population": 4305.0, "Lat": 48.28926, "Lon": 18.53152}], "Tlogowungu": [{"Name": "Tlogowungu", "Country Code": "ID", "Population": 0.0, "Lat": -6.70685, "Lon": 111.01411}], "Tlokweng": [{"Name": "Tlokweng", "Country Code": "BW", "Population": 55508.0, "Lat": -24.66861, "Lon": 25.97111}], "Tluchowo": [{"Name": "T\u0142uchowo", "Country Code": "PL", "Population": 1159.0, "Lat": 52.74715, "Lon": 19.46563}], "Tlucna": [{"Name": "Tlu\u010dn\u00e1", "Country Code": "CZ", "Population": 2482.0, "Lat": 49.72425, "Lon": 13.23534}], "Tlumach": [{"Name": "Tlumach", "Country Code": "UA", "Population": 8886.0, "Lat": 48.86519, "Lon": 25.00385}], "Tlumacov": [{"Name": "Tluma\u010dov", "Country Code": "CZ", "Population": 2468.0, "Lat": 49.25351, "Lon": 17.49559}], "Tluszcz": [{"Name": "T\u0142uszcz", "Country Code": "PL", "Population": 7482.0, "Lat": 52.43058, "Lon": 21.43561}], "Tlyarata": [{"Name": "Tlyarata", "Country Code": "RU", "Population": 1898.0, "Lat": 42.10552, "Lon": 46.35416}], "Tlyustenkhabl'": [{"Name": "Tlyustenkhabl\u2019", "Country Code": "RU", "Population": 4964.0, "Lat": 44.982, "Lon": 39.09773}], "Tmourghout": [{"Name": "Tmourghout", "Country Code": "MA", "Population": 1250.0, "Lat": 33.9065, "Lon": -4.02696}], "Tnine Sidi Lyamani": [{"Name": "Tnine Sidi Lyamani", "Country Code": "MA", "Population": 1155.0, "Lat": 35.36929, "Lon": -5.97242}], "To": [{"Name": "T\u00f4", "Country Code": "BF", "Population": 16026.0, "Lat": 11.44379, "Lon": -2.22548}], "To Hap": [{"Name": "T\u00f4 H\u1ea1p", "Country Code": "VN", "Population": 0.0, "Lat": 12.00582, "Lon": 108.94868}], "To Kwa Wan": [{"Name": "To Kwa Wan", "Country Code": "HK", "Population": 15646.0, "Lat": 22.31693, "Lon": 114.19052}], "To'rqao'rg'on": [{"Name": "To\u2018rqao\u2018rg\u2018on", "Country Code": "UZ", "Population": 30300.0, "Lat": 40.99984, "Lon": 71.51162}], "To`rtko`l Shahri": [{"Name": "To\u2018rtko\u2018l Shahri", "Country Code": "UZ", "Population": 0.0, "Lat": 41.56055, "Lon": 61.0018}], "Toa Alta": [{"Name": "Toa Alta", "Country Code": "PR", "Population": 4483.0, "Lat": 18.38828, "Lon": -66.24822}], "Toa Baja": [{"Name": "Toa Baja", "Country Code": "PR", "Population": 1889.0, "Lat": 18.44384, "Lon": -66.25961}], "Toabre": [{"Name": "Toabr\u00e9", "Country Code": "PA", "Population": 603.0, "Lat": 8.65073, "Lon": -80.32119}], "Toaca": [{"Name": "Toaca", "Country Code": "RO", "Population": 1871.0, "Lat": 46.79975, "Lon": 24.9641}], "Toalmas": [{"Name": "T\u00f3alm\u00e1s", "Country Code": "HU", "Population": 3434.0, "Lat": 47.50782, "Lon": 19.66657}], "Toamasina": [{"Name": "Toamasina", "Country Code": "MG", "Population": 345107.0, "Lat": -18.1492, "Lon": 49.40234}], "Toano": [{"Name": "Toano", "Country Code": "IT", "Population": 695.0, "Lat": 44.37601, "Lon": 10.56311}], "Toast": [{"Name": "Toast", "Country Code": "US", "Population": 1450.0, "Lat": 36.50041, "Lon": -80.62645}], "Toay": [{"Name": "Toay", "Country Code": "AR", "Population": 0.0, "Lat": -36.6739, "Lon": -64.37979}], "Toazeo": [{"Name": "Toaz\u00e9o", "Country Code": "CI", "Population": 6841.0, "Lat": 6.79943, "Lon": -7.32988}], "Toba": [{"Name": "Toba", "Country Code": "JP", "Population": 17741.0, "Lat": 34.4833, "Lon": 136.84186}, {"Name": "Toba", "Country Code": "RS", "Population": 1099.0, "Lat": 45.68943, "Lon": 20.55714}], "Toba Tek Singh": [{"Name": "Toba Tek Singh", "Country Code": "PK", "Population": 69064.0, "Lat": 30.97127, "Lon": 72.48275}], "Tobaccoville": [{"Name": "Tobaccoville", "Country Code": "US", "Population": 2584.0, "Lat": 36.23819, "Lon": -80.37144}], "Tobadak": [{"Name": "Tobadak", "Country Code": "ID", "Population": 0.0, "Lat": -2.08944, "Lon": 119.34722}], "Tobadill": [{"Name": "Tobadill", "Country Code": "AT", "Population": 516.0, "Lat": 47.12513, "Lon": 10.51404}], "Tobaj": [{"Name": "Tobaj", "Country Code": "AT", "Population": 285.0, "Lat": 47.08333, "Lon": 16.3}], "Tobane": [{"Name": "Tobane", "Country Code": "BW", "Population": 1925.0, "Lat": -21.95, "Lon": 27.9}], "Tobar": [{"Name": "Tobar", "Country Code": "ES", "Population": 41.0, "Lat": 42.48384, "Lon": -3.93984}], "Tobarra": [{"Name": "Tobarra", "Country Code": "ES", "Population": 7884.0, "Lat": 38.59213, "Lon": -1.69191}], "Tobati": [{"Name": "Tobat\u00ed", "Country Code": "PY", "Population": 9952.0, "Lat": -25.26111, "Lon": -57.08329}], "Tobed": [{"Name": "Tobed", "Country Code": "ES", "Population": 249.0, "Lat": 41.33866, "Lon": -1.39975}], "Tobelo": [{"Name": "Tobelo", "Country Code": "ID", "Population": 34150.0, "Lat": 1.72837, "Lon": 128.00948}], "Tobercurry": [{"Name": "Tobercurry", "Country Code": "IE", "Population": 1986.0, "Lat": 54.05, "Lon": -8.73333}], "Tobermory": [{"Name": "Tobermory", "Country Code": "CA", "Population": 1427.0, "Lat": 45.25007, "Lon": -81.66647}, {"Name": "Tobermory", "Country Code": "GB", "Population": 1010.0, "Lat": 56.62198, "Lon": -6.07231}], "Tobetsu": [{"Name": "T\u014dbetsu", "Country Code": "JP", "Population": 16694.0, "Lat": 43.21694, "Lon": 141.51694}], "Tobi Village": [{"Name": "Tobi Village", "Country Code": "PW", "Population": 44.0, "Lat": 3.00488, "Lon": 131.12168}], "Tobia": [{"Name": "Tob\u00eda", "Country Code": "ES", "Population": 80.0, "Lat": 42.29846, "Lon": -2.81399}], "Tobias Barreto": [{"Name": "Tobias Barreto", "Country Code": "BR", "Population": 29740.0, "Lat": -11.18389, "Lon": -37.99833}], "Tobias Fornier": [{"Name": "Tobias Fornier", "Country Code": "PH", "Population": 2893.0, "Lat": 10.515, "Lon": 121.9461}], "Tobly": [{"Name": "Tobly", "Country Code": "CI", "Population": 1271.0, "Lat": 7.25778, "Lon": -7.19347}], "Tobly Bangolo": [{"Name": "Tobly Bangolo", "Country Code": "CI", "Population": 10552.0, "Lat": 6.74276, "Lon": -7.18864}], "Tobobe": [{"Name": "Tobobe", "Country Code": "PA", "Population": 607.0, "Lat": 9.12079, "Lon": -81.828}], "Tobol": [{"Name": "Tobol", "Country Code": "KZ", "Population": 7155.0, "Lat": 52.69366, "Lon": 62.5914}], "Toboliu": [{"Name": "Toboliu", "Country Code": "RO", "Population": 0.0, "Lat": 47.04182, "Lon": 21.71946}], "Tobolsk": [{"Name": "Tobolsk", "Country Code": "RU", "Population": 113800.0, "Lat": 58.19807, "Lon": 68.25457}], "Tobosi": [{"Name": "Tobosi", "Country Code": "CR", "Population": 4060.0, "Lat": 9.83837, "Lon": -83.98391}], "Toboso": [{"Name": "Toboso", "Country Code": "PH", "Population": 13006.0, "Lat": 10.71435, "Lon": 123.5162}], "Toboy": [{"Name": "Toboy", "Country Code": "PH", "Population": 3082.0, "Lat": 16.0271, "Lon": 120.6369}], "Tobruk": [{"Name": "Tobruk", "Country Code": "LY", "Population": 141499.0, "Lat": 32.08963, "Lon": 23.95385}], "Tobuan": [{"Name": "Tobuan", "Country Code": "PH", "Population": 2772.0, "Lat": 16.05562, "Lon": 120.11024}], "Tobyl": [{"Name": "Tobyl", "Country Code": "KZ", "Population": 0.0, "Lat": 53.20666, "Lon": 63.70038}], "Toca": [{"Name": "Toca", "Country Code": "CO", "Population": 3946.0, "Lat": 5.56393, "Lon": -73.18398}], "Tocache": [{"Name": "Tocache", "Country Code": "PE", "Population": 29029.0, "Lat": -8.1877, "Lon": -76.52046}], "Tocaima": [{"Name": "Tocaima", "Country Code": "CO", "Population": 13649.0, "Lat": 4.4582, "Lon": -74.63434}], "Tocancipa": [{"Name": "Tocancip\u00e1", "Country Code": "CO", "Population": 6027.0, "Lat": 4.96531, "Lon": -73.91301}], "Tocane-Saint-Apre": [{"Name": "Tocane-Saint-Apre", "Country Code": "FR", "Population": 1527.0, "Lat": 45.25354, "Lon": 0.49369}], "Tocantins": [{"Name": "Tocantins", "Country Code": "BR", "Population": 12875.0, "Lat": -21.175, "Lon": -43.01778}], "Tocatlan": [{"Name": "Tocatl\u00e1n", "Country Code": "MX", "Population": 5564.0, "Lat": 19.38865, "Lon": -98.0274}], "Tocco Caudio": [{"Name": "Tocco Caudio", "Country Code": "IT", "Population": 677.0, "Lat": 41.12587, "Lon": 14.63422}], "Tocco da Casauria": [{"Name": "Tocco da Casauria", "Country Code": "IT", "Population": 2338.0, "Lat": 42.21203, "Lon": 13.91547}], "Toccoa": [{"Name": "Toccoa", "Country Code": "US", "Population": 8283.0, "Lat": 34.57732, "Lon": -83.33239}], "Toceno": [{"Name": "Toceno", "Country Code": "IT", "Population": 745.0, "Lat": 46.14468, "Lon": 8.46902}], "Tocha": [{"Name": "Tocha", "Country Code": "PT", "Population": 3992.0, "Lat": 40.31308, "Lon": -8.75339}], "Tochigi": [{"Name": "Tochigi", "Country Code": "JP", "Population": 159056.0, "Lat": 36.38333, "Lon": 139.73333}], "Tochilari": [{"Name": "Tochilari", "Country Code": "BG", "Population": 0.0, "Lat": 43.85, "Lon": 26.46667}], "Tochimilco": [{"Name": "Tochimilco", "Country Code": "MX", "Population": 3289.0, "Lat": 18.89062, "Lon": -98.57154}], "Tochio-honcho": [{"Name": "Tochio-honch\u014d", "Country Code": "JP", "Population": 23045.0, "Lat": 37.47642, "Lon": 138.99513}], "Tochtepec": [{"Name": "Tochtepec", "Country Code": "MX", "Population": 6615.0, "Lat": 18.83928, "Lon": -97.82282}], "Tochylove": [{"Name": "Tochylove", "Country Code": "UA", "Population": 1181.0, "Lat": 47.7712, "Lon": 29.74867}], "Tocileni": [{"Name": "Tocileni", "Country Code": "RO", "Population": 1113.0, "Lat": 47.71104, "Lon": 26.78657}], "Tocina": [{"Name": "Tocina", "Country Code": "ES", "Population": 9067.0, "Lat": 37.60904, "Lon": -5.73403}], "Tocmoche": [{"Name": "Tocmoche", "Country Code": "PE", "Population": 219.0, "Lat": -6.4125, "Lon": -79.36194}], "Tocoa": [{"Name": "Tocoa", "Country Code": "HN", "Population": 30785.0, "Lat": 15.68333, "Lon": -86.0}], "Tocob Leglemal": [{"Name": "Tocob Leglemal", "Country Code": "MX", "Population": 2067.0, "Lat": 17.23389, "Lon": -92.37833}], "Tococ East": [{"Name": "Tococ East", "Country Code": "PH", "Population": 2266.0, "Lat": 15.82498, "Lon": 120.42605}], "Tocok": [{"Name": "Tocok", "Country Code": "PH", "Population": 3067.0, "Lat": 15.75, "Lon": 120.3}], "Tocopero": [{"Name": "Toc\u00f3pero", "Country Code": "VE", "Population": 0.0, "Lat": 11.49946, "Lon": -69.259}], "Tocopilla": [{"Name": "Tocopilla", "Country Code": "CL", "Population": 24460.0, "Lat": -22.09198, "Lon": -70.19792}], "Tocota": [{"Name": "Tocota", "Country Code": "PE", "Population": 91.0, "Lat": -15.65944, "Lon": -74.09056}], "Tocoy": [{"Name": "Tocoy", "Country Code": "MX", "Population": 1061.0, "Lat": 21.63861, "Lon": -98.87083}], "Tocumbo": [{"Name": "Tocumbo", "Country Code": "MX", "Population": 1799.0, "Lat": 19.70177, "Lon": -102.52323}], "Tocumen": [{"Name": "Tocumen", "Country Code": "PA", "Population": 50844.0, "Lat": 9.08939, "Lon": -79.3831}], "Tocumwal": [{"Name": "Tocumwal", "Country Code": "AU", "Population": 2633.0, "Lat": -35.8115, "Lon": 145.56922}], "Tocuyito": [{"Name": "Tocuyito", "Country Code": "VE", "Population": 0.0, "Lat": 10.11347, "Lon": -68.06783}], "Tocuyo de La Costa": [{"Name": "Tocuyo de La Costa", "Country Code": "VE", "Population": 9504.0, "Lat": 11.0357, "Lon": -68.37448}], "Toda": [{"Name": "Toda", "Country Code": "JP", "Population": 0.0, "Lat": 35.81447, "Lon": 139.66018}], "Todabhim": [{"Name": "Todabhim", "Country Code": "IN", "Population": 22529.0, "Lat": 26.91667, "Lon": 76.81667}], "Todaraisingh": [{"Name": "Todaraisingh", "Country Code": "IN", "Population": 22613.0, "Lat": 26.02401, "Lon": 75.48182}], "Todd Creek": [{"Name": "Todd Creek", "Country Code": "US", "Population": 3768.0, "Lat": 39.97804, "Lon": -104.87331}], "Toddington": [{"Name": "Toddington", "Country Code": "GB", "Population": 4585.0, "Lat": 51.94922, "Lon": -0.53277}], "Todenbuttel": [{"Name": "Todenb\u00fcttel", "Country Code": "DE", "Population": 1134.0, "Lat": 54.13333, "Lon": 9.55}], "Todendorf": [{"Name": "Todendorf", "Country Code": "DE", "Population": 1062.0, "Lat": 53.69461, "Lon": 10.34781}], "Todesfelde": [{"Name": "Todesfelde", "Country Code": "DE", "Population": 1040.0, "Lat": 53.9, "Lon": 10.18333}], "Todi": [{"Name": "Todi", "Country Code": "IT", "Population": 5620.0, "Lat": 42.77881, "Lon": 12.41202}], "Toding": [{"Name": "Toding", "Country Code": "CN", "Population": 0.0, "Lat": 31.48056, "Lon": 79.79803}], "Todireni": [{"Name": "Todireni", "Country Code": "RO", "Population": 3579.0, "Lat": 47.61667, "Lon": 27.11667}], "Todiresti": [{"Name": "Todire\u015fti", "Country Code": "RO", "Population": 5763.0, "Lat": 47.7, "Lon": 26.03333}, {"Name": "Todire\u015fti", "Country Code": "RO", "Population": 5388.0, "Lat": 46.85, "Lon": 27.36667},