{"Nianzishan": [{"Name": "Nianzishan", "Country Code": "CN", "Population": 62131.0, "Lat": 47.51344, "Lon": 122.88788}], "Niapidou": [{"Name": "Niapidou", "Country Code": "CI", "Population": 18336.0, "Lat": 5.34849, "Lon": -6.05601}], "Niapoyo": [{"Name": "Niapoyo", "Country Code": "CI", "Population": 2023.0, "Lat": 5.8796, "Lon": -6.30057}], "Niaprahio": [{"Name": "Niaprahio", "Country Code": "CI", "Population": 2032.0, "Lat": 6.22031, "Lon": -6.14572}], "Niardo": [{"Name": "Niardo", "Country Code": "IT", "Population": 1274.0, "Lat": 45.97599, "Lon": 10.33326}], "Niatiahio": [{"Name": "Niatiahio", "Country Code": "CI", "Population": 2295.0, "Lat": 6.37592, "Lon": -6.27602}], "Niazaroko": [{"Name": "Niazaroko", "Country Code": "CI", "Population": 2453.0, "Lat": 5.78517, "Lon": -5.56075}], "Niba": [{"Name": "Niba", "Country Code": "CN", "Population": 5251.0, "Lat": 34.45774, "Lon": 103.08458}], "Nibaliw Central": [{"Name": "Nibaliw Central", "Country Code": "PH", "Population": 13631.0, "Lat": 16.1275, "Lon": 120.4027}], "Nibbar": [{"Name": "Nibbar", "Country Code": "TN", "Population": 3393.0, "Lat": 36.29411, "Lon": 8.76657}], "Nibbiano": [{"Name": "Nibbiano", "Country Code": "IT", "Population": 418.0, "Lat": 44.90506, "Lon": 9.32826}], "Nibbiola": [{"Name": "Nibbiola", "Country Code": "IT", "Population": 755.0, "Lat": 45.37236, "Lon": 8.65674}], "Nibe": [{"Name": "Nibe", "Country Code": "DK", "Population": 5433.0, "Lat": 56.9815, "Lon": 9.63917}], "Nibionno": [{"Name": "Nibionno", "Country Code": "IT", "Population": 1168.0, "Lat": 45.74648, "Lon": 9.26894}], "Nibley": [{"Name": "Nibley", "Country Code": "US", "Population": 6451.0, "Lat": 41.67438, "Lon": -111.833}], "Nibong Tebal": [{"Name": "Nibong Tebal", "Country Code": "MY", "Population": 40072.0, "Lat": 5.16586, "Lon": 100.47793}], "Nica": [{"Name": "N\u012bca", "Country Code": "LV", "Population": 0.0, "Lat": 56.34601, "Lon": 21.06401}], "Nicaj-Shale": [{"Name": "Nicaj-Shal\u00eb", "Country Code": "AL", "Population": 0.0, "Lat": 42.29944, "Lon": 19.805}], "Nicaj-Shosh": [{"Name": "Nicaj-Shosh", "Country Code": "AL", "Population": 0.0, "Lat": 42.24444, "Lon": 19.75806}], "Nicasio": [{"Name": "Nicasio", "Country Code": "PE", "Population": 433.0, "Lat": -15.23333, "Lon": -70.25}], "Nicastro": [{"Name": "Nicastro", "Country Code": "IT", "Population": 40000.0, "Lat": 38.97089, "Lon": 16.31285}], "Nice": [{"Name": "Nice", "Country Code": "FR", "Population": 342669.0, "Lat": 43.70313, "Lon": 7.26608}, {"Name": "Nice", "Country Code": "US", "Population": 2731.0, "Lat": 39.12323, "Lon": -122.84833}], "Nicetown-Tioga": [{"Name": "Nicetown-Tioga", "Country Code": "US", "Population": 17382.0, "Lat": 40.00989, "Lon": -75.16387}], "Niceville": [{"Name": "Niceville", "Country Code": "US", "Population": 14714.0, "Lat": 30.51686, "Lon": -86.48217}], "Nichelino": [{"Name": "Nichelino", "Country Code": "IT", "Population": 47760.0, "Lat": 45.00031, "Lon": 7.65305}], "Nichinan": [{"Name": "Nichinan", "Country Code": "JP", "Population": 51241.0, "Lat": 31.6, "Lon": 131.36667}], "Nichlaul": [{"Name": "Nichlaul", "Country Code": "IN", "Population": 17567.0, "Lat": 27.31247, "Lon": 83.7253}], "Nicholasville": [{"Name": "Nicholasville", "Country Code": "US", "Population": 29754.0, "Lat": 37.88063, "Lon": -84.573}], "Nicholls": [{"Name": "Nicholls", "Country Code": "AU", "Population": 6910.0, "Lat": -35.18733, "Lon": 149.09648}, {"Name": "Nicholls", "Country Code": "US", "Population": 3331.0, "Lat": 31.51742, "Lon": -82.63486}], "Nichols Hills": [{"Name": "Nichols Hills", "Country Code": "US", "Population": 3887.0, "Lat": 35.55089, "Lon": -97.54893}], "Nichols Point": [{"Name": "Nichols Point", "Country Code": "AU", "Population": 1723.0, "Lat": -34.21028, "Lon": 142.21122}], "Nicholson": [{"Name": "Nicholson", "Country Code": "AU", "Population": 1045.0, "Lat": -37.81667, "Lon": 147.73333}, {"Name": "Nicholson", "Country Code": "US", "Population": 3092.0, "Lat": 30.47714, "Lon": -89.69367}, {"Name": "Nicholson", "Country Code": "US", "Population": 1718.0, "Lat": 34.114, "Lon": -83.43155}], "Nickby": [{"Name": "Nickby", "Country Code": "FI", "Population": 0.0, "Lat": 60.38333, "Lon": 25.28333}], "Nickelsdorf": [{"Name": "Nickelsdorf", "Country Code": "AT", "Population": 1772.0, "Lat": 47.94056, "Lon": 17.06944}], "Nickenich": [{"Name": "Nickenich", "Country Code": "DE", "Population": 3582.0, "Lat": 50.41421, "Lon": 7.32728}], "Nickerson": [{"Name": "Nickerson", "Country Code": "US", "Population": 1036.0, "Lat": 38.14723, "Lon": -98.08367}], "Nickol": [{"Name": "Nickol", "Country Code": "AU", "Population": 4650.0, "Lat": -20.74558, "Lon": 116.7954}], "Nicola Town": [{"Name": "Nicola Town", "Country Code": "KN", "Population": 2059.0, "Lat": 17.37956, "Lon": -62.75318}], "Nicolae Balcescu": [{"Name": "Nicolae B\u0103lcescu", "Country Code": "RO", "Population": 1692.0, "Lat": 44.45, "Lon": 26.76667}, {"Name": "Nicolae B\u0103lcescu", "Country Code": "RO", "Population": 4020.0, "Lat": 47.56664, "Lon": 26.89629}, {"Name": "Nicolae B\u0103lcescu", "Country Code": "RO", "Population": 1144.0, "Lat": 44.99714, "Lon": 28.58757}, {"Name": "Nicolae B\u0103lcescu", "Country Code": "RO", "Population": 4813.0, "Lat": 44.38333, "Lon": 28.38333}, {"Name": "Nicolae B\u0103lcescu", "Country Code": "RO", "Population": 10140.0, "Lat": 46.46667, "Lon": 26.91667}, {"Name": "Nicolae B\u0103lcescu", "Country Code": "RO", "Population": 1066.0, "Lat": 44.37427, "Lon": 22.85837}, {"Name": "Nicolae B\u0103lcescu", "Country Code": "RO", "Population": 1440.0, "Lat": 44.28604, "Lon": 27.07877}], "Nicolae Titulescu": [{"Name": "Nicolae Titulescu", "Country Code": "RO", "Population": 3095.0, "Lat": 44.3, "Lon": 24.8}], "Nicolas Blanco (San Pancho)": [{"Name": "Nicol\u00e1s Blanco (San Pancho)", "Country Code": "MX", "Population": 1092.0, "Lat": 19.3525, "Lon": -96.33833}], "Nicolas Bravo": [{"Name": "Nicol\u00e1s Bravo", "Country Code": "MX", "Population": 1253.0, "Lat": 24.3901, "Lon": -104.74374}, {"Name": "Nicol\u00e1s Bravo", "Country Code": "MX", "Population": 2940.0, "Lat": 19.01636, "Lon": -97.82295}, {"Name": "Nicol\u00e1s Bravo", "Country Code": "MX", "Population": 2326.0, "Lat": 18.15504, "Lon": -93.08304}, {"Name": "Nicol\u00e1s Bravo", "Country Code": "MX", "Population": 1674.0, "Lat": 19.42213, "Lon": -97.96759}, {"Name": "Nicol\u00e1s Bravo", "Country Code": "MX", "Population": 1166.0, "Lat": 24.0018, "Lon": -98.25927}, {"Name": "Nicol\u00e1s Bravo", "Country Code": "MX", "Population": 4011.0, "Lat": 18.4591, "Lon": -88.92802}, {"Name": "Nicol\u00e1s Bravo", "Country Code": "MX", "Population": 1099.0, "Lat": 18.61718, "Lon": -97.30783}, {"Name": "Nicol\u00e1s Bravo", "Country Code": "MX", "Population": 2113.0, "Lat": 18.29202, "Lon": -93.13103}, {"Name": "Nicolas Bravo", "Country Code": "MX", "Population": 1862.0, "Lat": 29.35306, "Lon": -107.9344}, {"Name": "Nicol\u00e1s Bravo", "Country Code": "MX", "Population": 1001.0, "Lat": 17.71568, "Lon": -92.61829}, {"Name": "Nicol\u00e1s Bravo", "Country Code": "MX", "Population": 1184.0, "Lat": 16.51058, "Lon": -92.99222}], "Nicolas Bravo 5ta. Seccion (Punta Brava)": [{"Name": "Nicol\u00e1s Bravo 5ta. Secci\u00f3n (Punta Brava)", "Country Code": "MX", "Population": 1289.0, "Lat": 18.27827, "Lon": -93.12872}], "Nicolas R Casillas": [{"Name": "Nicol\u00e1s R Casillas", "Country Code": "MX", "Population": 30424.0, "Lat": 20.54638, "Lon": -103.46622}], "Nicolas Romero": [{"Name": "Nicol\u00e1s Romero", "Country Code": "MX", "Population": 281799.0, "Lat": 19.64177, "Lon": -99.3068}], "Nicolas Ruiz": [{"Name": "Nicol\u00e1s Ruiz", "Country Code": "MX", "Population": 4277.0, "Lat": 16.43714, "Lon": -92.58522}], "Nicolesti": [{"Name": "Nicole\u0219ti", "Country Code": "RO", "Population": 1142.0, "Lat": 46.43918, "Lon": 25.84446}], "Nicolet": [{"Name": "Nicolet", "Country Code": "CA", "Population": 5669.0, "Lat": 46.23085, "Lon": -72.61292}], "Nicollet": [{"Name": "Nicollet", "Country Code": "US", "Population": 1138.0, "Lat": 44.27608, "Lon": -94.18746}], "Nicolosi": [{"Name": "Nicolosi", "Country Code": "IT", "Population": 7061.0, "Lat": 37.62148, "Lon": 15.02785}], "Nicoma Park": [{"Name": "Nicoma Park", "Country Code": "US", "Population": 2469.0, "Lat": 35.49117, "Lon": -97.32309}], "Nicoresti": [{"Name": "Nicore\u015fti", "Country Code": "RO", "Population": 6147.0, "Lat": 45.93223, "Lon": 27.30866}], "Nicorvo": [{"Name": "Nicorvo", "Country Code": "IT", "Population": 341.0, "Lat": 45.28566, "Lon": 8.66794}], "Nicosia": [{"Name": "Nicosia", "Country Code": "CY", "Population": 200452.0, "Lat": 35.17531, "Lon": 33.3642}, {"Name": "Nicosia", "Country Code": "IT", "Population": 10174.0, "Lat": 37.74747, "Lon": 14.39218}], "Nicotera": [{"Name": "Nicotera", "Country Code": "IT", "Population": 4831.0, "Lat": 38.54915, "Lon": 15.93584}], "Nicoya": [{"Name": "Nicoya", "Country Code": "CR", "Population": 15313.0, "Lat": 10.15038, "Lon": -85.45093}], "Nicseni": [{"Name": "Nic\u015feni", "Country Code": "RO", "Population": 2878.0, "Lat": 47.86667, "Lon": 26.63333}], "Niculesti": [{"Name": "Nicule\u0219ti", "Country Code": "RO", "Population": 2383.0, "Lat": 44.68266, "Lon": 25.94221}], "Niculitel": [{"Name": "Niculi\u0163el", "Country Code": "RO", "Population": 4690.0, "Lat": 45.18333, "Lon": 28.48333}], "Nida": [{"Name": "Nida", "Country Code": "LT", "Population": 3530.0, "Lat": 55.3086, "Lon": 20.99651}], "Nidadavole": [{"Name": "Nidadavole", "Country Code": "IN", "Population": 44173.0, "Lat": 16.90572, "Lon": 81.67222}], "Nidau": [{"Name": "Nidau", "Country Code": "CH", "Population": 6696.0, "Lat": 47.12545, "Lon": 7.24033}], "Nidda": [{"Name": "Nidda", "Country Code": "DE", "Population": 18241.0, "Lat": 50.4133, "Lon": 9.00638}], "Nidderau": [{"Name": "Nidderau", "Country Code": "DE", "Population": 20090.0, "Lat": 50.23805, "Lon": 8.86704}], "Niddrie": [{"Name": "Niddrie", "Country Code": "AU", "Population": 5901.0, "Lat": -37.7375, "Lon": 144.89212}], "Nideggen": [{"Name": "Nideggen", "Country Code": "DE", "Population": 10727.0, "Lat": 50.69268, "Lon": 6.48437}], "Nidek": [{"Name": "Nidek", "Country Code": "PL", "Population": 1339.0, "Lat": 49.90492, "Lon": 19.32461}], "Niderviller": [{"Name": "Niderviller", "Country Code": "FR", "Population": 1119.0, "Lat": 48.71294, "Lon": 7.10627}], "Nidrou": [{"Name": "Nidrou", "Country Code": "CI", "Population": 7280.0, "Lat": 6.90202, "Lon": -7.18141}], "Nidzica": [{"Name": "Nidzica", "Country Code": "PL", "Population": 14720.0, "Lat": 53.36052, "Lon": 20.42749}], "Niebieszczany": [{"Name": "Niebieszczany", "Country Code": "PL", "Population": 2500.0, "Lat": 49.50348, "Lon": 22.15651}], "Niebla": [{"Name": "Niebla", "Country Code": "ES", "Population": 3962.0, "Lat": 37.36213, "Lon": -6.67894}], "Niebocko": [{"Name": "Niebocko", "Country Code": "PL", "Population": 1479.0, "Lat": 49.67774, "Lon": 22.10484}], "Nieborow": [{"Name": "Niebor\u00f3w", "Country Code": "PL", "Population": 900.0, "Lat": 52.07771, "Lon": 20.06902}], "Niebuell": [{"Name": "Nieb\u00fcll", "Country Code": "DE", "Population": 8752.0, "Lat": 54.78663, "Lon": 8.82854}], "Niebylec": [{"Name": "Niebylec", "Country Code": "PL", "Population": 594.0, "Lat": 49.85669, "Lon": 21.90348}], "Niechanowo": [{"Name": "Niechanowo", "Country Code": "PL", "Population": 2300.0, "Lat": 52.46527, "Lon": 17.67812}], "Niechobrz": [{"Name": "Niechobrz", "Country Code": "PL", "Population": 2644.0, "Lat": 49.99472, "Lon": 21.87824}], "Niedenstein": [{"Name": "Niedenstein", "Country Code": "DE", "Population": 5702.0, "Lat": 51.23342, "Lon": 9.31029}], "Nieder-Florstadt": [{"Name": "Nieder-Florstadt", "Country Code": "DE", "Population": 3359.0, "Lat": 50.3162, "Lon": 8.86166}], "Nieder-Gruendau": [{"Name": "Nieder-Gr\u00fcndau", "Country Code": "DE", "Population": 1749.0, "Lat": 50.21097, "Lon": 9.10801}], "Nieder-Ingelheim": [{"Name": "Nieder-Ingelheim", "Country Code": "DE", "Population": 24596.0, "Lat": 49.97756, "Lon": 8.07246}], "Nieder-Olm": [{"Name": "Nieder-Olm", "Country Code": "DE", "Population": 8511.0, "Lat": 49.91166, "Lon": 8.20533}], "Niederaichbach": [{"Name": "Niederaichbach", "Country Code": "DE", "Population": 3602.0, "Lat": 48.6, "Lon": 12.31667}], "Niederalm": [{"Name": "Niederalm", "Country Code": "AT", "Population": 1575.0, "Lat": 47.72872, "Lon": 13.06223}], "Niederalteich": [{"Name": "Niederalteich", "Country Code": "DE", "Population": 1895.0, "Lat": 48.76564, "Lon": 13.02412}], "Niederanven": [{"Name": "Niederanven", "Country Code": "LU", "Population": 1508.0, "Lat": 49.65196, "Lon": 6.26199}], "Niederau": [{"Name": "Niederau", "Country Code": "AT", "Population": 1043.0, "Lat": 47.45, "Lon": 12.08333}, {"Name": "Niederau", "Country Code": "DE", "Population": 4334.0, "Lat": 51.1773, "Lon": 13.54563}], "Niederaula": [{"Name": "Niederaula", "Country Code": "DE", "Population": 5526.0, "Lat": 50.8, "Lon": 9.6}], "Niederbachem": [{"Name": "Niederbachem", "Country Code": "DE", "Population": 4276.0, "Lat": 50.64554, "Lon": 7.17986}], "Niederbergkirchen": [{"Name": "Niederbergkirchen", "Country Code": "DE", "Population": 1227.0, "Lat": 48.31667, "Lon": 12.5}], "Niederbiel": [{"Name": "Niederbiel", "Country Code": "DE", "Population": 2246.0, "Lat": 50.55505, "Lon": 8.39845}], "Niederbipp": [{"Name": "Niederbipp", "Country Code": "CH", "Population": 3862.0, "Lat": 47.27175, "Lon": 7.69583}], "Niederbreitbach": [{"Name": "Niederbreitbach", "Country Code": "DE", "Population": 1459.0, "Lat": 50.53051, "Lon": 7.42099}], "Niederbreitenbach": [{"Name": "Niederbreitenbach", "Country Code": "AT", "Population": 1132.0, "Lat": 47.53333, "Lon": 12.08333}], "Niederbronn-les-Bains": [{"Name": "Niederbronn-les-Bains", "Country Code": "FR", "Population": 4609.0, "Lat": 48.95165, "Lon": 7.64271}], "Niederburen": [{"Name": "Niederb\u00fcren", "Country Code": "CH", "Population": 1415.0, "Lat": 47.46547, "Lon": 9.20568}], "Niedercorn": [{"Name": "Niedercorn", "Country Code": "LU", "Population": 3164.0, "Lat": 49.53611, "Lon": 5.89306}], "Niedercunnersdorf": [{"Name": "Niedercunnersdorf", "Country Code": "DE", "Population": 1753.0, "Lat": 51.05398, "Lon": 14.6583}], "Niederdorf": [{"Name": "Niederdorf", "Country Code": "AT", "Population": 1006.0, "Lat": 46.61667, "Lon": 14.4}, {"Name": "Niederdorf", "Country Code": "DE", "Population": 1377.0, "Lat": 50.72623, "Lon": 12.78587}], "Niederdorfelden": [{"Name": "Niederdorfelden", "Country Code": "DE", "Population": 2925.0, "Lat": 50.19415, "Lon": 8.80005}], "Niederdorla": [{"Name": "Niederdorla", "Country Code": "DE", "Population": 1464.0, "Lat": 51.16025, "Lon": 10.4482}], "Niederdreisbach": [{"Name": "Niederdreisbach", "Country Code": "DE", "Population": 1003.0, "Lat": 50.74955, "Lon": 7.92352}], "Niederdurenbach": [{"Name": "Niederd\u00fcrenbach", "Country Code": "DE", "Population": 1056.0, "Lat": 50.45, "Lon": 7.18333}], "Niederelbert": [{"Name": "Niederelbert", "Country Code": "DE", "Population": 1642.0, "Lat": 50.40775, "Lon": 7.8099}], "Niedererbach": [{"Name": "Niedererbach", "Country Code": "DE", "Population": 1026.0, "Lat": 50.4261, "Lon": 7.97425}], "Niedereschach": [{"Name": "Niedereschach", "Country Code": "DE", "Population": 6004.0, "Lat": 48.13333, "Lon": 8.53333}], "Niederfell": [{"Name": "Niederfell", "Country Code": "DE", "Population": 1091.0, "Lat": 50.28333, "Lon": 7.46667}], "Niederfeulen": [{"Name": "Niederfeulen", "Country Code": "LU", "Population": 1125.0, "Lat": 49.85556, "Lon": 6.04722}], "Niederfischbach": [{"Name": "Niederfischbach", "Country Code": "DE", "Population": 5035.0, "Lat": 50.85, "Lon": 7.86667}], "Niederfrohna": [{"Name": "Niederfrohna", "Country Code": "DE", "Population": 2533.0, "Lat": 50.9, "Lon": 12.71667}], "Niederfuellbach": [{"Name": "Niederf\u00fcllbach", "Country Code": "DE", "Population": 1672.0, "Lat": 50.22002, "Lon": 10.99086}], "Niederglatt": [{"Name": "Niederglatt", "Country Code": "CH", "Population": 3632.0, "Lat": 47.49066, "Lon": 8.49987}], "Niederglatt / Niederglatt (Dorfkern)": [{"Name": "Niederglatt / Niederglatt (Dorfkern)", "Country Code": "CH", "Population": 1147.0, "Lat": 47.49065, "Lon": 8.50048}], "Niedergorsdorf": [{"Name": "Niederg\u00f6rsdorf", "Country Code": "DE", "Population": 7197.0, "Lat": 51.97943, "Lon": 12.98541}], "Niedergosgen": [{"Name": "Niederg\u00f6sgen", "Country Code": "CH", "Population": 3847.0, "Lat": 47.37157, "Lon": 7.98837}], "Niederhaslach": [{"Name": "Niederhaslach", "Country Code": "FR", "Population": 1248.0, "Lat": 48.54264, "Lon": 7.34282}], "Niederhasli": [{"Name": "Niederhasli", "Country Code": "CH", "Population": 2848.0, "Lat": 47.48012, "Lon": 8.48576}], "Niederhausbergen": [{"Name": "Niederhausbergen", "Country Code": "FR", "Population": 1454.0, "Lat": 48.624, "Lon": 7.7021}], "Niederhelfenschwil": [{"Name": "Niederhelfenschwil", "Country Code": "CH", "Population": 2668.0, "Lat": 47.47487, "Lon": 9.18543}], "Niederhollabrunn": [{"Name": "Niederhollabrunn", "Country Code": "AT", "Population": 641.0, "Lat": 48.43333, "Lon": 16.3}], "Niederkassel": [{"Name": "Niederkassel", "Country Code": "DE", "Population": 36480.0, "Lat": 50.81503, "Lon": 7.03777}], "Niederkirchen": [{"Name": "Niederkirchen", "Country Code": "DE", "Population": 2067.0, "Lat": 49.58333, "Lon": 7.7}], "Niederkirchen bei Deidesheim": [{"Name": "Niederkirchen bei Deidesheim", "Country Code": "DE", "Population": 2378.0, "Lat": 49.415, "Lon": 8.21}], "Niederklein": [{"Name": "Niederklein", "Country Code": "DE", "Population": 1650.0, "Lat": 50.794, "Lon": 8.99694}], "Niederkruchten": [{"Name": "Niederkr\u00fcchten", "Country Code": "DE", "Population": 15487.0, "Lat": 51.2, "Lon": 6.21667}], "Niederlangen": [{"Name": "Niederlangen", "Country Code": "DE", "Population": 1200.0, "Lat": 52.85712, "Lon": 7.28199}], "Niederlauer": [{"Name": "Niederlauer", "Country Code": "DE", "Population": 1801.0, "Lat": 50.29411, "Lon": 10.17712}], "Niederleis": [{"Name": "Niederleis", "Country Code": "AT", "Population": 619.0, "Lat": 48.55, "Lon": 16.4}], "Niederlenz": [{"Name": "Niederlenz", "Country Code": "CH", "Population": 4022.0, "Lat": 47.40079, "Lon": 8.1764}], "Niedermerz": [{"Name": "Niedermerz", "Country Code": "DE", "Population": 1012.0, "Lat": 50.88151, "Lon": 6.26651}], "Niedermohr": [{"Name": "Niedermohr", "Country Code": "DE", "Population": 1523.0, "Lat": 49.45899, "Lon": 7.46955}], "Niedermuhlern": [{"Name": "Niedermuhlern", "Country Code": "CH", "Population": 0.0, "Lat": 46.85846, "Lon": 7.46663}], "Niedermurach": [{"Name": "Niedermurach", "Country Code": "DE", "Population": 1356.0, "Lat": 49.44999, "Lon": 12.3761}], "Niedernai": [{"Name": "Niedernai", "Country Code": "FR", "Population": 1313.0, "Lat": 48.45101, "Lon": 7.51635}], "Niedernberg": [{"Name": "Niedernberg", "Country Code": "DE", "Population": 4793.0, "Lat": 49.91222, "Lon": 9.13694}], "Niederndodeleben": [{"Name": "Niederndodeleben", "Country Code": "DE", "Population": 4307.0, "Lat": 52.13416, "Lon": 11.50085}], "Niederndorf": [{"Name": "Niederndorf", "Country Code": "AT", "Population": 2736.0, "Lat": 47.65, "Lon": 12.21667}], "Niederneisen": [{"Name": "Niederneisen", "Country Code": "DE", "Population": 1462.0, "Lat": 50.33333, "Lon": 8.05}], "Niederneukirchen": [{"Name": "Niederneukirchen", "Country Code": "AT", "Population": 1083.0, "Lat": 48.16093, "Lon": 14.33965}], "Niedernhall": [{"Name": "Niedernhall", "Country Code": "DE", "Population": 4132.0, "Lat": 49.29516, "Lon": 9.61604}], "Niedernhausen": [{"Name": "Niedernhausen", "Country Code": "DE", "Population": 14494.0, "Lat": 50.16307, "Lon": 8.31338}], "Niedernsill": [{"Name": "Niedernsill", "Country Code": "AT", "Population": 835.0, "Lat": 47.28333, "Lon": 12.65}], "Niedernwohren": [{"Name": "Niedernw\u00f6hren", "Country Code": "DE", "Population": 2061.0, "Lat": 52.35214, "Lon": 9.14788}], "Niederoeblarn": [{"Name": "Nieder\u00f6blarn", "Country Code": "AT", "Population": 459.0, "Lat": 47.47667, "Lon": 14.01937}], "Niederorschel": [{"Name": "Niederorschel", "Country Code": "DE", "Population": 3453.0, "Lat": 51.37222, "Lon": 10.42372}], "Niederrad": [{"Name": "Niederrad", "Country Code": "DE", "Population": 27043.0, "Lat": 50.08309, "Lon": 8.62852}], "Niederrieden": [{"Name": "Niederrieden", "Country Code": "DE", "Population": 1340.0, "Lat": 48.0576, "Lon": 10.18321}], "Niederrohrdorf": [{"Name": "Niederrohrdorf", "Country Code": "CH", "Population": 2784.0, "Lat": 47.42409, "Lon": 8.30404}], "Niederrossla": [{"Name": "Niederro\u00dfla", "Country Code": "DE", "Population": 1253.0, "Lat": 51.03333, "Lon": 11.48333}], "Niedersachswerfen": [{"Name": "Niedersachswerfen", "Country Code": "DE", "Population": 3301.0, "Lat": 51.55062, "Lon": 10.76594}], "Niederschaeffolsheim": [{"Name": "Niederschaeffolsheim", "Country Code": "FR", "Population": 1341.0, "Lat": 48.77241, "Lon": 7.73862}], "Niederschoeckl": [{"Name": "Niedersch\u00f6ckl", "Country Code": "AT", "Population": 1237.0, "Lat": 47.15, "Lon": 15.5}], "Niederschoena": [{"Name": "Niedersch\u00f6na", "Country Code": "DE", "Population": 2108.0, "Lat": 50.96671, "Lon": 13.4191}], "Niederschoeneweide": [{"Name": "Niedersch\u00f6neweide", "Country Code": "DE", "Population": 13004.0, "Lat": 52.45564, "Lon": 13.51554}], "Niederschoenhausen": [{"Name": "Niedersch\u00f6nhausen", "Country Code": "DE", "Population": 32037.0, "Lat": 52.58483, "Lon": 13.40272}], "Niederschonenfeld": [{"Name": "Niedersch\u00f6nenfeld", "Country Code": "DE", "Population": 1419.0, "Lat": 48.71667, "Lon": 10.93333}], "Niederstetten": [{"Name": "Niederstetten", "Country Code": "DE", "Population": 5496.0, "Lat": 49.4, "Lon": 9.91944}], "Niederstotzingen": [{"Name": "Niederstotzingen", "Country Code": "DE", "Population": 4920.0, "Lat": 48.54127, "Lon": 10.23505}], "Niederstrass": [{"Name": "Niederstra\u00df", "Country Code": "AT", "Population": 1363.0, "Lat": 48.01398, "Lon": 13.72956}], "Niederstriegis": [{"Name": "Niederstriegis", "Country Code": "DE", "Population": 1317.0, "Lat": 51.08243, "Lon": 13.14925}], "Niedertaufkirchen": [{"Name": "Niedertaufkirchen", "Country Code": "DE", "Population": 1333.0, "Lat": 48.33333, "Lon": 12.55}], "Niederthalheim": [{"Name": "Niederthalheim", "Country Code": "AT", "Population": 478.0, "Lat": 48.09901, "Lon": 13.7687}], "Niederurnen": [{"Name": "Niederurnen", "Country Code": "CH", "Population": 3657.0, "Lat": 47.12598, "Lon": 9.05428}], "Niederviehbach": [{"Name": "Niederviehbach", "Country Code": "DE", "Population": 2444.0, "Lat": 48.61667, "Lon": 12.38333}], "Niederwangen": [{"Name": "Niederwangen", "Country Code": "DE", "Population": 1635.0, "Lat": 47.67192, "Lon": 9.7988}], "Niederwerrn": [{"Name": "Niederwerrn", "Country Code": "DE", "Population": 7974.0, "Lat": 50.06149, "Lon": 10.1827}], "Niederwerth": [{"Name": "Niederwerth", "Country Code": "DE", "Population": 1391.0, "Lat": 50.4, "Lon": 7.61667}], "Niederwiesa": [{"Name": "Niederwiesa", "Country Code": "DE", "Population": 5221.0, "Lat": 50.86667, "Lon": 13.01667}], "Niederwinkling": [{"Name": "Niederwinkling", "Country Code": "DE", "Population": 2252.0, "Lat": 48.88333, "Lon": 12.8}], "Niederwoelz": [{"Name": "Niederw\u00f6lz", "Country Code": "AT", "Population": 596.0, "Lat": 47.15126, "Lon": 14.37479}], "Niederzier": [{"Name": "Niederzier", "Country Code": "DE", "Population": 14363.0, "Lat": 50.88333, "Lon": 6.46667}], "Niederzimmern": [{"Name": "Niederzimmern", "Country Code": "DE", "Population": 1071.0, "Lat": 51.00476, "Lon": 11.19028}], "Niederzissen": [{"Name": "Niederzissen", "Country Code": "DE", "Population": 2791.0, "Lat": 50.45876, "Lon": 7.2181}], "Niediekaha": [{"Name": "Ni\u00e9di\u00e9kaha", "Country Code": "CI", "Population": 2739.0, "Lat": 8.9337, "Lon": -5.17636}], "Niedobczyce": [{"Name": "Niedobczyce", "Country Code": "PL", "Population": 13500.0, "Lat": 50.0654, "Lon": 18.49531}], "Niedomice": [{"Name": "Niedomice", "Country Code": "PL", "Population": 1926.0, "Lat": 50.10737, "Lon": 20.89548}], "Niedrzwica Duza": [{"Name": "Niedrzwica Du\u017ca", "Country Code": "PL", "Population": 3900.0, "Lat": 51.11462, "Lon": 22.38911}], "Niedzica": [{"Name": "Niedzica", "Country Code": "PL", "Population": 1600.0, "Lat": 49.41008, "Lon": 20.30273}], "Niedzwiada": [{"Name": "Nied\u017awiada", "Country Code": "PL", "Population": 2466.0, "Lat": 49.98937, "Lon": 21.52162}, {"Name": "Nied\u017awiada", "Country Code": "PL", "Population": 754.0, "Lat": 51.54409, "Lon": 22.6914}], "Niedzwiedz": [{"Name": "Nied\u017awied\u017a", "Country Code": "PL", "Population": 1400.0, "Lat": 49.621, "Lon": 20.07794}], "Niefern-Oschelbronn": [{"Name": "Niefern-\u00d6schelbronn", "Country Code": "DE", "Population": 12341.0, "Lat": 48.91667, "Lon": 8.78333}], "Niegowonice": [{"Name": "Niegowonice", "Country Code": "PL", "Population": 2453.0, "Lat": 50.38909, "Lon": 19.42263}], "Niegrouboue": [{"Name": "Ni\u00e9groubou\u00e9", "Country Code": "CI", "Population": 1910.0, "Lat": 5.41386, "Lon": -5.9}], "Nieheim": [{"Name": "Nieheim", "Country Code": "DE", "Population": 6961.0, "Lat": 51.80499, "Lon": 9.11302}], "Niekerk": [{"Name": "Niekerk", "Country Code": "NL", "Population": 1390.0, "Lat": 53.225, "Lon": 6.35278}], "Niel": [{"Name": "Niel", "Country Code": "BE", "Population": 8656.0, "Lat": 51.11096, "Lon": 4.33428}], "Niel-bij-As": [{"Name": "Niel-bij-As", "Country Code": "BE", "Population": 2538.0, "Lat": 51.01851, "Lon": 5.60526}], "Nielisz": [{"Name": "Nielisz", "Country Code": "PL", "Population": 920.0, "Lat": 50.80067, "Lon": 23.04451}], "Niella Belbo": [{"Name": "Niella Belbo", "Country Code": "IT", "Population": 289.0, "Lat": 44.51275, "Lon": 8.08036}], "Niella Tanaro": [{"Name": "Niella Tanaro", "Country Code": "IT", "Population": 1027.0, "Lat": 44.40573, "Lon": 7.92794}], "Nielle": [{"Name": "Niell\u00e9", "Country Code": "CI", "Population": 24780.0, "Lat": 10.19814, "Lon": -5.62337}], "Niemberg": [{"Name": "Niemberg", "Country Code": "DE", "Population": 1492.0, "Lat": 51.55035, "Lon": 12.09089}], "Niemce": [{"Name": "Niemce", "Country Code": "PL", "Population": 3161.0, "Lat": 51.36155, "Lon": 22.63939}], "Niemcza": [{"Name": "Niemcza", "Country Code": "PL", "Population": 3110.0, "Lat": 50.72007, "Lon": 16.83573}], "Niemegk": [{"Name": "Niemegk", "Country Code": "DE", "Population": 2332.0, "Lat": 52.07388, "Lon": 12.68947}], "Niemene": [{"Name": "Ni\u00e9m\u00e9n\u00e9", "Country Code": "CI", "Population": 3855.0, "Lat": 8.45702, "Lon": -4.68838}], "Niemodlin": [{"Name": "Niemodlin", "Country Code": "PL", "Population": 6315.0, "Lat": 50.642, "Lon": 17.61932}], "Niempurgue": [{"Name": "Niempurgu\u00e9", "Country Code": "CI", "Population": 1925.0, "Lat": 9.21667, "Lon": -6.55}], "Nienadowa": [{"Name": "Nienadowa", "Country Code": "PL", "Population": 2500.0, "Lat": 49.82901, "Lon": 22.42704}], "Nienburg": [{"Name": "Nienburg", "Country Code": "DE", "Population": 32629.0, "Lat": 52.6461, "Lon": 9.22086}], "Nienburg/Saale": [{"Name": "Nienburg/Saale", "Country Code": "DE", "Population": 4527.0, "Lat": 51.83747, "Lon": 11.76979}], "Niendele-Segbere": [{"Name": "Niend\u00e9l\u00e9-S\u00e9gb\u00e9r\u00e9", "Country Code": "CI", "Population": 1336.0, "Lat": 8.59645, "Lon": -4.57852}], "Niendorf": [{"Name": "Niendorf", "Country Code": "DE", "Population": 40906.0, "Lat": 53.61769, "Lon": 9.95032}], "Nienhagen": [{"Name": "Nienhagen", "Country Code": "DE", "Population": 1809.0, "Lat": 54.14869, "Lon": 12.17434}], "Nienstadt": [{"Name": "Nienst\u00e4dt", "Country Code": "DE", "Population": 4984.0, "Lat": 52.29242, "Lon": 9.1644}], "Nienstedten": [{"Name": "Nienstedten", "Country Code": "DE", "Population": 7114.0, "Lat": 53.55556, "Lon": 9.84464}], "Niepars": [{"Name": "Niepars", "Country Code": "DE", "Population": 2067.0, "Lat": 54.31447, "Lon": 12.92447}], "Niepolomice": [{"Name": "Niepo\u0142omice", "Country Code": "PL", "Population": 9384.0, "Lat": 50.04066, "Lon": 20.22257}], "Nieporet": [{"Name": "Niepor\u0119t", "Country Code": "PL", "Population": 3239.0, "Lat": 52.43152, "Lon": 21.03212}], "Niepos": [{"Name": "Niepos", "Country Code": "PE", "Population": 638.0, "Lat": -6.92747, "Lon": -79.12898}], "Nieppe": [{"Name": "Nieppe", "Country Code": "FR", "Population": 7638.0, "Lat": 50.70425, "Lon": 2.83506}], "Nierong": [{"Name": "Nierong", "Country Code": "CN", "Population": 0.0, "Lat": 32.11002, "Lon": 92.30314}], "Nierstein": [{"Name": "Nierstein", "Country Code": "DE", "Population": 7729.0, "Lat": 49.87003, "Lon": 8.33647}], "Niesky": [{"Name": "Niesky", "Country Code": "DE", "Population": 11111.0, "Lat": 51.29241, "Lon": 14.82107}], "Nieszawa": [{"Name": "Nieszawa", "Country Code": "PL", "Population": 2002.0, "Lat": 52.83452, "Lon": 18.89921}], "Nieu-Bethesda": [{"Name": "Nieu-Bethesda", "Country Code": "ZA", "Population": 1845.0, "Lat": -31.867, "Lon": 24.55499}], "Nieul": [{"Name": "Nieul", "Country Code": "FR", "Population": 1385.0, "Lat": 45.92668, "Lon": 1.17494}], "Nieul-le-Dolent": [{"Name": "Nieul-le-Dolent", "Country Code": "FR", "Population": 1981.0, "Lat": 46.57482, "Lon": -1.50975}], "Nieul-les-Saintes": [{"Name": "Nieul-l\u00e8s-Saintes", "Country Code": "FR", "Population": 1056.0, "Lat": 45.76041, "Lon": -0.73215}], "Nieul-sur-Mer": [{"Name": "Nieul-sur-Mer", "Country Code": "FR", "Population": 6058.0, "Lat": 46.20378, "Lon": -1.1678}], "Nieuw Amsterdam": [{"Name": "Nieuw Amsterdam", "Country Code": "SR", "Population": 4935.0, "Lat": 5.88573, "Lon": -55.08871}], "Nieuw Nickerie": [{"Name": "Nieuw Nickerie", "Country Code": "SR", "Population": 13143.0, "Lat": 5.92606, "Lon": -56.97297}], "Nieuw- en Sint Joosland": [{"Name": "Nieuw- en Sint Joosland", "Country Code": "NL", "Population": 1140.0, "Lat": 51.48333, "Lon": 3.65694}], "Nieuw-Beijerland": [{"Name": "Nieuw-Beijerland", "Country Code": "NL", "Population": 3510.0, "Lat": 51.8125, "Lon": 4.34306}], "Nieuw-Buinen": [{"Name": "Nieuw-Buinen", "Country Code": "NL", "Population": 4705.0, "Lat": 52.9625, "Lon": 6.95}], "Nieuw-Dordrecht": [{"Name": "Nieuw-Dordrecht", "Country Code": "NL", "Population": 1370.0, "Lat": 52.74833, "Lon": 6.96806}], "Nieuw-Lekkerland": [{"Name": "Nieuw-Lekkerland", "Country Code": "NL", "Population": 9535.0, "Lat": 51.88915, "Lon": 4.68653}], "Nieuw-Loosdrecht": [{"Name": "Nieuw-Loosdrecht", "Country Code": "NL", "Population": 5970.0, "Lat": 52.19917, "Lon": 5.13889}], "Nieuw-Lotbroek": [{"Name": "Nieuw-Lotbroek", "Country Code": "NL", "Population": 4691.0, "Lat": 50.91283, "Lon": 5.92798}], "Nieuw-Namen": [{"Name": "Nieuw-Namen", "Country Code": "NL", "Population": 1057.0, "Lat": 51.2925, "Lon": 4.16111}], "Nieuw-Roden": [{"Name": "Nieuw-Roden", "Country Code": "NL", "Population": 1300.0, "Lat": 53.13167, "Lon": 6.39722}], "Nieuw-Vossemeer": [{"Name": "Nieuw-Vossemeer", "Country Code": "NL", "Population": 1975.0, "Lat": 51.59, "Lon": 4.21806}], "Nieuwdorp": [{"Name": "Nieuwdorp", "Country Code": "NL", "Population": 2445.0, "Lat": 50.96216, "Lon": 5.77297}], "Nieuwe Pekela": [{"Name": "Nieuwe Pekela", "Country Code": "NL", "Population": 3895.0, "Lat": 53.07917, "Lon": 6.96528}], "Nieuwe-Niedorp": [{"Name": "Nieuwe-Niedorp", "Country Code": "NL", "Population": 2810.0, "Lat": 52.74, "Lon": 4.89861}], "Nieuwegein": [{"Name": "Nieuwegein", "Country Code": "NL", "Population": 61489.0, "Lat": 52.02917, "Lon": 5.08056}], "Nieuwehorne": [{"Name": "Nieuwehorne", "Country Code": "NL", "Population": 1450.0, "Lat": 52.95113, "Lon": 6.06342}], "Nieuwendijk": [{"Name": "Nieuwendijk", "Country Code": "NL", "Population": 3659.0, "Lat": 51.775, "Lon": 4.92083}], "Nieuwenhoorn": [{"Name": "Nieuwenhoorn", "Country Code": "NL", "Population": 1130.0, "Lat": 51.85417, "Lon": 4.14306}], "Nieuwenrode": [{"Name": "Nieuwenrode", "Country Code": "BE", "Population": 1810.0, "Lat": 50.97961, "Lon": 4.35282}], "Nieuwerkerk": [{"Name": "Nieuwerkerk", "Country Code": "NL", "Population": 2275.0, "Lat": 51.65083, "Lon": 4.00139}], "Nieuwerkerken": [{"Name": "Nieuwerkerken", "Country Code": "BE", "Population": 6174.0, "Lat": 50.92386, "Lon": 4.00433}, {"Name": "Nieuwerkerken", "Country Code": "BE", "Population": 6466.0, "Lat": 50.8638, "Lon": 5.19467}], "Nieuwkerke": [{"Name": "Nieuwkerke", "Country Code": "BE", "Population": 1474.0, "Lat": 50.74709, "Lon": 2.8286}], "Nieuwkerken-Waas": [{"Name": "Nieuwkerken-Waas", "Country Code": "BE", "Population": 6082.0, "Lat": 51.19358, "Lon": 4.17776}], "Nieuwkoop": [{"Name": "Nieuwkoop", "Country Code": "NL", "Population": 1410.0, "Lat": 52.15083, "Lon": 4.77639}], "Nieuwkuijk": [{"Name": "Nieuwkuijk", "Country Code": "NL", "Population": 2140.0, "Lat": 51.69, "Lon": 5.18194}], "Nieuwland": [{"Name": "Nieuwland", "Country Code": "NL", "Population": 1400.0, "Lat": 51.90167, "Lon": 5.01389}], "Nieuwolda": [{"Name": "Nieuwolda", "Country Code": "NL", "Population": 1110.0, "Lat": 53.24417, "Lon": 6.975}], "Nieuwoord": [{"Name": "Nieuwoord", "Country Code": "NL", "Population": 1265.0, "Lat": 52.46667, "Lon": 6.55}], "Nieuwpoort": [{"Name": "Nieuwpoort", "Country Code": "BE", "Population": 10845.0, "Lat": 51.13008, "Lon": 2.75135}, {"Name": "Nieuwpoort", "Country Code": "NL", "Population": 1390.0, "Lat": 51.93583, "Lon": 4.86806}], "Nieuwrode": [{"Name": "Nieuwrode", "Country Code": "BE", "Population": 2796.0, "Lat": 50.95, "Lon": 4.83333}], "Nieuwveen": [{"Name": "Nieuwveen", "Country Code": "NL", "Population": 1265.0, "Lat": 52.19667, "Lon": 4.75694}], "Nieva": [{"Name": "Nieva", "Country Code": "ES", "Population": 349.0, "Lat": 41.08191, "Lon": -4.42501}], "Nieva de Cameros": [{"Name": "Nieva de Cameros", "Country Code": "ES", "Population": 156.0, "Lat": 42.21835, "Lon": -2.667}], "Nieves": [{"Name": "Nieves", "Country Code": "MX", "Population": 5653.0, "Lat": 23.99609, "Lon": -103.02013}, {"Name": "Nieves", "Country Code": "PH", "Population": 8617.0, "Lat": 15.32842, "Lon": 120.94892}], "Nievroz": [{"Name": "Ni\u00e9vroz", "Country Code": "FR", "Population": 1476.0, "Lat": 45.82576, "Lon": 5.06108}], "Nigbaoa": [{"Name": "Nigbaoa", "Country Code": "CI", "Population": 2120.0, "Lat": 6.06684, "Lon": -6.3286}], "Nigde": [{"Name": "Ni\u011fde", "Country Code": "TR", "Population": 91039.0, "Lat": 37.96583, "Lon": 34.67935}], "Nigel": [{"Name": "Nigel", "Country Code": "ZA", "Population": 140644.0, "Lat": -26.43138, "Lon": 28.47713}], "Nightcliff": [{"Name": "Nightcliff", "Country Code": "AU", "Population": 3810.0, "Lat": -12.38299, "Lon": 130.8517}], "Nigoline-Bonomelli": [{"Name": "Nigoline-Bonomelli", "Country Code": "IT", "Population": 1381.0, "Lat": 45.62908, "Lon": 9.98682}], "Nigran": [{"Name": "Nigr\u00e1n", "Country Code": "ES", "Population": 18021.0, "Lat": 42.14153, "Lon": -8.80656}], "Nigre": [{"Name": "Nigr\u00e9", "Country Code": "CI", "Population": 2776.0, "Lat": 5.62033, "Lon": -7.3578}], "Nigrita": [{"Name": "Nigr\u00edta", "Country Code": "GR", "Population": 4947.0, "Lat": 40.90528, "Lon": 23.49944}], "Nigromante": [{"Name": "Nigromante", "Country Code": "MX", "Population": 1144.0, "Lat": 20.96194, "Lon": -100.78028}], "Niguelas": [{"Name": "Nig\u00fcelas", "Country Code": "ES", "Population": 924.0, "Lat": 36.9776, "Lon": -3.53949}], "Niguella": [{"Name": "Nig\u00fcella", "Country Code": "ES", "Population": 92.0, "Lat": 41.53621, "Lon": -1.5245}], "Nigui Assoko": [{"Name": "Nigui Assoko", "Country Code": "CI", "Population": 2403.0, "Lat": 5.26692, "Lon": -4.59111}], "Nigui Nanon": [{"Name": "Nigui Nanon", "Country Code": "CI", "Population": 2125.0, "Lat": 5.28087, "Lon": -4.61276}], "Nigui Saff": [{"Name": "Nigui Saff", "Country Code": "CI", "Population": 3161.0, "Lat": 5.2475, "Lon": -4.61528}], "Niharra": [{"Name": "Niharra", "Country Code": "ES", "Population": 178.0, "Lat": 40.58945, "Lon": -4.83895}], "Niherne": [{"Name": "Niherne", "Country Code": "FR", "Population": 1628.0, "Lat": 46.82768, "Lon": 1.56384}], "Nihommatsu": [{"Name": "Nihommatsu", "Country Code": "JP", "Population": 36287.0, "Lat": 37.58333, "Lon": 140.43333}], "Nihtaur": [{"Name": "Nihtaur", "Country Code": "IN", "Population": 48389.0, "Lat": 29.32416, "Lon": 78.38724}], "Niigata": [{"Name": "Niigata", "Country Code": "JP", "Population": 797591.0, "Lat": 37.92259, "Lon": 139.04125}], "Niihama": [{"Name": "Niihama", "Country Code": "JP", "Population": 123059.0, "Lat": 33.96047, "Lon": 133.30522}], "Niikappu": [{"Name": "Niikappu", "Country Code": "JP", "Population": 5696.0, "Lat": 42.35, "Lon": 142.31667}], "Niimi": [{"Name": "Niimi", "Country Code": "JP", "Population": 30583.0, "Lat": 34.98333, "Lon": 133.46667}], "Niitsu-honcho": [{"Name": "Niitsu-honch\u014d", "Country Code": "JP", "Population": 65910.0, "Lat": 37.80024, "Lon": 139.1224}], "Niiza": [{"Name": "Niiza", "Country Code": "JP", "Population": 162527.0, "Lat": 35.82088, "Lon": 139.55791}], "Nijar": [{"Name": "N\u00edjar", "Country Code": "ES", "Population": 26516.0, "Lat": 36.96655, "Lon": -2.20595}], "Nijemci": [{"Name": "Nijemci", "Country Code": "HR", "Population": 1330.0, "Lat": 45.14028, "Lon": 19.03556}], "Nijenheim": [{"Name": "Nijenheim", "Country Code": "NL", "Population": 2680.0, "Lat": 52.08689, "Lon": 5.21852}], "Nijkerk": [{"Name": "Nijkerk", "Country Code": "NL", "Population": 38335.0, "Lat": 52.22, "Lon": 5.48611}], "Nijkerkerveen": [{"Name": "Nijkerkerveen", "Country Code": "NL", "Population": 2905.0, "Lat": 52.195, "Lon": 5.46667}], "Nijlen": [{"Name": "Nijlen", "Country Code": "BE", "Population": 20792.0, "Lat": 51.16096, "Lon": 4.67008}], "Nijmegen": [{"Name": "Nijmegen", "Country Code": "NL", "Population": 158732.0, "Lat": 51.8425, "Lon": 5.85278}], "Nijnsel": [{"Name": "Nijnsel", "Country Code": "NL", "Population": 1405.0, "Lat": 51.55083, "Lon": 5.48333}], "Nijrees": [{"Name": "Nijrees", "Country Code": "NL", "Population": 2235.0, "Lat": 52.335, "Lon": 6.66389}], "Nikaho": [{"Name": "Nikaho", "Country Code": "JP", "Population": 0.0, "Lat": 39.27077, "Lon": 139.93949}], "Nikaia": [{"Name": "N\u00edkaia", "Country Code": "GR", "Population": 89380.0, "Lat": 37.96667, "Lon": 23.65}, {"Name": "N\u00edkaia", "Country Code": "GR", "Population": 3274.0, "Lat": 39.56667, "Lon": 22.46667}], "Nikeh": [{"Name": "N\u012bk\u00eah", "Country Code": "AF", "Population": 0.0, "Lat": 33.18934, "Lon": 69.27179}], "Nikel": [{"Name": "Nik\u00ebl", "Country Code": "AL", "Population": 0.0, "Lat": 41.44417, "Lon": 19.74833}, {"Name": "Nikel", "Country Code": "RU", "Population": 15596.0, "Lat": 69.41285, "Lon": 30.22198}], "Nikfer": [{"Name": "Nikfer", "Country Code": "TR", "Population": 5474.0, "Lat": 37.40542, "Lon": 29.13727}], "Nikhom Kham Soi": [{"Name": "Nikhom Kham Soi", "Country Code": "TH", "Population": 0.0, "Lat": 16.37167, "Lon": 104.55147}], "Nikhom Nam Un": [{"Name": "Nikhom Nam Un", "Country Code": "TH", "Population": 0.0, "Lat": 17.18314, "Lon": 103.71842}], "Nikhom Phattana": [{"Name": "Nikhom Phattana", "Country Code": "TH", "Population": 0.0, "Lat": 12.82736, "Lon": 101.20273}], "Niki": [{"Name": "Niki", "Country Code": "JP", "Population": 3874.0, "Lat": 43.15, "Lon": 140.76667}], "Nikinci": [{"Name": "Nikinci", "Country Code": "RS", "Population": 2425.0, "Lat": 44.85017, "Lon": 19.82321}], "Nikiniki": [{"Name": "Nikiniki", "Country Code": "ID", "Population": 0.0, "Lat": -9.81361, "Lon": 124.47649}], "Nikisiani": [{"Name": "Nik\u00edsiani", "Country Code": "GR", "Population": 2236.0, "Lat": 40.94739, "Lon": 24.14311}], "Nikiski": [{"Name": "Nikiski", "Country Code": "US", "Population": 4493.0, "Lat": 60.69028, "Lon": -151.28889}], "Nikita": [{"Name": "Nikita", "Country Code": "UA", "Population": 2257.0, "Lat": 44.51335, "Lon": 34.23517}], "Nikiti": [{"Name": "N\u00edkiti", "Country Code": "GR", "Population": 2711.0, "Lat": 40.22204, "Lon": 23.66837}], "Nikitinskiy": [{"Name": "Nikitinskiy", "Country Code": "RU", "Population": 2419.0, "Lat": 54.5845, "Lon": 86.0115}], "Nikitsch": [{"Name": "Nikitsch", "Country Code": "AT", "Population": 687.0, "Lat": 47.53615, "Lon": 16.66017}], "Nikki": [{"Name": "Nikki", "Country Code": "BJ", "Population": 66109.0, "Lat": 9.94009, "Lon": 3.21075}], "Nikko": [{"Name": "Nikk\u014d", "Country Code": "JP", "Population": 16041.0, "Lat": 36.75, "Lon": 139.61667}], "Niklasdorf": [{"Name": "Niklasdorf", "Country Code": "AT", "Population": 2515.0, "Lat": 47.38333, "Lon": 15.15}], "Nikol's'ke": [{"Name": "Nikol's\u2019ke", "Country Code": "UA", "Population": 0.0, "Lat": 47.20533, "Lon": 37.32139}], "Nikol'sk": [{"Name": "Nikol\u2019sk", "Country Code": "RU", "Population": 24300.0, "Lat": 53.71886, "Lon": 46.07118}, {"Name": "Nikol\u2019sk", "Country Code": "RU", "Population": 1500.0, "Lat": 51.18867, "Lon": 108.32187}, {"Name": "Nikol\u2019sk", "Country Code": "RU", "Population": 8487.0, "Lat": 59.53531, "Lon": 45.45743}], "Nikol'skoye": [{"Name": "Nikol\u2019skoye", "Country Code": "RU", "Population": 50000.0, "Lat": 55.68333, "Lon": 37.48333}, {"Name": "Nikol\u2019skoye", "Country Code": "RU", "Population": 19280.0, "Lat": 59.70056, "Lon": 30.78472}], "Nikol'skoye-na-Cheremshane": [{"Name": "Nikol\u2019skoye-na-Cheremshane", "Country Code": "RU", "Population": 1640.0, "Lat": 54.05, "Lon": 49.23333}], "Nikola-Lenivets": [{"Name": "Nikola-Lenivets", "Country Code": "RU", "Population": 1200.0, "Lat": 54.74943, "Lon": 35.60133}], "Nikolaevo": [{"Name": "Nikolaevo", "Country Code": "BG", "Population": 3160.0, "Lat": 42.63333, "Lon": 25.8}], "Nikolassee": [{"Name": "Nikolassee", "Country Code": "DE", "Population": 11642.0, "Lat": 52.4227, "Lon": 13.18508}], "Nikolayevka": [{"Name": "Nikolayevka", "Country Code": "RU", "Population": 5081.0, "Lat": 54.1451, "Lon": 45.1444}, {"Name": "Nikolayevka", "Country Code": "RU", "Population": 6419.0, "Lat": 53.1257, "Lon": 47.2041}, {"Name": "Nikolayevka", "Country Code": "RU", "Population": 1100.0, "Lat": 51.92556, "Lon": 79.41583}, {"Name": "Nikolayevka", "Country Code": "UA", "Population": 2817.0, "Lat": 44.96213, "Lon": 33.61061}], "Nikolayevsk": [{"Name": "Nikolayevsk", "Country Code": "RU", "Population": 16044.0, "Lat": 50.02824, "Lon": 45.45953}], "Nikolayevsk-on-Amure": [{"Name": "Nikolayevsk-on-Amure", "Country Code": "RU", "Population": 27152.0, "Lat": 53.14657, "Lon": 140.72287}], "Nikolayevskaya": [{"Name": "Nikolayevskaya", "Country Code": "RU", "Population": 3613.0, "Lat": 47.61391, "Lon": 41.5023}], "Nikolayevskiy": [{"Name": "Nikolayevskiy", "Country Code": "RU", "Population": 1500.0, "Lat": 51.65526, "Lon": 107.80068}], "Nikolina Gora": [{"Name": "Nikolina Gora", "Country Code": "RU", "Population": 7046.0, "Lat": 55.73433, "Lon": 37.04364}], "Nikolinci": [{"Name": "Nikolinci", "Country Code": "RS", "Population": 1905.0, "Lat": 45.05245, "Lon": 21.06695}], "Nikolo": [{"Name": "Nikolo", "Country Code": "CI", "Population": 1807.0, "Lat": 8.19677, "Lon": -5.07084}], "Nikolo-Berezovka": [{"Name": "Nikolo-Ber\u00ebzovka", "Country Code": "RU", "Population": 5981.0, "Lat": 56.12422, "Lon": 54.15573}], "Nikolo-Pavlovskoye": [{"Name": "Nikolo-Pavlovskoye", "Country Code": "RU", "Population": 4721.0, "Lat": 57.78306, "Lon": 60.05778}], "Nikologory": [{"Name": "Nikologory", "Country Code": "RU", "Population": 6244.0, "Lat": 56.1413, "Lon": 41.99218}], "Nikolsdorf": [{"Name": "Nikolsdorf", "Country Code": "AT", "Population": 598.0, "Lat": 46.78583, "Lon": 12.91333}], "Nikopol": [{"Name": "Nikopol", "Country Code": "BG", "Population": 4137.0, "Lat": 43.70528, "Lon": 24.89521}, {"Name": "Nikopol", "Country Code": "UA", "Population": 105160.0, "Lat": 47.56826, "Lon": 34.39126}], "Niksar": [{"Name": "Niksar", "Country Code": "TR", "Population": 49865.0, "Lat": 40.59167, "Lon": 36.95167}], "Nikshahr": [{"Name": "N\u012bkshahr", "Country Code": "IR", "Population": 17000.0, "Lat": 26.2258, "Lon": 60.2143}], "Niksic": [{"Name": "Nik\u0161i\u0107", "Country Code": "ME", "Population": 58212.0, "Lat": 42.7731, "Lon": 18.94446}], "Nikulino": [{"Name": "Nikulino", "Country Code": "RU", "Population": 30000.0, "Lat": 55.66943, "Lon": 37.46598}], "Nil-Saint-Vincent-Saint-Martin": [{"Name": "Nil-Saint-Vincent-Saint-Martin", "Country Code": "BE", "Population": 2300.0, "Lat": 50.64331, "Lon": 4.68172}], "Nilakottai": [{"Name": "Nilakottai", "Country Code": "IN", "Population": 21683.0, "Lat": 10.165, "Lon": 77.85024}], "Niland": [{"Name": "Niland", "Country Code": "US", "Population": 1006.0, "Lat": 33.24004, "Lon": -115.51888}], "Nilandhoo": [{"Name": "Nilandhoo", "Country Code": "MV", "Population": 0.0, "Lat": 3.05667, "Lon": 72.89}], "Nilanga": [{"Name": "Nilanga", "Country Code": "IN", "Population": 34491.0, "Lat": 18.11675, "Lon": 76.75279}], "Niles": [{"Name": "Niles", "Country Code": "US", "Population": 18651.0, "Lat": 41.18284, "Lon": -80.76536}, {"Name": "Niles", "Country Code": "US", "Population": 11333.0, "Lat": 41.82977, "Lon": -86.25418}, {"Name": "Niles", "Country Code": "US", "Population": 29876.0, "Lat": 42.01892, "Lon": -87.80284}], "Nileshwar": [{"Name": "N\u012bl\u0113shwar", "Country Code": "IN", "Population": 25405.0, "Lat": 12.25953, "Lon": 75.1352}], "Nilgiri": [{"Name": "N\u012blgiri", "Country Code": "IN", "Population": 15462.0, "Lat": 21.46235, "Lon": 86.76794}], "Nili": [{"Name": "N\u012bl\u012b", "Country Code": "AF", "Population": 0.0, "Lat": 33.72178, "Lon": 66.13023}, {"Name": "Nili", "Country Code": "IL", "Population": 1786.0, "Lat": 31.96396, "Lon": 35.04853}], "Nilka": [{"Name": "Nilka", "Country Code": "CN", "Population": 0.0, "Lat": 43.78894, "Lon": 82.49599}], "Nilo": [{"Name": "Nilo", "Country Code": "CO", "Population": 10555.0, "Lat": 4.30604, "Lon": -74.62083}], "Nilokheri": [{"Name": "N\u012blokheri", "Country Code": "IN", "Population": 17360.0, "Lat": 29.83671, "Lon": 76.93191}], "Nilombot": [{"Name": "Nilombot", "Country Code": "PH", "Population": 7605.0, "Lat": 16.0306, "Lon": 120.43685}], "Nilopolis": [{"Name": "Nil\u00f3polis", "Country Code": "BR", "Population": 147281.0, "Lat": -22.8075, "Lon": -43.41389}], "Nilphamari": [{"Name": "Nilphamari", "Country Code": "BD", "Population": 0.0, "Lat": 25.94167, "Lon": 88.84667}], "Nilsiae": [{"Name": "Nilsi\u00e4", "Country Code": "FI", "Population": 6474.0, "Lat": 63.20746, "Lon": 28.08222}], "Niltepec": [{"Name": "Niltepec", "Country Code": "MX", "Population": 3289.0, "Lat": 16.56401, "Lon": -94.61373}], "Niluefer": [{"Name": "Nil\u00fcfer", "Country Code": "TR", "Population": 0.0, "Lat": 40.21401, "Lon": 28.91567}], "Nilvange": [{"Name": "Nilvange", "Country Code": "FR", "Population": 5430.0, "Lat": 49.34224, "Lon": 6.04964}], "Nima": [{"Name": "Nima", "Country Code": "CN", "Population": 17820.0, "Lat": 34.00065, "Lon": 102.07127}], "Nimaima": [{"Name": "Nimaima", "Country Code": "CO", "Population": 604.0, "Lat": 5.12614, "Lon": -74.38495}], "Nimaj": [{"Name": "N\u012bm\u0101j", "Country Code": "IN", "Population": 20424.0, "Lat": 26.14995, "Lon": 74.00094}], "Nimaparha": [{"Name": "Nim\u0101parha", "Country Code": "IN", "Population": 18222.0, "Lat": 20.05756, "Lon": 86.00436}], "Nimbahera": [{"Name": "N\u012bmb\u0101hera", "Country Code": "IN", "Population": 58085.0, "Lat": 24.62166, "Lon": 74.67999}], "Nimbiasso": [{"Name": "Nimbiasso", "Country Code": "CI", "Population": 2232.0, "Lat": 9.96667, "Lon": -6.43333}], "Nimbin": [{"Name": "Nimbin", "Country Code": "AU", "Population": 1549.0, "Lat": -28.59545, "Lon": 153.22336}], "Nime": [{"Name": "Nim\u00e9", "Country Code": "CI", "Population": 1210.0, "Lat": 6.76015, "Lon": -6.89336}], "Nimes": [{"Name": "N\u00eemes", "Country Code": "FR", "Population": 148236.0, "Lat": 43.83665, "Lon": 4.35788}], "Nimigea de Jos": [{"Name": "Nimigea de Jos", "Country Code": "RO", "Population": 1512.0, "Lat": 47.25357, "Lon": 24.30084}], "Nimigea de Sus": [{"Name": "Nimigea de Sus", "Country Code": "RO", "Population": 5457.0, "Lat": 47.28333, "Lon": 24.31667}], "Nimis": [{"Name": "Nimis", "Country Code": "IT", "Population": 2213.0, "Lat": 46.20659, "Lon": 13.26777}], "Nimpleu I": [{"Name": "Nimpleu I", "Country Code": "CI", "Population": 2435.0, "Lat": 7.47162, "Lon": -8.09281}], "Nimy": [{"Name": "Nimy", "Country Code": "BE", "Population": 4726.0, "Lat": 50.47668, "Lon": 3.95516}], "Nin": [{"Name": "Nin", "Country Code": "HR", "Population": 1101.0, "Lat": 44.24139, "Lon": 15.17833}], "Ninacaca": [{"Name": "Ninacaca", "Country Code": "PE", "Population": 0.0, "Lat": -10.85, "Lon": -76.11667}], "Ninakiri": [{"Name": "Ninakiri", "Country Code": "CI", "Population": 1608.0, "Lat": 8.17916, "Lon": -5.79923}], "Ninderry": [{"Name": "Ninderry", "Country Code": "AU", "Population": 1049.0, "Lat": -26.54094, "Lon": 152.9752}], "Nindiri": [{"Name": "Nindir\u00ed", "Country Code": "NI", "Population": 7073.0, "Lat": 12.00386, "Lon": -86.12128}], "Nindorf": [{"Name": "Nindorf", "Country Code": "DE", "Population": 1145.0, "Lat": 54.08333, "Lon": 9.11667}], "Ninety Six": [{"Name": "Ninety Six", "Country Code": "US", "Population": 2048.0, "Lat": 34.17513, "Lon": -82.02401}], "Ninfield": [{"Name": "Ninfield", "Country Code": "GB", "Population": 1307.0, "Lat": 50.88641, "Lon": 0.42529}], "Ning'an": [{"Name": "Ning\u2019an", "Country Code": "CN", "Population": 0.0, "Lat": 37.49753, "Lon": 105.6765}, {"Name": "Ning\u2019an", "Country Code": "CN", "Population": 0.0, "Lat": 44.33811, "Lon": 129.47429}], "Ning'er": [{"Name": "Ning\u2019er", "Country Code": "CN", "Population": 0.0, "Lat": 23.04053, "Lon": 101.03683}], "Ningbo": [{"Name": "Ningbo", "Country Code": "CN", "Population": 3731203.0, "Lat": 29.87819, "Lon": 121.54945}], "Ningchang": [{"Name": "Ningchang", "Country Code": "CN", "Population": 5068.0, "Lat": 31.48208, "Lon": 109.64029}], "Ningchegu": [{"Name": "Ningchegu", "Country Code": "CN", "Population": 6074.0, "Lat": 39.15889, "Lon": 117.6625}], "Ningde": [{"Name": "Ningde", "Country Code": "CN", "Population": 429260.0, "Lat": 26.66167, "Lon": 119.52278}], "Ningdong": [{"Name": "Ningdong", "Country Code": "CN", "Population": 48587.0, "Lat": 38.16143, "Lon": 106.58502}], "Ninghai": [{"Name": "Ninghai", "Country Code": "CN", "Population": 68330.0, "Lat": 29.28917, "Lon": 121.42472}, {"Name": "Ninghai", "Country Code": "CN", "Population": 56937.0, "Lat": 37.38422, "Lon": 121.60859}], "Ninghe": [{"Name": "Ninghe", "Country Code": "CN", "Population": 3683.0, "Lat": 39.46194, "Lon": 117.7625}], "Ninghua": [{"Name": "Ninghua", "Country Code": "CN", "Population": 0.0, "Lat": 26.26667, "Lon": 116.65024}], "Ningi": [{"Name": "Ningi", "Country Code": "AU", "Population": 4599.0, "Lat": -27.06108, "Lon": 153.07883}, {"Name": "Ningi", "Country Code": "NG", "Population": 0.0, "Lat": 11.07837, "Lon": 9.56886}], "Ningjiang": [{"Name": "Ningjiang", "Country Code": "CN", "Population": 0.0, "Lat": 45.16997, "Lon": 124.82369}], "Ningjin": [{"Name": "Ningjin", "Country Code": "CN", "Population": 0.0, "Lat": 37.62678, "Lon": 116.79655}, {"Name": "Ningjin", "Country Code": "CN", "Population": 0.0, "Lat": 36.9863, "Lon": 122.502}], "Ningling Chengguanzhen": [{"Name": "Ningling Chengguanzhen", "Country Code": "CN", "Population": 0.0, "Lat": 34.45, "Lon": 115.31667}], "Ningnan": [{"Name": "Ningnan", "Country Code": "CN", "Population": 0.0, "Lat": 31.98504, "Lon": 118.78147}], "Ningshan Chengguanzhen": [{"Name": "Ningshan Chengguanzhen", "Country Code": "CN", "Population": 0.0, "Lat": 33.33153, "Lon": 108.30685}], "Ninguie": [{"Name": "Ningui\u00e9", "Country Code": "CI", "Population": 2125.0, "Lat": 5.48893, "Lon": -3.13641}], "Ninguno [CERESO]": [{"Name": "Ninguno [CERESO]", "Country Code": "MX", "Population": 1539.0, "Lat": 20.67361, "Lon": -100.36028}, {"Name": "Ninguno [CERESO]", "Country Code": "MX", "Population": 2010.0, "Lat": 28.60972, "Lon": -105.94028}], "Ninguno [Centro de Readaptacion Social de Atlacholoaya]": [{"Name": "Ninguno [Centro de Readaptaci\u00f3n Social de Atlacholoaya]", "Country Code": "MX", "Population": 2487.0, "Lat": 18.75778, "Lon": -99.22944}], "Ningxiang": [{"Name": "Ningxiang", "Country Code": "CN", "Population": 0.0, "Lat": 37.34, "Lon": 111.20523}], "Ningyang": [{"Name": "Ningyang", "Country Code": "CN", "Population": 82994.0, "Lat": 35.76417, "Lon": 116.79139}], "Ningzhou": [{"Name": "Ningzhou", "Country Code": "CN", "Population": 0.0, "Lat": 24.1877, "Lon": 102.917}], "Ninh Binh": [{"Name": "Ninh B\u00ecnh", "Country Code": "VN", "Population": 36864.0, "Lat": 20.25809, "Lon": 105.97965}], "Ninh Giang": [{"Name": "Ninh Giang", "Country Code": "VN", "Population": 0.0, "Lat": 20.73083, "Lon": 106.39789}], "Ninh Hoa": [{"Name": "Ninh H\u00f2a", "Country Code": "VN", "Population": 240750.0, "Lat": 12.49187, "Lon": 109.12495}], "Niniferoua": [{"Name": "Ninif\u00e9roua", "Country Code": "CI", "Population": 2247.0, "Lat": 5.78202, "Lon": -6.44184}], "Ninioro": [{"Name": "Ninioro", "Country Code": "CI", "Population": 1162.0, "Lat": 10.06057, "Lon": -6.5318}], "Ninnekah": [{"Name": "Ninnekah", "Country Code": "US", "Population": 1036.0, "Lat": 34.94785, "Lon": -97.92393}], "Ninohe": [{"Name": "Ninohe", "Country Code": "JP", "Population": 0.0, "Lat": 40.29081, "Lon": 141.31334}], "Ninomiya": [{"Name": "Ninomiya", "Country Code": "JP", "Population": 27334.0, "Lat": 35.3015, "Lon": 139.25581}], "Ninos Heroes": [{"Name": "Ni\u00f1os H\u00e9roes", "Country Code": "MX", "Population": 1061.0, "Lat": 17.43493, "Lon": -94.49884}], "Ninotsminda": [{"Name": "Ninotsminda", "Country Code": "GE", "Population": 6141.0, "Lat": 41.26458, "Lon": 43.59161}], "Ninove": [{"Name": "Ninove", "Country Code": "BE", "Population": 34795.0, "Lat": 50.82776, "Lon": 4.02657}], "Ninoy": [{"Name": "Ninoy", "Country Code": "PH", "Population": 3443.0, "Lat": 15.8596, "Lon": 120.2478}], "Niny": [{"Name": "Niny", "Country Code": "RU", "Population": 4894.0, "Lat": 44.48778, "Lon": 43.94889}], "Nioboguhe": [{"Name": "Nioboguh\u00e9", "Country Code": "CI", "Population": 2087.0, "Lat": 6.58109, "Lon": -6.61395}], "Niofoin": [{"Name": "Niofoin", "Country Code": "CI", "Population": 1123.0, "Lat": 9.615, "Lon": -6.07778}], "Nioki": [{"Name": "Nioki", "Country Code": "CD", "Population": 62153.0, "Lat": -2.72037, "Lon": 17.69001}], "Nioko I": [{"Name": "Nioko I", "Country Code": "BF", "Population": 65263.0, "Lat": 12.39501, "Lon": -1.43861}], "Niokosso": [{"Name": "Niokosso", "Country Code": "CI", "Population": 2647.0, "Lat": 8.68795, "Lon": -7.67069}], "Niongonon": [{"Name": "Niongonon", "Country Code": "CI", "Population": 3073.0, "Lat": 8.20785, "Lon": -6.66585}], "Nionle Gouepleu": [{"Name": "Nionl\u00e9 Gou\u00e9pleu", "Country Code": "CI", "Population": 2740.0, "Lat": 7.16147, "Lon": -7.79018}], "Nionle Kpampleu": [{"Name": "Nionl\u00e9 Kpampleu", "Country Code": "CI", "Population": 2295.0, "Lat": 7.15479, "Lon": -7.77811}], "Niono": [{"Name": "Niono", "Country Code": "ML", "Population": 52584.0, "Lat": 14.25054, "Lon": -5.98679}], "Nioro": [{"Name": "Nioro", "Country Code": "GM", "Population": 1746.0, "Lat": 13.35, "Lon": -15.75}, {"Name": "Nioro", "Country Code": "ML", "Population": 51933.0, "Lat": 15.22932, "Lon": -9.59277}], "Nioro du Rip": [{"Name": "Nioro du Rip", "Country Code": "SN", "Population": 20784.0, "Lat": 13.75, "Lon": -15.8}], "Niorouhio": [{"Name": "Niorouhio", "Country Code": "CI", "Population": 6935.0, "Lat": 5.76837, "Lon": -6.12006}], "Niort": [{"Name": "Niort", "Country Code": "FR", "Population": 54660.0, "Lat": 46.32313, "Lon": -0.45877}], "Niou": [{"Name": "Niou", "Country Code": "BF", "Population": 0.0, "Lat": 12.76975, "Lon": -1.93376}], "Niouboua": [{"Name": "Niouboua", "Country Code": "CI", "Population": 2768.0, "Lat": 6.70075, "Lon": -6.43672}], "Niougoni": [{"Name": "Niougoni", "Country Code": "CI", "Population": 1282.0, "Lat": 10.54202, "Lon": -6.4224}], "Nioulde": [{"Name": "Niould\u00e9", "Country Code": "CI", "Population": 4446.0, "Lat": 6.55196, "Lon": -7.69047}], "Nioumachoua": [{"Name": "Nioumachoua", "Country Code": "KM", "Population": 2687.0, "Lat": -12.36139, "Lon": 43.71528}], "Nioumamilima": [{"Name": "Nioumamilima", "Country Code": "KM", "Population": 1068.0, "Lat": -11.85461, "Lon": 43.44607}], "Nioupinbeniekro": [{"Name": "Nioupinb\u00e9ni\u00e9kro", "Country Code": "CI", "Population": 2142.0, "Lat": 6.13178, "Lon": -3.33857}], "Nipah Panjang": [{"Name": "Nipah Panjang", "Country Code": "ID", "Population": 0.0, "Lat": -1.07518, "Lon": 104.19438}], "Nipani": [{"Name": "Nip\u0101ni", "Country Code": "IN", "Population": 60351.0, "Lat": 16.399, "Lon": 74.38285}], "Nipawin": [{"Name": "Nipawin", "Country Code": "CA", "Population": 4401.0, "Lat": 53.36678, "Lon": -104.00092}], "Niple": [{"Name": "Nipl\u00e9", "Country Code": "CI", "Population": 1218.0, "Lat": 9.48706, "Lon": -5.86138}], "Niplou": [{"Name": "Niplou", "Country Code": "CI", "Population": 1359.0, "Lat": 4.79735, "Lon": -7.3942}], "Nipomo": [{"Name": "Nipomo", "Country Code": "US", "Population": 16714.0, "Lat": 35.04275, "Lon": -120.476}], "Nippes": [{"Name": "Nippes", "Country Code": "DE", "Population": 113487.0, "Lat": 50.96545, "Lon": 6.95314}], "Niquelandia": [{"Name": "Niquel\u00e2ndia", "Country Code": "BR", "Population": 27541.0, "Lat": -14.47389, "Lon": -48.45972}], "Niquero": [{"Name": "Niquero", "Country Code": "CU", "Population": 18771.0, "Lat": 20.04698, "Lon": -77.58089}], "Niquinohomo": [{"Name": "Niquinohomo", "Country Code": "NI", "Population": 7732.0, "Lat": 11.90518, "Lon": -86.09446}], "Nir": [{"Name": "N\u012br", "Country Code": "IR", "Population": 0.0, "Lat": 38.0346, "Lon": 47.9986}], "Nir Gallim": [{"Name": "Nir Gallim", "Country Code": "IL", "Population": 1396.0, "Lat": 31.82542, "Lon": 34.68282}], "NirTsevi": [{"Name": "Nir Tsevi", "Country Code": "IL", "Population": 1286.0, "Lat": 31.95291, "Lon": 34.86408}], "Nirasaki": [{"Name": "Nirasaki", "Country Code": "JP", "Population": 29483.0, "Lat": 35.7, "Lon": 138.45}], "Nires": [{"Name": "Nire\u0219", "Country Code": "RO", "Population": 1233.0, "Lat": 47.11499, "Lon": 23.98092}], "Nirgua": [{"Name": "Nirgua", "Country Code": "VE", "Population": 54080.0, "Lat": 10.15039, "Lon": -68.56478}], "Nirmal": [{"Name": "Nirmal", "Country Code": "IN", "Population": 80982.0, "Lat": 19.09685, "Lon": 78.34407}], "Nirmali": [{"Name": "Nirm\u0101li", "Country Code": "IN", "Population": 17102.0, "Lat": 26.31397, "Lon": 86.58537}], "Nirsa": [{"Name": "Nirs\u0101", "Country Code": "IN", "Population": 14124.0, "Lat": 23.78438, "Lon": 86.70692}], "Nis": [{"Name": "Ni\u0161", "Country Code": "RS", "Population": 250000.0, "Lat": 43.32472, "Lon": 21.90333}], "Nisa": [{"Name": "Nisa", "Country Code": "PT", "Population": 7450.0, "Lat": 39.51499, "Lon": -7.64908}], "Nisab": [{"Name": "Ni\u015f\u0101b", "Country Code": "YE", "Population": 0.0, "Lat": 14.50743, "Lon": 46.49349}], "Niscemi": [{"Name": "Niscemi", "Country Code": "IT", "Population": 26893.0, "Lat": 37.14649, "Lon": 14.39381}], "Niseko Town": [{"Name": "Niseko Town", "Country Code": "JP", "Population": 4654.0, "Lat": 42.77871, "Lon": 140.66903}], "Nishi-Tokyo-shi": [{"Name": "Nishi-Tokyo-shi", "Country Code": "JP", "Population": 195164.0, "Lat": 35.72526, "Lon": 139.5383}], "Nishiawakura": [{"Name": "Nishiawakura", "Country Code": "JP", "Population": 1437.0, "Lat": 35.17942, "Lon": 134.35043}], "Nishifukuma": [{"Name": "Nishifukuma", "Country Code": "JP", "Population": 43154.0, "Lat": 33.76627, "Lon": 130.47461}], "Nishinomiya-hama": [{"Name": "Nishinomiya-hama", "Country Code": "JP", "Population": 468925.0, "Lat": 34.71562, "Lon": 135.33199}], "Nishinoomote": [{"Name": "Nishinoomote", "Country Code": "JP", "Population": 17832.0, "Lat": 30.73333, "Lon": 131.0}], "Nishio": [{"Name": "Nishio", "Country Code": "JP", "Population": 169984.0, "Lat": 34.86667, "Lon": 137.05}], "Nishiokoppe": [{"Name": "Nishiokoppe", "Country Code": "JP", "Population": 1120.0, "Lat": 44.33051, "Lon": 142.94857}], "Nishishinminato": [{"Name": "Nishishinminato", "Country Code": "JP", "Population": 35994.0, "Lat": 36.77957, "Lon": 137.07576}], "Nishitokyo": [{"Name": "Nishit\u014dky\u014d", "Country Code": "JP", "Population": 0.0, "Lat": 35.73355, "Lon": 139.54761}], "Nishiwaki": [{"Name": "Nishiwaki", "Country Code": "JP", "Population": 36953.0, "Lat": 34.98419, "Lon": 134.97407}], "Nishon Tumani": [{"Name": "Nishon Tumani", "Country Code": "UZ", "Population": 10558.0, "Lat": 38.69395, "Lon": 65.67512}], "Nishor": [{"Name": "Nishor", "Country Code": "XK", "Population": 1154.0, "Lat": 42.42389, "Lon": 20.80167}], "Nisi": [{"Name": "Nis\u00ed", "Country Code": "GR", "Population": 1473.0, "Lat": 40.6361, "Lon": 22.38884}], "Nisia Floresta": [{"Name": "N\u00edsia Floresta", "Country Code": "BR", "Population": 10115.0, "Lat": -6.09111, "Lon": -35.20861}], "Nisipari": [{"Name": "Nisipari", "Country Code": "RO", "Population": 1678.0, "Lat": 44.25964, "Lon": 28.3984}], "Nisiporesti": [{"Name": "Nisipore\u0219ti", "Country Code": "RO", "Population": 2097.0, "Lat": 47.0772, "Lon": 26.73791}], "Niska Banja": [{"Name": "Ni\u0161ka Banja", "Country Code": "RS", "Population": 0.0, "Lat": 43.29507, "Lon": 22.0057}], "Niskayuna": [{"Name": "Niskayuna", "Country Code": "US", "Population": 4859.0, "Lat": 42.7798, "Lon": -73.84568}], "Nisko": [{"Name": "Nisko", "Country Code": "PL", "Population": 15573.0, "Lat": 50.51987, "Lon": 22.13968}], "Nismes": [{"Name": "Nismes", "Country Code": "BE", "Population": 1807.0, "Lat": 50.07523, "Lon": 4.54767}], "Nispen": [{"Name": "Nispen", "Country Code": "NL", "Population": 1245.0, "Lat": 51.48331, "Lon": 4.46131}], "Nisporeni": [{"Name": "Nisporeni", "Country Code": "MD", "Population": 11718.0, "Lat": 47.08159, "Lon": 28.17138}], "Nissan-lez-Enserune": [{"Name": "Nissan-lez-Enserune", "Country Code": "FR", "Population": 3301.0, "Lat": 43.28839, "Lon": 3.128}], "Nissequogue": [{"Name": "Nissequogue", "Country Code": "US", "Population": 1760.0, "Lat": 40.90399, "Lon": -73.19789}], "Nisshin": [{"Name": "Nisshin", "Country Code": "JP", "Population": 91795.0, "Lat": 35.13676, "Lon": 137.05238}], "Nissoria": [{"Name": "Nissoria", "Country Code": "IT", "Population": 2969.0, "Lat": 37.6541, "Lon": 14.4481}], "Nisswa": [{"Name": "Nisswa", "Country Code": "US", "Population": 2011.0, "Lat": 46.52052, "Lon": -94.28861}], "Nistelrode": [{"Name": "Nistelrode", "Country Code": "NL", "Population": 6090.0, "Lat": 51.70417, "Lon": 5.5625}], "Nister": [{"Name": "Nister", "Country Code": "DE", "Population": 1018.0, "Lat": 50.67583, "Lon": 7.83833}], "Nistoresti": [{"Name": "Nistore\u015fti", "Country Code": "RO", "Population": 2335.0, "Lat": 45.83333, "Lon": 26.73333}], "Nistru": [{"Name": "Nistru", "Country Code": "RO", "Population": 1146.0, "Lat": 47.72088, "Lon": 23.45495}], "Nitchidorf": [{"Name": "Ni\u0163chidorf", "Country Code": "RO", "Population": 1567.0, "Lat": 45.58333, "Lon": 21.53333}], "Niteroi": [{"Name": "Niter\u00f3i", "Country Code": "BR", "Population": 456456.0, "Lat": -22.88333, "Lon": -43.10361}], "Niton": [{"Name": "Niton", "Country Code": "GB", "Population": 1162.0, "Lat": 50.58702, "Lon": -1.28489}], "Nitra": [{"Name": "Nitra", "Country Code": "SK", "Population": 86329.0, "Lat": 48.30763, "Lon": 18.08453}], "Nitrianske Pravno": [{"Name": "Nitrianske Pravno", "Country Code": "SK", "Population": 3138.0, "Lat": 48.86839, "Lon": 18.63364}], "Nitro": [{"Name": "Nitro", "Country Code": "US", "Population": 6763.0, "Lat": 38.41481, "Lon": -81.84402}], "Nitscha": [{"Name": "Nitscha", "Country Code": "AT", "Population": 750.0, "Lat": 47.11667, "Lon": 15.75}], "Nittel": [{"Name": "Nittel", "Country Code": "DE", "Population": 1920.0, "Lat": 49.65, "Lon": 6.45}], "Nittenau": [{"Name": "Nittenau", "Country Code": "DE", "Population": 8478.0, "Lat": 49.19425, "Lon": 12.26741}], "Nittendorf": [{"Name": "Nittendorf", "Country Code": "DE", "Population": 9226.0, "Lat": 49.02459, "Lon": 11.96126}], "Niudaokou": [{"Name": "Niudaokou", "Country Code": "CN", "Population": 2108.0, "Lat": 39.78611, "Lon": 117.25222}], "Niugan": [{"Name": "Niugan", "Country Code": "PH", "Population": 4014.0, "Lat": 14.94607, "Lon": 120.9672}, {"Name": "Niugan", "Country Code": "PH", "Population": 3997.0, "Lat": 14.66444, "Lon": 120.95528}], "Niujiapai": [{"Name": "Niujiapai", "Country Code": "CN", "Population": 1593.0, "Lat": 39.52222, "Lon": 117.28944}], "Niushan": [{"Name": "Niushan", "Country Code": "CN", "Population": 0.0, "Lat": 34.52352, "Lon": 118.76495}], "Niva": [{"Name": "Niv\u00e5", "Country Code": "DK", "Population": 7997.0, "Lat": 55.93405, "Lon": 12.50485}], "Nivala": [{"Name": "Nivala", "Country Code": "FI", "Population": 10610.0, "Lat": 63.91667, "Lon": 24.96667}], "Nivar": [{"Name": "N\u00edvar", "Country Code": "ES", "Population": 658.0, "Lat": 37.25909, "Lon": -3.57768}], "Nivelles": [{"Name": "Nivelles", "Country Code": "BE", "Population": 24149.0, "Lat": 50.59833, "Lon": 4.32848}], "Niverville": [{"Name": "Niverville", "Country Code": "CA", "Population": 4083.0, "Lat": 49.60559, "Lon": -97.04234}, {"Name": "Niverville", "Country Code": "US", "Population": 1662.0, "Lat": 42.44092, "Lon": -73.66095}], "Niviano": [{"Name": "Niviano", "Country Code": "IT", "Population": 1547.0, "Lat": 44.94027, "Lon": 9.62878}], "Nivillac": [{"Name": "Nivillac", "Country Code": "FR", "Population": 3433.0, "Lat": 47.53455, "Lon": -2.28326}], "Nivnice": [{"Name": "Nivnice", "Country Code": "CZ", "Population": 3278.0, "Lat": 48.97465, "Lon": 17.64757}], "Nivolas-Vermelle": [{"Name": "Nivolas-Vermelle", "Country Code": "FR", "Population": 1967.0, "Lat": 45.55885, "Lon": 5.30578}], "Niwai": [{"Name": "Niwai", "Country Code": "IN", "Population": 35114.0, "Lat": 26.36073, "Lon": 75.91836}], "Niwari": [{"Name": "Niw\u0101ri", "Country Code": "IN", "Population": 10330.0, "Lat": 28.87611, "Lon": 77.5382}], "Niwiska": [{"Name": "Niwiska", "Country Code": "PL", "Population": 1560.0, "Lat": 50.22492, "Lon": 21.63036}], "Niwot": [{"Name": "Niwot", "Country Code": "US", "Population": 4006.0, "Lat": 40.10387, "Lon": -105.17082}], "Nixa": [{"Name": "Nixa", "Country Code": "US", "Population": 20984.0, "Lat": 37.04339, "Lon": -93.29435}], "Nixon": [{"Name": "Nixon", "Country Code": "US", "Population": 1373.0, "Lat": 40.7834, "Lon": -79.9295}, {"Name": "Nixon", "Country Code": "US", "Population": 2465.0, "Lat": 29.26746, "Lon": -97.76444}], "Niya": [{"Name": "Niya", "Country Code": "CN", "Population": 0.0, "Lat": 37.06553, "Lon": 82.68933}], "Niyang": [{"Name": "Niyang", "Country Code": "CN", "Population": 13284.0, "Lat": 33.81944, "Lon": 105.82139}], "Nizahon II": [{"Name": "Nizahon II", "Country Code": "CI", "Population": 15290.0, "Lat": 6.37222, "Lon": -7.39891}], "Nizamabad": [{"Name": "Niz\u0101m\u0101b\u0101d", "Country Code": "IN", "Population": 305438.0, "Lat": 18.67154, "Lon": 78.0988}, {"Name": "Niz\u0101m\u0101b\u0101d", "Country Code": "IN", "Population": 13895.0, "Lat": 26.05295, "Lon": 83.05787}], "Nizami": [{"Name": "Nizami", "Country Code": "AM", "Population": 1060.0, "Lat": 40.09168, "Lon": 44.4057}], "Nizao": [{"Name": "Nizao", "Country Code": "DO", "Population": 6530.0, "Lat": 18.24697, "Lon": -70.21053}], "Nizbor": [{"Name": "Ni\u017ebor", "Country Code": "CZ", "Population": 1549.0, "Lat": 49.99995, "Lon": 14.00237}], "Nizhneangarsk": [{"Name": "Nizhneangarsk", "Country Code": "RU", "Population": 5493.0, "Lat": 55.79326, "Lon": 109.58029}], "Nizhnedevitsk": [{"Name": "Nizhnedevitsk", "Country Code": "RU", "Population": 6320.0, "Lat": 51.54193, "Lon": 38.3657}], "Nizhnegorskiy": [{"Name": "Nizhnegorskiy", "Country Code": "UA", "Population": 8741.0, "Lat": 45.44789, "Lon": 34.73839}], "Nizhneivkino": [{"Name": "Nizhneivkino", "Country Code": "RU", "Population": 2234.0, "Lat": 58.19398, "Lon": 49.52137}], "Nizhnekamsk": [{"Name": "Nizhnekamsk", "Country Code": "RU", "Population": 234297.0, "Lat": 55.63657, "Lon": 51.82447}], "Nizhnepavlovka": [{"Name": "Nizhnepavlovka", "Country Code": "RU", "Population": 3691.0, "Lat": 51.71324, "Lon": 54.80146}], "Nizhnesortymskiy": [{"Name": "Nizhnesortymskiy", "Country Code": "RU", "Population": 15204.0, "Lat": 62.43965, "Lon": 71.76029}], "Nizhnetroitskiy": [{"Name": "Nizhnetroitskiy", "Country Code": "RU", "Population": 3784.0, "Lat": 54.33852, "Lon": 53.68329}], "Nizhneudinsk": [{"Name": "Nizhneudinsk", "Country Code": "RU", "Population": 38723.0, "Lat": 54.9076, "Lon": 99.0276}], "Nizhnevartovsk": [{"Name": "Nizhnevartovsk", "Country Code": "RU", "Population": 244937.0, "Lat": 60.9344, "Lon": 76.5531}], "Nizhneye Kazanishche": [{"Name": "Nizhneye Kazanishche", "Country Code": "RU", "Population": 11765.0, "Lat": 42.76369, "Lon": 47.16027}], "Nizhniy Arkhyz": [{"Name": "Nizhniy Arkhyz", "Country Code": "RU", "Population": 2000.0, "Lat": 43.67817, "Lon": 41.45977}], "Nizhniy Baskunchak": [{"Name": "Nizhniy Baskunchak", "Country Code": "RU", "Population": 3153.0, "Lat": 48.21978, "Lon": 46.83105}], "Nizhniy Bestyakh": [{"Name": "Nizhniy Bestyakh", "Country Code": "RU", "Population": 3218.0, "Lat": 61.96202, "Lon": 129.91245}], "Nizhniy Cherek": [{"Name": "Nizhniy Cherek", "Country Code": "RU", "Population": 3098.0, "Lat": 43.51306, "Lon": 43.91389}], "Nizhniy Chir": [{"Name": "Nizhniy Chir", "Country Code": "RU", "Population": 4765.0, "Lat": 48.35973, "Lon": 43.0865}], "Nizhniy Dzhengutay": [{"Name": "Nizhniy Dzhengutay", "Country Code": "RU", "Population": 7450.0, "Lat": 42.70008, "Lon": 47.24488}], "Nizhniy Ingash": [{"Name": "Nizhniy Ingash", "Country Code": "RU", "Population": 8458.0, "Lat": 56.2003, "Lon": 96.5373}], "Nizhniy Kislyay": [{"Name": "Nizhniy Kislyay", "Country Code": "RU", "Population": 4394.0, "Lat": 50.8536, "Lon": 40.1726}], "Nizhniy Kuranakh": [{"Name": "Nizhniy Kuranakh", "Country Code": "RU", "Population": 6798.0, "Lat": 58.8238, "Lon": 125.52278}], "Nizhniy Kurkuzhin": [{"Name": "Nizhniy Kurkuzhin", "Country Code": "RU", "Population": 3674.0, "Lat": 43.74833, "Lon": 43.34972}], "Nizhniy Lomov": [{"Name": "Nizhniy Lomov", "Country Code": "RU", "Population": 23835.0, "Lat": 53.53041, "Lon": 43.67663}], "Nizhniy Mamon": [{"Name": "Nizhniy Mamon", "Country Code": "RU", "Population": 3914.0, "Lat": 50.1937, "Lon": 40.5083}], "Nizhniy Novgorod": [{"Name": "Nizhniy Novgorod", "Country Code": "RU", "Population": 1259013.0, "Lat": 56.32867, "Lon": 44.00205}], "Nizhniy Odes": [{"Name": "Nizhniy Odes", "Country Code": "RU", "Population": 11165.0, "Lat": 63.64451, "Lon": 54.85598}], "Nizhniy Sayantuy": [{"Name": "Nizhniy Sayantuy", "Country Code": "RU", "Population": 1600.0, "Lat": 51.73751, "Lon": 107.51308}], "Nizhniy Tsasuchey": [{"Name": "Nizhniy Tsasuchey", "Country Code": "RU", "Population": 3278.0, "Lat": 50.51667, "Lon": 115.13333}], "Nizhniy Ufaley": [{"Name": "Nizhniy Ufaley", "Country Code": "RU", "Population": 2818.0, "Lat": 55.91528, "Lon": 59.98417}], "Nizhniye Achaluki": [{"Name": "Nizhniye Achaluki", "Country Code": "RU", "Population": 5247.0, "Lat": 43.4028, "Lon": 44.75908}], "Nizhniye Sergi": [{"Name": "Nizhniye Sergi", "Country Code": "RU", "Population": 12077.0, "Lat": 56.66139, "Lon": 59.30333}], "Nizhniye Vyazovyye": [{"Name": "Nizhniye Vyazovyye", "Country Code": "RU", "Population": 8290.0, "Lat": 55.79877, "Lon": 48.52476}], "Nizhny Tagil": [{"Name": "Nizhny Tagil", "Country Code": "RU", "Population": 381116.0, "Lat": 57.91944, "Lon": 59.965}], "Nizhnyaya Ala-Archa": [{"Name": "Nizhnyaya Ala-Archa", "Country Code": "KG", "Population": 10760.0, "Lat": 42.92245, "Lon": 74.56684}], "Nizhnyaya Irga": [{"Name": "Nizhnyaya Irga", "Country Code": "RU", "Population": 1200.0, "Lat": 56.8669, "Lon": 57.422}], "Nizhnyaya Maktama": [{"Name": "Nizhnyaya Maktama", "Country Code": "RU", "Population": 10600.0, "Lat": 54.86356, "Lon": 52.4281}], "Nizhnyaya Omka": [{"Name": "Nizhnyaya Omka", "Country Code": "RU", "Population": 5246.0, "Lat": 55.43375, "Lon": 74.94256}], "Nizhnyaya Poyma": [{"Name": "Nizhnyaya Poyma", "Country Code": "RU", "Population": 9560.0, "Lat": 56.1643, "Lon": 97.2065}], "Nizhnyaya Salda": [{"Name": "Nizhnyaya Salda", "Country Code": "RU", "Population": 17473.0, "Lat": 58.07756, "Lon": 60.7202}], "Nizhnyaya Tavda": [{"Name": "Nizhnyaya Tavda", "Country Code": "RU", "Population": 6711.0, "Lat": 57.67306, "Lon": 66.1725}], "Nizhnyaya Tura": [{"Name": "Nizhnyaya Tura", "Country Code": "RU", "Population": 22600.0, "Lat": 58.6293, "Lon": 59.8118}], "Nizhyn": [{"Name": "Nizhyn", "Country Code": "UA", "Population": 66983.0, "Lat": 51.04801, "Lon": 31.88688}], "Nizip": [{"Name": "Nizip", "Country Code": "TR", "Population": 82308.0, "Lat": 37.00972, "Lon": 37.79417}], "Nizna": [{"Name": "Ni\u017en\u00e1", "Country Code": "SK", "Population": 4020.0, "Lat": 49.31046, "Lon": 19.52428}], "Nizwa": [{"Name": "Nizw\u00e1", "Country Code": "OM", "Population": 72076.0, "Lat": 22.93333, "Lon": 57.53333}], "Nizza Monferrato": [{"Name": "Nizza Monferrato", "Country Code": "IT", "Population": 8633.0, "Lat": 44.77416, "Lon": 8.35784}], "Nizza di Sicilia": [{"Name": "Nizza di Sicilia", "Country Code": "IT", "Population": 3615.0, "Lat": 37.99081, "Lon": 15.40956}], "Nizzan": [{"Name": "Ni\u1e95\u1e95an", "Country Code": "IL", "Population": 2461.0, "Lat": 31.73854, "Lon": 34.62985}], "Nizzane 'Oz": [{"Name": "Ni\u1e95\u1e95an\u00e9 \u2018Oz", "Country Code": "IL", "Population": 1115.0, "Lat": 32.306, "Lon": 35.00374}], "Njeru": [{"Name": "Njeru", "Country Code": "UG", "Population": 61952.0, "Lat": 0.44166, "Lon": 33.17917}], "Njinikom": [{"Name": "Njinikom", "Country Code": "CM", "Population": 8247.0, "Lat": 6.23333, "Lon": 10.28333}], "Njivice": [{"Name": "Njivice", "Country Code": "HR", "Population": 1115.0, "Lat": 45.15806, "Lon": 14.53861}], "Njombe": [{"Name": "Njomb\u00e9", "Country Code": "CM", "Population": 27130.0, "Lat": 4.58056, "Lon": 9.66472}, {"Name": "Njombe", "Country Code": "TZ", "Population": 46724.0, "Lat": -9.34917, "Lon": 34.77167}], "Njoro": [{"Name": "Njoro", "Country Code": "KE", "Population": 42173.0, "Lat": -0.33024, "Lon": 35.94445}], "Njurundabommen": [{"Name": "Njurundabommen", "Country Code": "SE", "Population": 1959.0, "Lat": 62.26339, "Lon": 17.38354}], "Nkambe": [{"Name": "Nkambe", "Country Code": "CM", "Population": 26816.0, "Lat": 6.63333, "Lon": 10.66667}], "Nkandla": [{"Name": "Nkandla", "Country Code": "ZA", "Population": 0.0, "Lat": -28.6207, "Lon": 31.09067}], "Nkawkaw": [{"Name": "Nkawkaw", "Country Code": "GH", "Population": 47968.0, "Lat": 6.54584, "Lon": -0.76264}], "Nkayi": [{"Name": "Nkayi", "Country Code": "CG", "Population": 103000.0, "Lat": -4.18396, "Lon": 13.2859}], "Nkhata Bay": [{"Name": "Nkhata Bay", "Country Code": "MW", "Population": 16099.0, "Lat": -11.60659, "Lon": 34.29073}], "Nkhotakota": [{"Name": "Nkhotakota", "Country Code": "MW", "Population": 31974.0, "Lat": -12.92744, "Lon": 34.29614}], "Nkoaranga": [{"Name": "Nkoaranga", "Country Code": "TZ", "Population": 14738.0, "Lat": -3.33333, "Lon": 36.8}], "Nkongolwane": [{"Name": "Nkongolwane", "Country Code": "ZA", "Population": 3213.0, "Lat": -27.68858, "Lon": 31.03867}], "Nkongsamba": [{"Name": "Nkongsamba", "Country Code": "CM", "Population": 162309.0, "Lat": 4.9547, "Lon": 9.9404}], "Nkoranza": [{"Name": "Nkoranza", "Country Code": "GH", "Population": 35401.0, "Lat": 7.57127, "Lon": -1.7087}], "Nkoteng": [{"Name": "Nkoteng", "Country Code": "CM", "Population": 27677.0, "Lat": 4.51667, "Lon": 12.03333}], "Nkoupe": [{"Name": "Nkoup\u00e9", "Country Code": "CI", "Population": 4332.0, "Lat": 6.0729, "Lon": -3.93534}], "Nkove": [{"Name": "Nkove", "Country Code": "TZ", "Population": 5389.0, "Lat": -7.95, "Lon": 30.85}], "Nkowakowa": [{"Name": "Nkowakowa", "Country Code": "ZA", "Population": 30138.0, "Lat": -23.88782, "Lon": 30.28708}], "Nkoyaphiri": [{"Name": "Nkoyaphiri", "Country Code": "BW", "Population": 1578.0, "Lat": -24.63222, "Lon": 25.83139}], "Nkpor": [{"Name": "Nkpor", "Country Code": "NG", "Population": 103733.0, "Lat": 6.15038, "Lon": 6.83042}], "Nkubu": [{"Name": "Nkubu", "Country Code": "KE", "Population": 7675.0, "Lat": -0.06929, "Lon": 37.66618}], "Nkurenkuru": [{"Name": "Nkurenkuru", "Country Code": NaN, "Population": 732.0, "Lat": -17.64182, "Lon": 18.61966}], "Nkwerre": [{"Name": "Nkwerre", "Country Code": "NG", "Population": 62973.0, "Lat": 5.75917, "Lon": 7.10384}], "Nkwo Nike": [{"Name": "Nkwo Nike", "Country Code": "NG", "Population": 0.0, "Lat": 6.50921, "Lon": 7.51006}], "Nkwoagu Isuochi": [{"Name": "Nkwoagu Isuochi", "Country Code": "NG", "Population": 0.0, "Lat": 5.99125, "Lon": 7.39445}], "Nnenasa": [{"Name": "Nnenasa", "Country Code": "NG", "Population": 0.0, "Lat": 5.73262, "Lon": 7.01364}], "Nnewi": [{"Name": "Nnewi", "Country Code": "NG", "Population": 193987.0, "Lat": 6.01962, "Lon": 6.91729}], "No Kunda": [{"Name": "No Kunda", "Country Code": "GM", "Population": 1913.0, "Lat": 13.56667, "Lon": -15.83333}], "Noa": [{"Name": "Noa", "Country Code": "CI", "Population": 1361.0, "Lat": 7.79361, "Lon": -3.02778}], "Noaillan": [{"Name": "Noaillan", "Country Code": "FR", "Population": 1105.0, "Lat": 44.47953, "Lon": -0.3665}], "Noailles": [{"Name": "Noailles", "Country Code": "FR", "Population": 4863.0, "Lat": 43.29604, "Lon": 5.37959}, {"Name": "Noailles", "Country Code": "FR", "Population": 2790.0, "Lat": 49.32866, "Lon": 2.20024}], "Noale": [{"Name": "Noale", "Country Code": "IT", "Population": 10500.0, "Lat": 45.54596, "Lon": 12.06445}], "Noalejo": [{"Name": "Noalejo", "Country Code": "ES", "Population": 2161.0, "Lat": 37.53017, "Lon": -3.65615}], "Noamundi": [{"Name": "No\u0101mundi", "Country Code": "IN", "Population": 16558.0, "Lat": 22.16094, "Lon": 85.50416}], "Noank": [{"Name": "Noank", "Country Code": "US", "Population": 1796.0, "Lat": 41.32788, "Lon": -71.99063}], "Noardburgum": [{"Name": "Noardburgum", "Country Code": "NL", "Population": 2385.0, "Lat": 53.22135, "Lon": 6.00523}], "Noarlunga Downs": [{"Name": "Noarlunga Downs", "Country Code": "AU", "Population": 3779.0, "Lat": -35.1504, "Lon": 138.50395}], "Noasca": [{"Name": "Noasca", "Country Code": "IT", "Population": 75.0, "Lat": 45.45332, "Lon": 7.31494}], "Nobeoka": [{"Name": "Nobeoka", "Country Code": "JP", "Population": 119521.0, "Lat": 32.58333, "Lon": 131.66667}], "Nobile-Monguzzo": [{"Name": "Nobile-Monguzzo", "Country Code": "IT", "Population": 2092.0, "Lat": 45.78018, "Lon": 9.23024}], "Nobitz": [{"Name": "Nobitz", "Country Code": "DE", "Population": 3858.0, "Lat": 50.97621, "Lon": 12.48605}], "Noble": [{"Name": "Noble", "Country Code": "US", "Population": 6666.0, "Lat": 35.13924, "Lon": -97.39475}], "Noble Park": [{"Name": "Noble Park", "Country Code": "AU", "Population": 30921.0, "Lat": -37.96667, "Lon": 145.16667}], "Noble Park North": [{"Name": "Noble Park North", "Country Code": "AU", "Population": 7394.0, "Lat": -37.94978, "Lon": 145.19257}], "Nobleboro": [{"Name": "Nobleboro", "Country Code": "US", "Population": 1691.0, "Lat": 44.07952, "Lon": -69.48505}], "Noblejas": [{"Name": "Noblejas", "Country Code": "ES", "Population": 3322.0, "Lat": 39.98061, "Lon": -3.44001}], "Noblesville": [{"Name": "Noblesville", "Country Code": "US", "Population": 59093.0, "Lat": 40.04559, "Lon": -86.0086}], "Noboribetsu": [{"Name": "Noboribetsu", "Country Code": "JP", "Population": 0.0, "Lat": 42.45215, "Lon": 141.17914}], "Nobres": [{"Name": "Nobres", "Country Code": "BR", "Population": 12009.0, "Lat": -14.72028, "Lon": -56.3275}], "Nobressart": [{"Name": "Nobressart", "Country Code": "BE", "Population": 1180.0, "Lat": 49.73895, "Lon": 5.72012}], "Nobsa": [{"Name": "Nobsa", "Country Code": "CO", "Population": 3360.0, "Lat": 5.76978, "Lon": -72.94099}], "Nocaima": [{"Name": "Nocaima", "Country Code": "CO", "Population": 2475.0, "Lat": 5.06696, "Lon": -74.38439}], "Nocara": [{"Name": "Nocara", "Country Code": "IT", "Population": 348.0, "Lat": 40.09941, "Lon": 16.48189}], "Nocatee": [{"Name": "Nocatee", "Country Code": "US", "Population": 4524.0, "Lat": 30.0832, "Lon": -81.40283}, {"Name": "Nocatee", "Country Code": "US", "Population": 4524.0, "Lat": 27.16033, "Lon": -81.88231}], "Nocciano": [{"Name": "Nocciano", "Country Code": "IT", "Population": 470.0, "Lat": 42.33366, "Lon": 13.98571}], "Nocelleto": [{"Name": "Nocelleto", "Country Code": "IT", "Population": 2374.0, "Lat": 41.17067, "Lon": 14.01565}], "Nocera Inferiore": [{"Name": "Nocera Inferiore", "Country Code": "IT", "Population": 45608.0, "Lat": 40.7454, "Lon": 14.64542}], "Nocera Scalo": [{"Name": "Nocera Scalo", "Country Code": "IT", "Population": 1992.0, "Lat": 39.01576, "Lon": 16.1204}], "Nocera Superiore": [{"Name": "Nocera Superiore", "Country Code": "IT", "Population": 23452.0, "Lat": 40.74248, "Lon": 14.67447}], "Nocera Terinese": [{"Name": "Nocera Terinese", "Country Code": "IT", "Population": 1377.0, "Lat": 39.03474, "Lon": 16.16737}], "Nocera Umbra": [{"Name": "Nocera Umbra", "Country Code": "IT", "Population": 1690.0, "Lat": 43.114, "Lon": 12.78925}], "Noceto": [{"Name": "Noceto", "Country Code": "IT", "Population": 8076.0, "Lat": 44.80953, "Lon": 10.1773}], "Nochistlan de Mejia": [{"Name": "Nochistl\u00e1n de Mej\u00eda", "Country Code": "MX", "Population": 16562.0, "Lat": 21.36435, "Lon": -102.8459}], "Noci": [{"Name": "Noci", "Country Code": "IT", "Population": 15383.0, "Lat": 40.79356, "Lon": 17.12681}], "Nociglia": [{"Name": "Nociglia", "Country Code": "IT", "Population": 2456.0, "Lat": 40.03804, "Lon": 18.32757}], "Nocona": [{"Name": "Nocona", "Country Code": "US", "Population": 2939.0, "Lat": 33.78677, "Lon": -97.72586}], "Nocrich": [{"Name": "Nocrich", "Country Code": "RO", "Population": 2612.0, "Lat": 45.9, "Lon": 24.45}], "Nocupetaro": [{"Name": "Nocup\u00e9taro", "Country Code": "MX", "Population": 3054.0, "Lat": 19.04392, "Lon": -101.16187}], "Noda": [{"Name": "Noda", "Country Code": "JP", "Population": 4201.0, "Lat": 40.10639, "Lon": 141.81778}, {"Name": "Noda", "Country Code": "JP", "Population": 154114.0, "Lat": 35.94897, "Lon": 139.86793}], "Nodebo": [{"Name": "N\u00f8debo", "Country Code": "DK", "Population": 2093.0, "Lat": 55.97877, "Lon": 12.34685}], "Nodeland": [{"Name": "Nodeland", "Country Code": "NO", "Population": 1834.0, "Lat": 58.15517, "Lon": 7.83576}], "Nodioni": [{"Name": "Nodioni", "Country Code": "CI", "Population": 2475.0, "Lat": 8.70912, "Lon": -6.24903}], "Nodong": [{"Name": "Nodong", "Country Code": "KR", "Population": 0.0, "Lat": 34.79802, "Lon": 127.07073}], "Noduwez": [{"Name": "Noduwez", "Country Code": "BE", "Population": 1030.0, "Lat": 50.72863, "Lon": 4.96779}], "Noe": [{"Name": "No\u00e9", "Country Code": "CI", "Population": 12199.0, "Lat": 5.29388, "Lon": -2.78478}, {"Name": "No\u00e9", "Country Code": "FR", "Population": 2395.0, "Lat": 43.35378, "Lon": 1.27423}], "Noe Valley": [{"Name": "Noe Valley", "Country Code": "US", "Population": 22893.0, "Lat": 37.75018, "Lon": -122.43369}], "Noebdenitz": [{"Name": "N\u00f6bdenitz", "Country Code": "DE", "Population": 1025.0, "Lat": 50.86667, "Lon": 12.28333}], "Noechling": [{"Name": "N\u00f6chling", "Country Code": "AT", "Population": 699.0, "Lat": 48.22433, "Lon": 14.98123}], "Noel": [{"Name": "Noel", "Country Code": "US", "Population": 1824.0, "Lat": 36.54563, "Lon": -94.48522}], "Noemuti": [{"Name": "Noemuti", "Country Code": "ID", "Population": 0.0, "Lat": -9.568, "Lon": 124.495}], "Noen Kham": [{"Name": "Noen Kham", "Country Code": "TH", "Population": 0.0, "Lat": 14.9501, "Lon": 99.93899}], "Noen Maprang": [{"Name": "Noen Maprang", "Country Code": "TH", "Population": 0.0, "Lat": 16.56667, "Lon": 100.63333}], "Noen Sa-nga": [{"Name": "Noen Sa-nga", "Country Code": "TH", "Population": 0.0, "Lat": 15.56428, "Lon": 102.00128}], "Noepoli": [{"Name": "Noepoli", "Country Code": "IT", "Population": 823.0, "Lat": 40.08705, "Lon": 16.32834}], "Noerdlingen": [{"Name": "N\u00f6rdlingen", "Country Code": "DE", "Population": 19492.0, "Lat": 48.85122, "Lon": 10.48868}], "Noerten-Hardenberg": [{"Name": "N\u00f6rten-Hardenberg", "Country Code": "DE", "Population": 8514.0, "Lat": 51.62878, "Lon": 9.93593}], "Noestlbach": [{"Name": "N\u00f6stlbach", "Country Code": "AT", "Population": 1499.0, "Lat": 48.1666, "Lon": 14.24609}], "Noetinger": [{"Name": "Noetinger", "Country Code": "AR", "Population": 4508.0, "Lat": -32.36604, "Lon": -62.30723}], "Noeux-les-Mines": [{"Name": "N\u0153ux-les-Mines", "Country Code": "FR", "Population": 11970.0, "Lat": 50.48333, "Lon": 2.66667}], "Noez": [{"Name": "Noez", "Country Code": "ES", "Population": 802.0, "Lat": 39.74094, "Lon": -4.18408}], "Nof Ayalon": [{"Name": "Nof Ayalon", "Country Code": "IL", "Population": 2128.0, "Lat": 31.87111, "Lon": 34.99081}], "Nofit": [{"Name": "Nofit", "Country Code": "IL", "Population": 2689.0, "Lat": 32.76226, "Lon": 35.1477}], "Nofoali`i": [{"Name": "Nofoali\u2018i", "Country Code": "WS", "Population": 1828.0, "Lat": -13.8217, "Lon": -171.95873}], "Nogal de las Huertas": [{"Name": "Nogal de las Huertas", "Country Code": "ES", "Population": 59.0, "Lat": 42.39255, "Lon": -4.64156}], "Nogales": [{"Name": "Nogales", "Country Code": "ES", "Population": 689.0, "Lat": 38.58629, "Lon": -6.74901}, {"Name": "Nogales", "Country Code": "MX", "Population": 1117.0, "Lat": 24.9813, "Lon": -104.72229}, {"Name": "Nogales", "Country Code": "MX", "Population": 22085.0, "Lat": 18.82776, "Lon": -97.16311}, {"Name": "Nogales", "Country Code": "MX", "Population": 212533.0, "Lat": 31.30862, "Lon": -110.94217}, {"Name": "Nogales", "Country Code": "US", "Population": 20252.0, "Lat": 31.34038, "Lon": -110.93425}], "Nogamerzin-Yurt": [{"Name": "Nogamerzin-Yurt", "Country Code": "RU", "Population": 5053.0, "Lat": 43.65361, "Lon": 44.88889}], "Nogara": [{"Name": "Nogara", "Country Code": "IT", "Population": 7003.0, "Lat": 45.18109, "Lon": 11.06008}], "Nogaredo": [{"Name": "Nogaredo", "Country Code": "IT", "Population": 974.0, "Lat": 45.913, "Lon": 11.02388}], "Nogaro": [{"Name": "Nogaro", "Country Code": "FR", "Population": 2120.0, "Lat": 43.75821, "Lon": -0.03385}], "Nogarole Rocca": [{"Name": "Nogarole Rocca", "Country Code": "IT", "Population": 638.0, "Lat": 45.29027, "Lon": 10.88342}], "Nogarole Vicentino": [{"Name": "Nogarole Vicentino", "Country Code": "IT", "Population": 304.0, "Lat": 45.56019, "Lon": 11.28829}], "Nogata": [{"Name": "N\u014dgata", "Country Code": "JP", "Population": 56821.0, "Lat": 33.74051, "Lon": 130.72263}], "Nogent-l'Artaud": [{"Name": "Nogent-l'Artaud", "Country Code": "FR", "Population": 2123.0, "Lat": 48.9656, "Lon": 3.32178}], "Nogent-le-Bas": [{"Name": "Nogent-le-Bas", "Country Code": "FR", "Population": 4076.0, "Lat": 48.01974, "Lon": 5.33323}], "Nogent-le-Phaye": [{"Name": "Nogent-le-Phaye", "Country Code": "FR", "Population": 1247.0, "Lat": 48.44528, "Lon": 1.57777}], "Nogent-le-Roi": [{"Name": "Nogent-le-Roi", "Country Code": "FR", "Population": 4060.0, "Lat": 48.64785, "Lon": 1.52933}], "Nogent-le-Rotrou": [{"Name": "Nogent-le-Rotrou", "Country Code": "FR", "Population": 13128.0, "Lat": 48.32157, "Lon": 0.82177}], "Nogent-sur-Marne": [{"Name": "Nogent-sur-Marne", "Country Code": "FR", "Population": 31236.0, "Lat": 48.83669, "Lon": 2.48255}], "Nogent-sur-Oise": [{"Name": "Nogent-sur-Oise", "Country Code": "FR", "Population": 19690.0, "Lat": 49.27158, "Lon": 2.47074}], "Nogent-sur-Seine": [{"Name": "Nogent-sur-Seine", "Country Code": "FR", "Population": 6071.0, "Lat": 48.49372, "Lon": 3.50262}], "Nogent-sur-Vernisson": [{"Name": "Nogent-sur-Vernisson", "Country Code": "FR", "Population": 2562.0, "Lat": 47.84603, "Lon": 2.74267}], "Nogentel": [{"Name": "Nogentel", "Country Code": "FR", "Population": 1045.0, "Lat": 49.0175, "Lon": 3.4025}], "Noginsk": [{"Name": "Noginsk", "Country Code": "RU", "Population": 115979.0, "Lat": 55.86486, "Lon": 38.44853}], "Noginsk-9": [{"Name": "Noginsk-9", "Country Code": "RU", "Population": 10000.0, "Lat": 56.06681, "Lon": 38.50013}], "Nogir": [{"Name": "Nogir", "Country Code": "RU", "Population": 11469.0, "Lat": 43.08162, "Lon": 44.6365}], "Nogliki": [{"Name": "Nogliki", "Country Code": "RU", "Population": 10098.0, "Lat": 51.79917, "Lon": 143.13871}], "Nogoonnuur": [{"Name": "Nogoonnuur", "Country Code": "MN", "Population": 0.0, "Lat": 49.61627, "Lon": 90.24204}], "Nogoya": [{"Name": "Nogoy\u00e1", "Country Code": "AR", "Population": 0.0, "Lat": -32.39375, "Lon": -59.78955}], "Nograd": [{"Name": "N\u00f3gr\u00e1d", "Country Code": "HU", "Population": 1395.0, "Lat": 47.90852, "Lon": 19.04806}], "Nogueira": [{"Name": "Nogueira", "Country Code": "PT", "Population": 4855.0, "Lat": 41.24246, "Lon": -8.58685}], "Nogueira da Regedoura": [{"Name": "Nogueira da Regedoura", "Country Code": "PT", "Population": 5328.0, "Lat": 41.0053, "Lon": -8.59195}], "Nogueira de Ramuin": [{"Name": "Nogueira de Ramu\u00edn", "Country Code": "ES", "Population": 2559.0, "Lat": 42.41712, "Lon": -7.74982}], "Nogueras": [{"Name": "Nogueras", "Country Code": "ES", "Population": 17.0, "Lat": 41.13475, "Lon": -1.06708}], "Nogueruelas": [{"Name": "Nogueruelas", "Country Code": "ES", "Population": 230.0, "Lat": 40.23622, "Lon": -0.63606}], "Noha": [{"Name": "Noha", "Country Code": "IT", "Population": 3396.0, "Lat": 40.15323, "Lon": 18.16569}], "Nohanent": [{"Name": "Nohanent", "Country Code": "FR", "Population": 1868.0, "Lat": 45.80815, "Lon": 3.05507}], "Nohar": [{"Name": "Nohar", "Country Code": "IN", "Population": 46360.0, "Lat": 29.18292, "Lon": 74.77064}], "Nohfelden": [{"Name": "Nohfelden", "Country Code": "DE", "Population": 10687.0, "Lat": 49.58693, "Lon": 7.14283}], "Nohic": [{"Name": "Nohic", "Country Code": "FR", "Population": 1043.0, "Lat": 43.89021, "Lon": 1.43785}], "Nohra": [{"Name": "Nohra", "Country Code": "DE", "Population": 1430.0, "Lat": 50.96136, "Lon": 11.25971}], "Noia": [{"Name": "Noia", "Country Code": "ES", "Population": 0.0, "Lat": 42.78583, "Lon": -8.88734}], "Noicattaro": [{"Name": "Noicattaro", "Country Code": "IT", "Population": 21988.0, "Lat": 41.03449, "Lon": 16.98963}], "Noida": [{"Name": "Noida", "Country Code": "IN", "Population": 293908.0, "Lat": 28.58, "Lon": 77.33}], "Noidans-les-Vesoul": [{"Name": "Noidans-l\u00e8s-Vesoul", "Country Code": "FR", "Population": 2163.0, "Lat": 47.61299, "Lon": 6.12571}], "Nointot": [{"Name": "Nointot", "Country Code": "FR", "Population": 1113.0, "Lat": 49.59822, "Lon": 0.47674}], "Noiretable": [{"Name": "Noir\u00e9table", "Country Code": "FR", "Population": 1747.0, "Lat": 45.81671, "Lon": 3.76247}], "Noirmoutier-en-l'Ile": [{"Name": "Noirmoutier-en-l'\u00cele", "Country Code": "FR", "Population": 4800.0, "Lat": 47.00461, "Lon": -2.24152}], "Noiseau": [{"Name": "Noiseau", "Country Code": "FR", "Population": 4094.0, "Lat": 48.77589, "Lon": 2.54892}], "Noiseux": [{"Name": "Noiseux", "Country Code": "BE", "Population": 1197.0, "Lat": 50.29976, "Lon": 5.37506}], "Noisiel": [{"Name": "Noisiel", "Country Code": "FR", "Population": 15362.0, "Lat": 48.84868, "Lon": 2.62435}], "Noisy-le-Grand": [{"Name": "Noisy-le-Grand", "Country Code": "FR", "Population": 62420.0, "Lat": 48.84979, "Lon": 2.56266}], "Noisy-le-Roi": [{"Name": "Noisy-le-Roi", "Country Code": "FR", "Population": 8218.0, "Lat": 48.84445, "Lon": 2.06345}], "Noisy-le-Sec": [{"Name": "Noisy-le-Sec", "Country Code": "FR", "Population": 38955.0, "Lat": 48.89148, "Lon": 2.46451}], "Noisy-sur-Ecole": [{"Name": "Noisy-sur-\u00c9cole", "Country Code": "FR", "Population": 1886.0, "Lat": 48.36701, "Lon": 2.50804}], "Noizay": [{"Name": "Noizay", "Country Code": "FR", "Population": 1091.0, "Lat": 47.42188, "Lon": 0.89201}], "Noja": [{"Name": "Noja", "Country Code": "ES", "Population": 2255.0, "Lat": 43.48917, "Lon": -3.52306}], "Nojorid": [{"Name": "Nojorid", "Country Code": "RO", "Population": 4484.0, "Lat": 46.98333, "Lon": 21.88333}], "Nokaneng": [{"Name": "Nokaneng", "Country Code": "BW", "Population": 1763.0, "Lat": -19.66667, "Lon": 22.26667}], "Nokesville": [{"Name": "Nokesville", "Country Code": "US", "Population": 1354.0, "Lat": 38.69873, "Lon": -77.57971}], "Nokha": [{"Name": "Nokha", "Country Code": "IN", "Population": 55911.0, "Lat": 27.56155, "Lon": 73.47141}], "Nokia": [{"Name": "Nokia", "Country Code": "FI", "Population": 28676.0, "Lat": 61.46667, "Lon": 23.5}], "Nokomis": [{"Name": "Nokomis", "Country Code": "US", "Population": 3167.0, "Lat": 27.11922, "Lon": -82.44426}, {"Name": "Nokomis", "Country Code": "US", "Population": 2185.0, "Lat": 39.30116, "Lon": -89.28508}], "Nokou": [{"Name": "Nokou", "Country Code": "TD", "Population": 8792.0, "Lat": 14.57901, "Lon": 14.7793}], "Nokoudougou": [{"Name": "Nokoudougou", "Country Code": "CI", "Population": 1350.0, "Lat": 8.36063, "Lon": -5.95147}], "Nola": [{"Name": "Nola", "Country Code": "CF", "Population": 31923.0, "Lat": 3.52494, "Lon": 16.04583}, {"Name": "Nola", "Country Code": "IT", "Population": 24101.0, "Lat": 40.92606, "Lon": 14.52816}], "Nolanville": [{"Name": "Nolanville", "Country Code": "US", "Population": 4774.0, "Lat": 31.07879, "Lon": -97.60557}], "Nolay": [{"Name": "Nolay", "Country Code": "ES", "Population": 88.0, "Lat": 41.52721, "Lon": -2.35061}, {"Name": "Nolay", "Country Code": "FR", "Population": 1482.0, "Lat": 46.95202, "Lon": 4.63405}], "Nolby": [{"Name": "Nolby", "Country Code": "SE", "Population": 1200.0, "Lat": 62.2875, "Lon": 17.36917}], "Nole": [{"Name": "Nole", "Country Code": "IT", "Population": 5298.0, "Lat": 45.24159, "Lon": 7.56983}], "Nolensville": [{"Name": "Nolensville", "Country Code": "US", "Population": 6939.0, "Lat": 35.95229, "Lon": -86.66944}], "Noli": [{"Name": "Noli", "Country Code": "IT", "Population": 1673.0, "Lat": 44.20608, "Lon": 8.41458}], "Noling": [{"Name": "Noling", "Country Code": "PH", "Population": 2989.0, "Lat": 6.65984, "Lon": 124.09981}], "Nolinsk": [{"Name": "Nolinsk", "Country Code": "RU", "Population": 10282.0, "Lat": 57.5593, "Lon": 49.93332}], "Nollamara": [{"Name": "Nollamara", "Country Code": "AU", "Population": 12779.0, "Lat": -31.88016, "Lon": 115.84543}], "Nolo": [{"Name": "Nolo", "Country Code": "MX", "Population": 1493.0, "Lat": 21.00914, "Lon": -89.42293}], "Nolvik": [{"Name": "Nolvik", "Country Code": "SE", "Population": 1373.0, "Lat": 57.775, "Lon": 11.83333}], "Nomaglio": [{"Name": "Nomaglio", "Country Code": "IT", "Population": 290.0, "Lat": 45.53616, "Lon": 7.86032}], "Nomain": [{"Name": "Nomain", "Country Code": "FR", "Population": 2446.0, "Lat": 50.49857, "Lon": 3.24991}], "Nomathamasanqa": [{"Name": "Nomathamasanqa", "Country Code": "ZA", "Population": 12815.0, "Lat": -33.52276, "Lon": 25.71044}], "Nombela": [{"Name": "Nombela", "Country Code": "ES", "Population": 998.0, "Lat": 40.1553, "Lon": -4.50223}], "Nombre de Dios": [{"Name": "Nombre de Dios", "Country Code": "MX", "Population": 5302.0, "Lat": 23.84891, "Lon": -104.24712}, {"Name": "Nombre de Dios", "Country Code": "PA", "Population": 872.0, "Lat": 9.58154, "Lon": -79.46846}], "Nombre de Jesus": [{"Name": "Nombre de Jes\u00fas", "Country Code": "HN", "Population": 1250.0, "Lat": 15.35, "Lon": -86.68333}], "Nombrevilla": [{"Name": "Nombrevilla", "Country Code": "ES", "Population": 47.0, "Lat": 41.1073, "Lon": -1.35904}], "Nome": [{"Name": "Nome", "Country Code": "AU", "Population": 1048.0, "Lat": -19.36245, "Lon": 146.94672}, {"Name": "Nome", "Country Code": "US", "Population": 3806.0, "Lat": 64.50111, "Lon": -165.40639}], "Nomeny": [{"Name": "Nomeny", "Country Code": "FR", "Population": 1117.0, "Lat": 48.88977, "Lon": 6.22635}], "Nomexy": [{"Name": "Nomexy", "Country Code": "FR", "Population": 2310.0, "Lat": 48.30741, "Lon": 6.38572}], "Nomgon": [{"Name": "Nomgon", "Country Code": "MN", "Population": 0.0, "Lat": 49.2001, "Lon": 105.66582}], "Nomi": [{"Name": "Nomi", "Country Code": "IT", "Population": 1380.0, "Lat": 45.92923, "Lon": 11.07198},