{"Saulge": [{"Name": "Saulg\u00e9", "Country Code": "FR", "Population": 1075.0, "Lat": 46.37759, "Lon": 0.87613}], "Saulgrub": [{"Name": "Saulgrub", "Country Code": "DE", "Population": 1664.0, "Lat": 47.66643, "Lon": 11.02469}], "Saulia": [{"Name": "\u015e\u0103ulia", "Country Code": "RO", "Population": 2083.0, "Lat": 46.63333, "Lon": 24.21667}], "Saulieu": [{"Name": "Saulieu", "Country Code": "FR", "Population": 3035.0, "Lat": 47.28023, "Lon": 4.22857}], "Saulkrasti": [{"Name": "Saulkrasti", "Country Code": "LV", "Population": 3184.0, "Lat": 57.26224, "Lon": 24.41471}], "Saulnes": [{"Name": "Saulnes", "Country Code": "FR", "Population": 2529.0, "Lat": 49.53189, "Lon": 5.8213}], "Saulny": [{"Name": "Saulny", "Country Code": "FR", "Population": 1422.0, "Lat": 49.1577, "Lon": 6.10929}], "Sault": [{"Name": "Sault", "Country Code": "FR", "Population": 1254.0, "Lat": 44.08968, "Lon": 5.40836}], "Sault Ste. Marie": [{"Name": "Sault Ste. Marie", "Country Code": "CA", "Population": 72051.0, "Lat": 46.51677, "Lon": -84.33325}, {"Name": "Sault Ste. Marie", "Country Code": "US", "Population": 13827.0, "Lat": 46.4953, "Lon": -84.34532}], "Sault-Brenaz": [{"Name": "Sault-Br\u00e9naz", "Country Code": "FR", "Population": 1058.0, "Lat": 45.86132, "Lon": 5.39954}], "Sault-les-Rethel": [{"Name": "Sault-l\u00e8s-Rethel", "Country Code": "FR", "Population": 1823.0, "Lat": 49.4998, "Lon": 4.36227}], "Saultain": [{"Name": "Saultain", "Country Code": "FR", "Population": 2129.0, "Lat": 50.33676, "Lon": 3.57723}], "Saulx-les-Chartreux": [{"Name": "Saulx-les-Chartreux", "Country Code": "FR", "Population": 5241.0, "Lat": 48.69062, "Lon": 2.26727}], "Saulxures-les-Nancy": [{"Name": "Saulxures-l\u00e8s-Nancy", "Country Code": "FR", "Population": 3981.0, "Lat": 48.68872, "Lon": 6.24353}], "Saulxures-sur-Moselotte": [{"Name": "Saulxures-sur-Moselotte", "Country Code": "FR", "Population": 3294.0, "Lat": 47.94894, "Lon": 6.7704}], "Saulzoir": [{"Name": "Saulzoir", "Country Code": "FR", "Population": 1717.0, "Lat": 50.24057, "Lon": 3.4443}], "Saumalkol'": [{"Name": "Saumalkol\u2019", "Country Code": "KZ", "Population": 2074.0, "Lat": 53.2927, "Lon": 68.105}], "Saumur": [{"Name": "Saumur", "Country Code": "FR", "Population": 33229.0, "Lat": 47.25931, "Lon": -0.07808}], "Saundatti": [{"Name": "Saundatti", "Country Code": "IN", "Population": 40091.0, "Lat": 15.76615, "Lon": 75.11778}], "Saundersfoot": [{"Name": "Saundersfoot", "Country Code": "GB", "Population": 3361.0, "Lat": 51.70945, "Lon": -4.70215}], "Sauquillo de Cabezas": [{"Name": "Sauquillo de Cabezas", "Country Code": "ES", "Population": 226.0, "Lat": 41.19422, "Lon": -4.06884}], "Saurama": [{"Name": "Saurama", "Country Code": "PE", "Population": 326.0, "Lat": -13.69514, "Lon": -73.76249}], "Sauri": [{"Name": "Sauri", "Country Code": "NG", "Population": 13445.0, "Lat": 11.72655, "Lon": 6.78374}], "Saurikh": [{"Name": "Saurikh", "Country Code": "IN", "Population": 12055.0, "Lat": 27.03051, "Lon": 79.48813}], "Saurimo": [{"Name": "Saurimo", "Country Code": "AO", "Population": 393000.0, "Lat": -9.66078, "Lon": 20.39155}], "Sauris di Sotto": [{"Name": "Sauris di Sotto", "Country Code": "IT", "Population": 161.0, "Lat": 46.46624, "Lon": 12.70852}], "Sausa": [{"Name": "Sausa", "Country Code": "PE", "Population": 0.0, "Lat": -11.79319, "Lon": -75.48414}], "Sausalito": [{"Name": "Sausalito", "Country Code": "US", "Population": 7156.0, "Lat": 37.85909, "Lon": -122.48525}], "Sausapor": [{"Name": "Sausapor", "Country Code": "ID", "Population": 0.0, "Lat": -0.49985, "Lon": 132.08588}], "Sausar": [{"Name": "Sausar", "Country Code": "IN", "Population": 26704.0, "Lat": 21.65576, "Lon": 78.79669}], "Sausheim": [{"Name": "Sausheim", "Country Code": "FR", "Population": 5744.0, "Lat": 47.78711, "Lon": 7.37267}], "Saussan": [{"Name": "Saussan", "Country Code": "FR", "Population": 1622.0, "Lat": 43.5722, "Lon": 3.775}], "Saussay": [{"Name": "Saussay", "Country Code": "FR", "Population": 1013.0, "Lat": 48.85571, "Lon": 1.40889}], "Sausset-les-Pins": [{"Name": "Sausset-les-Pins", "Country Code": "FR", "Population": 7619.0, "Lat": 43.33136, "Lon": 5.10431}], "Sauta": [{"Name": "Sauta", "Country Code": "MX", "Population": 2220.0, "Lat": 21.72116, "Lon": -105.14249}], "Sautens": [{"Name": "Sautens", "Country Code": "AT", "Population": 1601.0, "Lat": 47.20775, "Lon": 10.86452}], "Sauteurs": [{"Name": "Sauteurs", "Country Code": "GD", "Population": 1320.0, "Lat": 12.21833, "Lon": -61.63917}], "Sautron": [{"Name": "Sautron", "Country Code": "FR", "Population": 7405.0, "Lat": 47.26345, "Lon": -1.67222}], "Sauvagnon": [{"Name": "Sauvagnon", "Country Code": "FR", "Population": 2531.0, "Lat": 43.40151, "Lon": -0.38797}], "Sauve": [{"Name": "Sauve", "Country Code": "FR", "Population": 1841.0, "Lat": 43.94208, "Lon": 3.94935}], "Sauveniere": [{"Name": "Sauveni\u00e8re", "Country Code": "BE", "Population": 5029.0, "Lat": 50.58157, "Lon": 4.72466}], "Sauverny": [{"Name": "Sauverny", "Country Code": "FR", "Population": 1105.0, "Lat": 46.31514, "Lon": 6.11827}], "Sauveterre": [{"Name": "Sauveterre", "Country Code": "FR", "Population": 1841.0, "Lat": 44.02282, "Lon": 4.79347}], "Sauveterre-de-Bearn": [{"Name": "Sauveterre-de-B\u00e9arn", "Country Code": "FR", "Population": 1547.0, "Lat": 43.3993, "Lon": -0.94011}], "Sauveterre-de-Guyenne": [{"Name": "Sauveterre-de-Guyenne", "Country Code": "FR", "Population": 1722.0, "Lat": 44.69289, "Lon": -0.08626}], "Sauvian": [{"Name": "Sauvian", "Country Code": "FR", "Population": 4057.0, "Lat": 43.29308, "Lon": 3.2576}], "Sauviat-sur-Vige": [{"Name": "Sauviat-sur-Vige", "Country Code": "FR", "Population": 1084.0, "Lat": 45.90652, "Lon": 1.60719}], "Sauvigny-les-Bois": [{"Name": "Sauvigny-les-Bois", "Country Code": "FR", "Population": 1527.0, "Lat": 46.96676, "Lon": 3.2719}], "Sauvo": [{"Name": "Sauvo", "Country Code": "FI", "Population": 2941.0, "Lat": 60.34306, "Lon": 22.69642}], "Sauxillanges": [{"Name": "Sauxillanges", "Country Code": "FR", "Population": 1116.0, "Lat": 45.55109, "Lon": 3.37147}], "Sauz de Calera": [{"Name": "Sauz de Calera", "Country Code": "MX", "Population": 1166.0, "Lat": 22.86729, "Lon": -102.18755}], "Sauzal": [{"Name": "Sauzal", "Country Code": "ES", "Population": 8172.0, "Lat": 28.46667, "Lon": -16.41667}], "Sauze d'Oulx": [{"Name": "Sauze d'Oulx", "Country Code": "IT", "Population": 1096.0, "Lat": 45.02659, "Lon": 6.86074}], "Sauze di Cesana": [{"Name": "Sauze di Cesana", "Country Code": "IT", "Population": 65.0, "Lat": 44.94058, "Lon": 6.85988}], "Sauze-Vaussais": [{"Name": "Sauz\u00e9-Vaussais", "Country Code": "FR", "Population": 1640.0, "Lat": 46.13383, "Lon": 0.10691}], "Sauzet": [{"Name": "Sauzet", "Country Code": "FR", "Population": 1819.0, "Lat": 44.60397, "Lon": 4.82091}], "Sava": [{"Name": "Sava", "Country Code": "IT", "Population": 15898.0, "Lat": 40.40203, "Lon": 17.55267}], "Savadisla": [{"Name": "S\u0103v\u0103disla", "Country Code": "RO", "Population": 4433.0, "Lat": 46.68333, "Lon": 23.45}], "Savage": [{"Name": "Savage", "Country Code": "US", "Population": 30391.0, "Lat": 44.77913, "Lon": -93.33634}, {"Name": "Savage", "Country Code": "US", "Population": 7054.0, "Lat": 39.13789, "Lon": -76.82386}], "Savalia": [{"Name": "Sav\u00e1lia", "Country Code": "GR", "Population": 1339.0, "Lat": 37.82158, "Lon": 21.29425}], "Savalou": [{"Name": "Savalou", "Country Code": "BJ", "Population": 38162.0, "Lat": 7.92807, "Lon": 1.97558}], "Savana": [{"Name": "Savana", "Country Code": "MG", "Population": 4000.0, "Lat": -22.38333, "Lon": 47.9}], "Savaneta": [{"Name": "Savaneta", "Country Code": "AW", "Population": 11500.0, "Lat": 12.45026, "Lon": -69.93811}], "Savanna": [{"Name": "Savanna", "Country Code": "US", "Population": 2880.0, "Lat": 42.09447, "Lon": -90.15679}], "Savanna-la-Mar": [{"Name": "Savanna-la-Mar", "Country Code": "JM", "Population": 16553.0, "Lat": 18.21895, "Lon": -78.1332}], "Savannah": [{"Name": "Savannah", "Country Code": "US", "Population": 7027.0, "Lat": 35.2248, "Lon": -88.2492}, {"Name": "Savannah", "Country Code": "US", "Population": 147780.0, "Lat": 32.08354, "Lon": -81.09983}, {"Name": "Savannah", "Country Code": "US", "Population": 5108.0, "Lat": 39.94166, "Lon": -94.83025}, {"Name": "Savannah", "Country Code": "US", "Population": 3318.0, "Lat": 33.22603, "Lon": -96.90786}], "Savannah Bight": [{"Name": "Savannah Bight", "Country Code": "HN", "Population": 1031.0, "Lat": 16.45, "Lon": -85.85}], "Savannakhet": [{"Name": "Savannakhet", "Country Code": "LA", "Population": 125760.0, "Lat": 16.5703, "Lon": 104.7622}], "Savantvadi": [{"Name": "S\u0101vantv\u0101di", "Country Code": "IN", "Population": 23384.0, "Lat": 15.90413, "Lon": 73.82191}], "Savanur": [{"Name": "Savan\u016br", "Country Code": "IN", "Population": 37819.0, "Lat": 14.97335, "Lon": 75.33724}], "Savarkundla": [{"Name": "Savarkundla", "Country Code": "IN", "Population": 73695.0, "Lat": 21.33726, "Lon": 71.3035}], "Savarna-Conventello": [{"Name": "Savarna-Conventello", "Country Code": "IT", "Population": 1850.0, "Lat": 44.50717, "Lon": 12.10621}], "Savarsin": [{"Name": "S\u0103v\u00e2r\u015fin", "Country Code": "RO", "Population": 3239.0, "Lat": 46.01667, "Lon": 22.23333}], "Savasleyka": [{"Name": "Savasleyka", "Country Code": "RU", "Population": 3261.0, "Lat": 55.4606, "Lon": 42.3207}], "Savasse": [{"Name": "Savasse", "Country Code": "FR", "Population": 1180.0, "Lat": 44.60428, "Lon": 4.77653}], "Savastepe": [{"Name": "Sava\u015ftepe", "Country Code": "TR", "Population": 10324.0, "Lat": 39.38319, "Lon": 27.65612}], "Savave Village": [{"Name": "Savave Village", "Country Code": "TV", "Population": 586.0, "Lat": -8.02731, "Lon": 178.31351}], "Savcili": [{"Name": "Savc\u0131l\u0131", "Country Code": "TR", "Population": 0.0, "Lat": 39.22889, "Lon": 33.68139}], "Savda": [{"Name": "S\u0101vda", "Country Code": "IN", "Population": 19903.0, "Lat": 21.15054, "Lon": 75.88938}], "Save": [{"Name": "Sav\u00e9", "Country Code": "BJ", "Population": 31444.0, "Lat": 8.03424, "Lon": 2.4866}], "Saveh": [{"Name": "S\u0101veh", "Country Code": "IR", "Population": 175533.0, "Lat": 35.0213, "Lon": 50.3566}], "Savelli": [{"Name": "Savelli", "Country Code": "IT", "Population": 1321.0, "Lat": 39.31278, "Lon": 16.77642}], "Savelugu": [{"Name": "Savelugu", "Country Code": "GH", "Population": 40654.0, "Lat": 9.62441, "Lon": -0.8253}], "Savenay": [{"Name": "Savenay", "Country Code": "FR", "Population": 6770.0, "Lat": 47.36106, "Lon": -1.94206}], "Saveni": [{"Name": "S\u0103veni", "Country Code": "RO", "Population": 8126.0, "Lat": 47.95, "Lon": 26.86667}, {"Name": "S\u0103veni", "Country Code": "RO", "Population": 5579.0, "Lat": 44.6, "Lon": 27.65}], "Savennieres": [{"Name": "Savenni\u00e8res", "Country Code": "FR", "Population": 1224.0, "Lat": 47.38225, "Lon": -0.65708}], "Saverdun": [{"Name": "Saverdun", "Country Code": "FR", "Population": 3901.0, "Lat": 43.23458, "Lon": 1.57443}], "Saverne": [{"Name": "Saverne", "Country Code": "FR", "Population": 12439.0, "Lat": 48.74164, "Lon": 7.36221}], "Saviano": [{"Name": "Saviano", "Country Code": "IT", "Population": 13110.0, "Lat": 40.90507, "Lon": 14.50498}], "Saviese": [{"Name": "Savi\u00e8se", "Country Code": "CH", "Population": 5575.0, "Lat": 46.25115, "Lon": 7.34558}], "Savigliano": [{"Name": "Savigliano", "Country Code": "IT", "Population": 16800.0, "Lat": 44.64808, "Lon": 7.65677}], "Savignano Irpino": [{"Name": "Savignano Irpino", "Country Code": "IT", "Population": 829.0, "Lat": 41.22698, "Lon": 15.17933}], "Savignano sul Panaro": [{"Name": "Savignano sul Panaro", "Country Code": "IT", "Population": 2658.0, "Lat": 44.48036, "Lon": 11.0351}], "Savignano sul Rubicone": [{"Name": "Savignano sul Rubicone", "Country Code": "IT", "Population": 14715.0, "Lat": 44.09009, "Lon": 12.39935}], "Savigne": [{"Name": "Savign\u00e9", "Country Code": "FR", "Population": 1449.0, "Lat": 46.15911, "Lon": 0.32094}], "Savigne-sur-Lathan": [{"Name": "Savign\u00e9-sur-Lathan", "Country Code": "FR", "Population": 1100.0, "Lat": 47.44483, "Lon": 0.32093}], "Savigneux": [{"Name": "Savigneux", "Country Code": "FR", "Population": 2623.0, "Lat": 45.6167, "Lon": 4.0833}], "Savigno": [{"Name": "Savigno", "Country Code": "IT", "Population": 1184.0, "Lat": 44.39186, "Lon": 11.07481}], "Savignone": [{"Name": "Savignone", "Country Code": "IT", "Population": 1234.0, "Lat": 44.56435, "Lon": 8.98726}], "Savigny": [{"Name": "Savigny", "Country Code": "CH", "Population": 3440.0, "Lat": 46.53844, "Lon": 6.73222}, {"Name": "Savigny", "Country Code": "FR", "Population": 2025.0, "Lat": 45.81595, "Lon": 4.5741}], "Savigny-Levescault": [{"Name": "Savigny-L\u00e9vescault", "Country Code": "FR", "Population": 1007.0, "Lat": 46.53575, "Lon": 0.47701}], "Savigny-en-Sancerre": [{"Name": "Savigny-en-Sancerre", "Country Code": "FR", "Population": 1074.0, "Lat": 47.44142, "Lon": 2.80953}], "Savigny-en-Veron": [{"Name": "Savigny-en-V\u00e9ron", "Country Code": "FR", "Population": 1272.0, "Lat": 47.20071, "Lon": 0.14457}], "Savigny-le-Temple": [{"Name": "Savigny-le-Temple", "Country Code": "FR", "Population": 25925.0, "Lat": 48.57409, "Lon": 2.58287}], "Savigny-les-Beaune": [{"Name": "Savigny-l\u00e8s-Beaune", "Country Code": "FR", "Population": 1402.0, "Lat": 47.06357, "Lon": 4.81821}], "Savigny-sur-Braye": [{"Name": "Savigny-sur-Braye", "Country Code": "FR", "Population": 2285.0, "Lat": 47.87923, "Lon": 0.80981}], "Savigny-sur-Orge": [{"Name": "Savigny-sur-Orge", "Country Code": "FR", "Population": 39698.0, "Lat": 48.67677, "Lon": 2.34835}], "Savinesti": [{"Name": "S\u0103vine\u015fti", "Country Code": "RO", "Population": 6012.0, "Lat": 46.85, "Lon": 26.46667}], "Savinka": [{"Name": "Savinka", "Country Code": "RU", "Population": 3449.0, "Lat": 50.07848, "Lon": 47.09936}], "Savino": [{"Name": "Savino", "Country Code": "RU", "Population": 6133.0, "Lat": 56.59298, "Lon": 41.21314}], "Savinskaya": [{"Name": "Savinskaya", "Country Code": "RU", "Population": 1587.0, "Lat": 55.37013, "Lon": 39.99233}], "Savio": [{"Name": "Savio", "Country Code": "IT", "Population": 1487.0, "Lat": 44.31139, "Lon": 12.29472}], "Saviore": [{"Name": "Saviore", "Country Code": "IT", "Population": 339.0, "Lat": 46.08049, "Lon": 10.39823}], "Savitaipale": [{"Name": "Savitaipale", "Country Code": "FI", "Population": 4195.0, "Lat": 61.2, "Lon": 27.7}], "Savnik": [{"Name": "\u0160avnik", "Country Code": "ME", "Population": 633.0, "Lat": 42.95639, "Lon": 19.09667}], "Savoca": [{"Name": "Savoca", "Country Code": "IT", "Population": 156.0, "Lat": 37.95326, "Lon": 15.34009}], "Savogna": [{"Name": "Savogna", "Country Code": "IT", "Population": 198.0, "Lat": 46.15846, "Lon": 13.53089}], "Savogna d'Isonzo": [{"Name": "Savogna d'Isonzo", "Country Code": "IT", "Population": 793.0, "Lat": 45.90894, "Lon": 13.57936}], "Savoia di Lucania": [{"Name": "Savoia di Lucania", "Country Code": "IT", "Population": 537.0, "Lat": 40.56949, "Lon": 15.55132}], "Savona": [{"Name": "Savona", "Country Code": "IT", "Population": 61345.0, "Lat": 44.30905, "Lon": 8.47715}], "Savonera": [{"Name": "Savonera", "Country Code": "IT", "Population": 1899.0, "Lat": 45.11368, "Lon": 7.61506}], "Savonlinna": [{"Name": "Savonlinna", "Country Code": "FI", "Population": 27353.0, "Lat": 61.8699, "Lon": 28.87999}], "Savonnieres": [{"Name": "Savonni\u00e8res", "Country Code": "FR", "Population": 2686.0, "Lat": 47.34769, "Lon": 0.54961}], "Savonranta": [{"Name": "Savonranta", "Country Code": "FI", "Population": 1255.0, "Lat": 62.18333, "Lon": 29.2}], "Savosa": [{"Name": "Savosa", "Country Code": "CH", "Population": 0.0, "Lat": 46.01902, "Lon": 8.94236}], "Savoy": [{"Name": "Savoy", "Country Code": "US", "Population": 8133.0, "Lat": 40.05475, "Lon": -88.25172}], "Savran": [{"Name": "Savran", "Country Code": "UA", "Population": 6264.0, "Lat": 48.1293, "Lon": 30.0833}], "Savsat": [{"Name": "\u015eav\u015fat", "Country Code": "TR", "Population": 8151.0, "Lat": 41.25336, "Lon": 42.35531}], "Savska Ves": [{"Name": "Savska Ves", "Country Code": "HR", "Population": 1165.0, "Lat": 46.372, "Lon": 16.42715}], "Savski Venac": [{"Name": "Savski Venac", "Country Code": "RS", "Population": 0.0, "Lat": 44.77917, "Lon": 20.45389}], "Savukoski": [{"Name": "Savukoski", "Country Code": "FI", "Population": 1357.0, "Lat": 67.2925, "Lon": 28.15806}], "Savur": [{"Name": "Savur", "Country Code": "TR", "Population": 8658.0, "Lat": 37.53544, "Lon": 40.87876}], "Savvinskaya Sloboda": [{"Name": "Savvinskaya Sloboda", "Country Code": "RU", "Population": 1239.0, "Lat": 55.72343, "Lon": 36.80347}], "Savy-Berlette": [{"Name": "Savy-Berlette", "Country Code": "FR", "Population": 1047.0, "Lat": 50.35249, "Lon": 2.56456}], "Savyntsi": [{"Name": "Savyntsi", "Country Code": "UA", "Population": 5326.0, "Lat": 49.40505, "Lon": 37.05517}], "Savyon": [{"Name": "Savyon", "Country Code": "IL", "Population": 4036.0, "Lat": 32.04966, "Lon": 34.8777}], "Saw Creek": [{"Name": "Saw Creek", "Country Code": "US", "Population": 4016.0, "Lat": 41.11259, "Lon": -75.05073}], "Sawa Sawa": [{"Name": "Sawa Sawa", "Country Code": "KE", "Population": 12975.0, "Lat": -4.47166, "Lon": 39.48463}], "Sawaeng Ha": [{"Name": "Sawaeng Ha", "Country Code": "TH", "Population": 0.0, "Lat": 14.74642, "Lon": 100.32942}], "Sawaengha": [{"Name": "Sawaengha", "Country Code": "TH", "Population": 0.0, "Lat": 14.75186, "Lon": 100.32481}], "Sawai Madhopur": [{"Name": "Saw\u0101i M\u0101dhopur", "Country Code": "IN", "Population": 108612.0, "Lat": 26.02301, "Lon": 76.34408}], "Sawakin": [{"Name": "Saw\u0101kin", "Country Code": "SD", "Population": 28570.0, "Lat": 19.1059, "Lon": 37.3321}], "Sawang": [{"Name": "Sawang", "Country Code": "ID", "Population": 0.0, "Lat": 3.40342, "Lon": 97.1011}, {"Name": "Sawang", "Country Code": "ID", "Population": 0.0, "Lat": 0.7368, "Lon": 103.35635}], "Sawang Arom": [{"Name": "Sawang Arom", "Country Code": "TH", "Population": 0.0, "Lat": 15.58394, "Lon": 99.86089}], "Sawang Daen Din": [{"Name": "Sawang Daen Din", "Country Code": "TH", "Population": 16825.0, "Lat": 17.47531, "Lon": 103.45753}], "Sawang Wirawong": [{"Name": "Sawang Wirawong", "Country Code": "TH", "Population": 7773.0, "Lat": 15.24158, "Lon": 105.0922}], "Sawangan": [{"Name": "Sawangan", "Country Code": "ID", "Population": 165631.0, "Lat": -6.40278, "Lon": 106.77444}], "Sawankhalok": [{"Name": "Sawankhalok", "Country Code": "TH", "Population": 19805.0, "Lat": 17.31597, "Lon": 99.83186}], "Sawara": [{"Name": "Sawara", "Country Code": "JP", "Population": 47199.0, "Lat": 35.88333, "Lon": 140.5}], "Sawbridgeworth": [{"Name": "Sawbridgeworth", "Country Code": "GB", "Population": 8400.0, "Lat": 51.81667, "Lon": 0.15}], "Sawgrass": [{"Name": "Sawgrass", "Country Code": "US", "Population": 4880.0, "Lat": 30.19274, "Lon": -81.37064}], "Sawi": [{"Name": "Sawi", "Country Code": "TH", "Population": 0.0, "Lat": 10.23668, "Lon": 99.10938}], "Sawin": [{"Name": "Sawin", "Country Code": "PL", "Population": 2181.0, "Lat": 51.27443, "Lon": 23.43375}], "Sawkta": [{"Name": "Sawkta", "Country Code": "SL", "Population": 3452.0, "Lat": 8.6323, "Lon": -13.2025}], "Sawmills": [{"Name": "Sawmills", "Country Code": "US", "Population": 5104.0, "Lat": 35.82485, "Lon": -81.47454}], "Sawoi": [{"Name": "Sawoi", "Country Code": "ID", "Population": 0.0, "Lat": -2.6246, "Lon": 140.3356}], "Sawston": [{"Name": "Sawston", "Country Code": "GB", "Population": 7275.0, "Lat": 52.12089, "Lon": 0.16943}], "Sawtell": [{"Name": "Sawtell", "Country Code": "AU", "Population": 3799.0, "Lat": -30.36459, "Lon": 153.10141}], "Sawtry": [{"Name": "Sawtry", "Country Code": "GB", "Population": 5252.0, "Lat": 52.43984, "Lon": -0.28422}], "Sawyers Bay": [{"Name": "Sawyers Bay", "Country Code": "NZ", "Population": 1095.0, "Lat": -45.81838, "Lon": 170.6001}], "Sawyerwood": [{"Name": "Sawyerwood", "Country Code": "US", "Population": 1540.0, "Lat": 41.03783, "Lon": -81.44095}], "Sax": [{"Name": "Sax", "Country Code": "ES", "Population": 10054.0, "Lat": 38.53729, "Lon": -0.81779}], "Saxapahaw": [{"Name": "Saxapahaw", "Country Code": "US", "Population": 1648.0, "Lat": 35.94736, "Lon": -79.32196}], "Saxilby": [{"Name": "Saxilby", "Country Code": "GB", "Population": 3992.0, "Lat": 53.26746, "Lon": -0.66253}], "Saxmundham": [{"Name": "Saxmundham", "Country Code": "GB", "Population": 4225.0, "Lat": 52.21497, "Lon": 1.48805}], "Saxon": [{"Name": "Saxon", "Country Code": "CH", "Population": 3477.0, "Lat": 46.14937, "Lon": 7.17514}, {"Name": "Saxon", "Country Code": "US", "Population": 3424.0, "Lat": 34.96123, "Lon": -81.96733}], "Saxonburg": [{"Name": "Saxonburg", "Country Code": "US", "Population": 1491.0, "Lat": 40.75395, "Lon": -79.81005}], "Saxtorpsskogen": [{"Name": "Saxtorpsskogen", "Country Code": "SE", "Population": 1174.0, "Lat": 55.83208, "Lon": 12.94429}], "Say": [{"Name": "Say", "Country Code": "NE", "Population": 18333.0, "Lat": 13.1007, "Lon": 2.3689}], "Say-Utes": [{"Name": "Say-Utes", "Country Code": "KZ", "Population": 1571.0, "Lat": 44.32787, "Lon": 53.53216}], "Sayad": [{"Name": "\u015eay\u0101d", "Country Code": "AF", "Population": 0.0, "Lat": 36.13529, "Lon": 65.8297}], "Sayagaz": [{"Name": "S\u0101yagaz", "Country Code": "AF", "Population": 0.0, "Lat": 32.56521, "Lon": 67.03324}], "Sayalkudi": [{"Name": "S\u0101yalkudi", "Country Code": "IN", "Population": 12415.0, "Lat": 9.16925, "Lon": 78.44702}], "Sayalonga": [{"Name": "Sayalonga", "Country Code": "ES", "Population": 1366.0, "Lat": 36.79819, "Lon": -4.01325}], "Sayama": [{"Name": "Sayama", "Country Code": "JP", "Population": 160843.0, "Lat": 35.85295, "Lon": 139.41212}], "Sayan": [{"Name": "Say\u00e1n", "Country Code": "PE", "Population": 6196.0, "Lat": -11.13333, "Lon": -77.1946}], "Sayani": [{"Name": "Sayani", "Country Code": "BD", "Population": 1500.0, "Lat": 23.79119, "Lon": 90.16972}], "Sayanogorsk": [{"Name": "Sayanogorsk", "Country Code": "RU", "Population": 49939.0, "Lat": 53.0875, "Lon": 91.39972}], "Sayansk": [{"Name": "Sayansk", "Country Code": "RU", "Population": 3962.0, "Lat": 54.15, "Lon": 91.885}, {"Name": "Sayansk", "Country Code": "RU", "Population": 43949.0, "Lat": 54.1088, "Lon": 102.1648}], "Sayapullo": [{"Name": "Sayapullo", "Country Code": "PE", "Population": 764.0, "Lat": -7.59646, "Lon": -78.46816}], "Sayaq": [{"Name": "Sayaq", "Country Code": "KZ", "Population": 4543.0, "Lat": 47.0, "Lon": 77.26667}], "Sayat": [{"Name": "Sayat", "Country Code": "FR", "Population": 2359.0, "Lat": 45.8264, "Lon": 3.0525}, {"Name": "Sa\u00fdat", "Country Code": "TM", "Population": 17762.0, "Lat": 38.78393, "Lon": 63.88035}], "Sayat'-Nova": [{"Name": "Sayat\u2019-Nova", "Country Code": "AM", "Population": 1726.0, "Lat": 40.07507, "Lon": 44.40008}], "Sayaton": [{"Name": "Sayat\u00f3n", "Country Code": "ES", "Population": 131.0, "Lat": 40.37635, "Lon": -2.85253}], "Sayaxche": [{"Name": "Sayaxch\u00e9", "Country Code": "GT", "Population": 9100.0, "Lat": 16.52446, "Lon": -90.18801}], "Saybag": [{"Name": "Saybag", "Country Code": "CN", "Population": 32355.0, "Lat": 37.14972, "Lon": 79.65833}], "Saybrook Manor": [{"Name": "Saybrook Manor", "Country Code": "US", "Population": 1052.0, "Lat": 41.28538, "Lon": -72.39897}], "Sayda": [{"Name": "Sayda", "Country Code": "DE", "Population": 2235.0, "Lat": 50.71123, "Lon": 13.42172}, {"Name": "\u015eayd\u0101", "Country Code": "PS", "Population": 2988.0, "Lat": 32.38489, "Lon": 35.11856}], "Saydnaya": [{"Name": "\u015eaydn\u0101y\u0101", "Country Code": "SY", "Population": 0.0, "Lat": 33.69473, "Lon": 36.37146}], "Sayeta": [{"Name": "Say\u00e9ta", "Country Code": "CI", "Population": 1733.0, "Lat": 6.77722, "Lon": -6.07189}], "Sayhat": [{"Name": "Sayh\u0101t", "Country Code": "SA", "Population": 66702.0, "Lat": 26.48345, "Lon": 50.04849}], "Sayhut": [{"Name": "Say\u1e29\u016bt", "Country Code": "YE", "Population": 0.0, "Lat": 15.21056, "Lon": 51.24556}], "Saykhin": [{"Name": "Saykhin", "Country Code": "KZ", "Population": 4825.0, "Lat": 48.85611, "Lon": 46.83361}, {"Name": "Saykhin", "Country Code": "KZ", "Population": 0.0, "Lat": 48.81441, "Lon": 46.76946}], "Saykro": [{"Name": "Saykro", "Country Code": "CI", "Population": 6198.0, "Lat": 5.2736, "Lon": -2.78369}], "Sayla": [{"Name": "S\u0101yla", "Country Code": "IN", "Population": 15376.0, "Lat": 22.54925, "Lon": 71.48324}], "Saylac": [{"Name": "Saylac", "Country Code": "SO", "Population": 6040.0, "Lat": 11.3539, "Lon": 43.4731}], "Saylla": [{"Name": "Saylla", "Country Code": "PE", "Population": 0.0, "Lat": -13.56139, "Lon": -71.84889}], "Saylorsburg": [{"Name": "Saylorsburg", "Country Code": "US", "Population": 1126.0, "Lat": 40.89565, "Lon": -75.32352}], "Saylorville": [{"Name": "Saylorville", "Country Code": "US", "Population": 3301.0, "Lat": 41.6786, "Lon": -93.62966}], "Saymayl": [{"Name": "Saymayl", "Country Code": "IQ", "Population": 0.0, "Lat": 36.85823, "Lon": 42.8482}], "Sayn-Ust": [{"Name": "Sayn-Ust", "Country Code": "MN", "Population": 0.0, "Lat": 47.35732, "Lon": 94.52448}], "Saynshand": [{"Name": "Saynshand", "Country Code": "MN", "Population": 19891.0, "Lat": 44.88239, "Lon": 110.11631}, {"Name": "Saynshand", "Country Code": "MN", "Population": 0.0, "Lat": 43.61667, "Lon": 102.53333}], "Sayram": [{"Name": "Sayram", "Country Code": "KZ", "Population": 0.0, "Lat": 42.3025, "Lon": 69.75758}], "Sayre": [{"Name": "Sayre", "Country Code": "US", "Population": 4773.0, "Lat": 35.29116, "Lon": -99.6401}, {"Name": "Sayre", "Country Code": "US", "Population": 5424.0, "Lat": 41.97896, "Lon": -76.5155}], "Sayreville": [{"Name": "Sayreville", "Country Code": "US", "Population": 44920.0, "Lat": 40.45927, "Lon": -74.36098}], "Sayreville Junction": [{"Name": "Sayreville Junction", "Country Code": "US", "Population": 42890.0, "Lat": 40.46538, "Lon": -74.33043}], "Saysain": [{"Name": "Saysain", "Country Code": "PH", "Population": 2683.0, "Lat": 14.56111, "Lon": 120.3925}], "Sayula": [{"Name": "Sayula", "Country Code": "MX", "Population": 26789.0, "Lat": 19.88225, "Lon": -103.60027}], "Sayula de Aleman": [{"Name": "Sayula de Alem\u00e1n", "Country Code": "MX", "Population": 13980.0, "Lat": 17.88191, "Lon": -94.95986}], "Sayulilla": [{"Name": "Sayulilla", "Country Code": "MX", "Population": 2277.0, "Lat": 22.43822, "Lon": -105.39137}], "Sayulita": [{"Name": "Sayulita", "Country Code": "MX", "Population": 2262.0, "Lat": 20.87006, "Lon": -105.43992}], "Sayville": [{"Name": "Sayville", "Country Code": "US", "Population": 16853.0, "Lat": 40.73593, "Lon": -73.08206}], "Sayyan": [{"Name": "Sayy\u0101n", "Country Code": "YE", "Population": 69404.0, "Lat": 15.17177, "Lon": 44.32442}], "Sazava": [{"Name": "S\u00e1zava", "Country Code": "CZ", "Population": 3797.0, "Lat": 49.87164, "Lon": 14.89674}], "Saze": [{"Name": "Saze", "Country Code": "FR", "Population": 1590.0, "Lat": 43.94126, "Lon": 4.68163}], "Sazonovo": [{"Name": "Sazonovo", "Country Code": "RU", "Population": 3509.0, "Lat": 59.0919, "Lon": 35.2268}], "Sbiba": [{"Name": "Sbiba", "Country Code": "TN", "Population": 6291.0, "Lat": 35.54332, "Lon": 9.0737}], "Sbikha": [{"Name": "Sbikha", "Country Code": "TN", "Population": 7062.0, "Lat": 35.93325, "Lon": 10.02081}], "Scaer": [{"Name": "Sca\u00ebr", "Country Code": "FR", "Population": 5525.0, "Lat": 48.02728, "Lon": -3.70267}], "Scaesti": [{"Name": "Sc\u0103e\u015fti", "Country Code": "RO", "Population": 2294.0, "Lat": 44.46667, "Lon": 23.58333}], "Scafa": [{"Name": "Scafa", "Country Code": "IT", "Population": 2536.0, "Lat": 42.26575, "Lon": 13.99665}], "Scafati": [{"Name": "Scafati", "Country Code": "IT", "Population": 48702.0, "Lat": 40.7602, "Lon": 14.53723}], "Scaggsville": [{"Name": "Scaggsville", "Country Code": "US", "Population": 24333.0, "Lat": 39.14511, "Lon": -76.90025}], "Scagnello": [{"Name": "Scagnello", "Country Code": "IT", "Population": 209.0, "Lat": 44.33333, "Lon": 7.98644}], "Scala": [{"Name": "Scala", "Country Code": "IT", "Population": 1139.0, "Lat": 40.65665, "Lon": 14.60761}], "Scala Coeli": [{"Name": "Scala Coeli", "Country Code": "IT", "Population": 906.0, "Lat": 39.44824, "Lon": 16.88658}], "Scalby": [{"Name": "Scalby", "Country Code": "GB", "Population": 9462.0, "Lat": 53.76667, "Lon": -0.71667}], "Scaldasole": [{"Name": "Scaldasole", "Country Code": "IT", "Population": 937.0, "Lat": 45.12495, "Lon": 8.91029}], "Scalea": [{"Name": "Scalea", "Country Code": "IT", "Population": 9344.0, "Lat": 39.80605, "Lon": 15.79635}], "Scalenghe": [{"Name": "Scalenghe", "Country Code": "IT", "Population": 1525.0, "Lat": 44.8899, "Lon": 7.49423}], "Scaletta Zanclea": [{"Name": "Scaletta Zanclea", "Country Code": "IT", "Population": 2578.0, "Lat": 38.04796, "Lon": 15.46769}], "Scalloway": [{"Name": "Scalloway", "Country Code": "GB", "Population": 1100.0, "Lat": 60.13832, "Lon": -1.2769}], "Scalo Romagnano al Monte": [{"Name": "Scalo Romagnano al Monte", "Country Code": "IT", "Population": 11.0, "Lat": 40.61031, "Lon": 15.44768}], "Scalo di Baragiano": [{"Name": "Scalo di Baragiano", "Country Code": "IT", "Population": 1150.0, "Lat": 40.695, "Lon": 15.57508}], "Scaltenigo": [{"Name": "Scaltenigo", "Country Code": "IT", "Population": 1311.0, "Lat": 45.4712, "Lon": 12.08106}], "Scampia": [{"Name": "Scampia", "Country Code": "IT", "Population": 39060.0, "Lat": 40.90347, "Lon": 14.23736}], "Scampitella": [{"Name": "Scampitella", "Country Code": "IT", "Population": 977.0, "Lat": 41.09252, "Lon": 15.29995}], "Scandale": [{"Name": "Scandale", "Country Code": "IT", "Population": 2866.0, "Lat": 39.12339, "Lon": 16.96185}], "Scandia": [{"Name": "Scandia", "Country Code": "US", "Population": 4057.0, "Lat": 45.25358, "Lon": -92.80577}], "Scandiano": [{"Name": "Scandiano", "Country Code": "IT", "Population": 25896.0, "Lat": 44.5983, "Lon": 10.69558}], "Scandicci": [{"Name": "Scandicci", "Country Code": "IT", "Population": 44951.0, "Lat": 43.75423, "Lon": 11.18794}], "Scandolara Ravara": [{"Name": "Scandolara Ravara", "Country Code": "IT", "Population": 1088.0, "Lat": 45.05309, "Lon": 10.30215}], "Scandolara Ripa d'Oglio": [{"Name": "Scandolara Ripa d'Oglio", "Country Code": "IT", "Population": 563.0, "Lat": 45.22171, "Lon": 10.15717}], "Scandriglia": [{"Name": "Scandriglia", "Country Code": "IT", "Population": 1373.0, "Lat": 42.16128, "Lon": 12.84096}], "Scannabue-Cascine Capri": [{"Name": "Scannabue-Cascine Capri", "Country Code": "IT", "Population": 2426.0, "Lat": 45.39306, "Lon": 9.59302}], "Scanno": [{"Name": "Scanno", "Country Code": "IT", "Population": 1900.0, "Lat": 41.90442, "Lon": 13.87961}], "Scano al Brembo": [{"Name": "Scano al Brembo", "Country Code": "IT", "Population": 3458.0, "Lat": 45.71858, "Lon": 9.60905}], "Scano di Montiferro": [{"Name": "Scano di Montiferro", "Country Code": "IT", "Population": 1569.0, "Lat": 40.21525, "Lon": 8.58692}], "Scansano": [{"Name": "Scansano", "Country Code": "IT", "Population": 1447.0, "Lat": 42.68779, "Lon": 11.32975}], "Scanteia": [{"Name": "Sc\u00e2nteia", "Country Code": "RO", "Population": 3073.0, "Lat": 44.73404, "Lon": 27.46593}, {"Name": "Sc\u00e2nteia", "Country Code": "RO", "Population": 4245.0, "Lat": 46.91667, "Lon": 27.56667}], "Scanteiesti": [{"Name": "Sc\u00e2nteie\u0219ti", "Country Code": "RO", "Population": 926.0, "Lat": 45.68333, "Lon": 27.98333}], "Scanzano Jonico": [{"Name": "Scanzano Jonico", "Country Code": "IT", "Population": 4154.0, "Lat": 40.25085, "Lon": 16.69824}], "Scanzo-Rosciate": [{"Name": "Scanzo-Rosciate", "Country Code": "IT", "Population": 6207.0, "Lat": 45.71078, "Lon": 9.73505}], "Scapoli": [{"Name": "Scapoli", "Country Code": "IT", "Population": 242.0, "Lat": 41.61447, "Lon": 14.05929}], "Scappoose": [{"Name": "Scappoose", "Country Code": "US", "Population": 6954.0, "Lat": 45.75428, "Lon": -122.8776}], "Scarborough": [{"Name": "Scarborough", "Country Code": "AU", "Population": 17605.0, "Lat": -31.89578, "Lon": 115.76431}, {"Name": "Scarborough", "Country Code": "AU", "Population": 8605.0, "Lat": -27.20118, "Lon": 153.10939}, {"Name": "Scarborough", "Country Code": "GB", "Population": 61749.0, "Lat": 54.27966, "Lon": -0.40443}, {"Name": "Scarborough", "Country Code": "TT", "Population": 17000.0, "Lat": 11.18229, "Lon": -60.73525}, {"Name": "Scarborough", "Country Code": "US", "Population": 4403.0, "Lat": 43.57814, "Lon": -70.32172}], "Scarborough Village": [{"Name": "Scarborough Village", "Country Code": "CA", "Population": 16724.0, "Lat": 43.73899, "Lon": -79.22124}], "Scarcelli": [{"Name": "Scarcelli", "Country Code": "IT", "Population": 1700.0, "Lat": 39.4, "Lon": 16.01667}], "Scarcroft": [{"Name": "Scarcroft", "Country Code": "GB", "Population": 1194.0, "Lat": 53.86667, "Lon": -1.45}], "Scardovari": [{"Name": "Scardovari", "Country Code": "IT", "Population": 1434.0, "Lat": 44.89765, "Lon": 12.45462}], "Scario": [{"Name": "Scario", "Country Code": "IT", "Population": 1124.0, "Lat": 40.06207, "Lon": 15.47421}], "Scarisoara": [{"Name": "Sc\u0103ri\u015foara", "Country Code": "RO", "Population": 3221.0, "Lat": 44.0, "Lon": 24.56667}, {"Name": "Sc\u0103ri\u015foara", "Country Code": "RO", "Population": 1808.0, "Lat": 46.46667, "Lon": 22.85}], "Scarlino": [{"Name": "Scarlino", "Country Code": "IT", "Population": 429.0, "Lat": 42.90799, "Lon": 10.85148}], "Scarlino Scalo": [{"Name": "Scarlino Scalo", "Country Code": "IT", "Population": 1582.0, "Lat": 42.93992, "Lon": 10.83766}], "Scarmagno": [{"Name": "Scarmagno", "Country Code": "IT", "Population": 380.0, "Lat": 45.38492, "Lon": 7.8411}], "Scarnafigi": [{"Name": "Scarnafigi", "Country Code": "IT", "Population": 1432.0, "Lat": 44.67944, "Lon": 7.56513}], "Scarness": [{"Name": "Scarness", "Country Code": "AU", "Population": 3897.0, "Lat": -25.28405, "Lon": 152.856}], "Scarperia": [{"Name": "Scarperia", "Country Code": "IT", "Population": 5163.0, "Lat": 43.99357, "Lon": 11.35415}], "Scarsdale": [{"Name": "Scarsdale", "Country Code": "US", "Population": 17885.0, "Lat": 41.0051, "Lon": -73.78458}], "Scawby": [{"Name": "Scawby", "Country Code": "GB", "Population": 1631.0, "Lat": 53.53787, "Lon": -0.54085}], "Sceaux": [{"Name": "Sceaux", "Country Code": "FR", "Population": 21511.0, "Lat": 48.77644, "Lon": 2.29026}], "Scena": [{"Name": "Scena", "Country Code": "IT", "Population": 1304.0, "Lat": 46.6884, "Lon": 11.18855}], "Scena - Schenna": [{"Name": "Scena - Schenna", "Country Code": "IT", "Population": 2677.0, "Lat": 46.69012, "Lon": 11.18627}], "Scenic": [{"Name": "Scenic", "Country Code": "US", "Population": 1643.0, "Lat": 36.79359, "Lon": -114.01275}], "Scenic Oaks": [{"Name": "Scenic Oaks", "Country Code": "US", "Population": 4957.0, "Lat": 29.71078, "Lon": -98.67586}], "Scerne": [{"Name": "Scerne", "Country Code": "IT", "Population": 1982.0, "Lat": 42.64754, "Lon": 14.03791}], "Scerni": [{"Name": "Scerni", "Country Code": "IT", "Population": 2608.0, "Lat": 42.10418, "Lon": 14.57428}], "Scey-sur-Saone-et-Saint-Albin": [{"Name": "Scey-sur-Sa\u00f4ne-et-Saint-Albin", "Country Code": "FR", "Population": 1614.0, "Lat": 47.66398, "Lon": 5.97451}], "Schaafheim": [{"Name": "Schaafheim", "Country Code": "DE", "Population": 8784.0, "Lat": 49.92417, "Lon": 9.00944}], "Schaalby": [{"Name": "Schaalby", "Country Code": "DE", "Population": 1700.0, "Lat": 54.55, "Lon": 9.63333}], "Schaan": [{"Name": "Schaan", "Country Code": "LI", "Population": 5748.0, "Lat": 47.16498, "Lon": 9.50867}], "Schachen": [{"Name": "Schachen", "Country Code": "CH", "Population": 1278.0, "Lat": 47.32419, "Lon": 8.47251}], "Schachen bei Vorau": [{"Name": "Schachen bei Vorau", "Country Code": "AT", "Population": 1190.0, "Lat": 47.3801, "Lon": 15.85816}], "Schachendorf": [{"Name": "Schachendorf", "Country Code": "AT", "Population": 440.0, "Lat": 47.2655, "Lon": 16.4342}], "Schacht-Audorf": [{"Name": "Schacht-Audorf", "Country Code": "DE", "Population": 4667.0, "Lat": 54.31282, "Lon": 9.71586}], "Schaeffern": [{"Name": "Sch\u00e4ffern", "Country Code": "AT", "Population": 432.0, "Lat": 47.47771, "Lon": 16.10956}], "Schaerbeek": [{"Name": "Schaerbeek", "Country Code": "BE", "Population": 132761.0, "Lat": 50.86935, "Lon": 4.37737}], "Schaerding": [{"Name": "Sch\u00e4rding", "Country Code": "AT", "Population": 4919.0, "Lat": 48.45294, "Lon": 13.43722}], "Schaerding Vorstadt": [{"Name": "Sch\u00e4rding Vorstadt", "Country Code": "AT", "Population": 3246.0, "Lat": 48.45195, "Lon": 13.43946}], "Schaffen": [{"Name": "Schaffen", "Country Code": "BE", "Population": 4948.0, "Lat": 50.99993, "Lon": 5.08667}], "Schaffhausen": [{"Name": "Schaffhausen", "Country Code": "CH", "Population": 33863.0, "Lat": 47.69732, "Lon": 8.63493}], "Schafflund": [{"Name": "Schafflund", "Country Code": "DE", "Population": 2323.0, "Lat": 54.75845, "Lon": 9.18329}], "Schafisheim": [{"Name": "Schafisheim", "Country Code": "CH", "Population": 2758.0, "Lat": 47.37664, "Lon": 8.14263}], "Schafstaedt": [{"Name": "Schafst\u00e4dt", "Country Code": "DE", "Population": 2170.0, "Lat": 51.38131, "Lon": 11.77302}], "Schaftlarn": [{"Name": "Sch\u00e4ftlarn", "Country Code": "DE", "Population": 5281.0, "Lat": 47.99027, "Lon": 11.45591}], "Schafwiesen": [{"Name": "Schafwiesen", "Country Code": "AT", "Population": 2200.0, "Lat": 48.17194, "Lon": 14.07067}], "Schagen": [{"Name": "Schagen", "Country Code": "NL", "Population": 5910.0, "Lat": 52.7875, "Lon": 4.79861}], "Schagerbrug": [{"Name": "Schagerbrug", "Country Code": "NL", "Population": 1965.0, "Lat": 52.8025, "Lon": 4.75833}], "Schaijk": [{"Name": "Schaijk", "Country Code": "NL", "Population": 5970.0, "Lat": 51.74583, "Lon": 5.63194}], "Schalchen": [{"Name": "Schalchen", "Country Code": "AT", "Population": 1618.0, "Lat": 48.11924, "Lon": 13.15716}], "Schalchham": [{"Name": "Schalchham", "Country Code": "AT", "Population": 1448.0, "Lat": 47.99825, "Lon": 13.67188}], "Schalkau": [{"Name": "Schalkau", "Country Code": "DE", "Population": 3367.0, "Lat": 50.39536, "Lon": 11.00732}], "Schalkhaar": [{"Name": "Schalkhaar", "Country Code": "NL", "Population": 4610.0, "Lat": 52.26833, "Lon": 6.19444}], "Schalksmuehle": [{"Name": "Schalksm\u00fchle", "Country Code": "DE", "Population": 11753.0, "Lat": 51.2412, "Lon": 7.5279}], "Schall Circle": [{"Name": "Schall Circle", "Country Code": "US", "Population": 1117.0, "Lat": 26.71562, "Lon": -80.11504}], "Schallstadt": [{"Name": "Schallstadt", "Country Code": "DE", "Population": 5841.0, "Lat": 47.95855, "Lon": 7.75755}], "Schaltin": [{"Name": "Schaltin", "Country Code": "BE", "Population": 1130.0, "Lat": 50.35952, "Lon": 5.12535}], "Schandorf": [{"Name": "Schandorf", "Country Code": "AT", "Population": 276.0, "Lat": 47.24183, "Lon": 16.42267}], "Schanis": [{"Name": "Sch\u00e4nis", "Country Code": "CH", "Population": 3404.0, "Lat": 47.15995, "Lon": 9.04549}], "Schapen": [{"Name": "Schapen", "Country Code": "DE", "Population": 2444.0, "Lat": 52.4, "Lon": 7.56667}, {"Name": "Schapen", "Country Code": "DE", "Population": 1635.0, "Lat": 52.28045, "Lon": 10.60524}], "Scharans": [{"Name": "Scharans", "Country Code": "CH", "Population": 867.0, "Lat": 46.71814, "Lon": 9.45903}], "Scharbeutz": [{"Name": "Scharbeutz", "Country Code": "DE", "Population": 12087.0, "Lat": 54.03333, "Lon": 10.75}], "Schardenberg": [{"Name": "Schardenberg", "Country Code": "AT", "Population": 882.0, "Lat": 48.52058, "Lon": 13.49791}], "Scharendijke": [{"Name": "Scharendijke", "Country Code": "NL", "Population": 1105.0, "Lat": 51.73583, "Lon": 3.84306}], "Scharfenstein": [{"Name": "Scharfenstein", "Country Code": "DE", "Population": 1085.0, "Lat": 50.70405, "Lon": 13.05654}], "Scharn": [{"Name": "Scharn", "Country Code": "NL", "Population": 6540.0, "Lat": 50.85, "Lon": 5.73333}], "Scharndorf": [{"Name": "Scharndorf", "Country Code": "AT", "Population": 408.0, "Lat": 48.09399, "Lon": 16.79883}], "Scharnebeck": [{"Name": "Scharnebeck", "Country Code": "DE", "Population": 3275.0, "Lat": 53.29237, "Lon": 10.50188}], "Scharnegoutum": [{"Name": "Scharnegoutum", "Country Code": "NL", "Population": 1540.0, "Lat": 53.06051, "Lon": 5.67822}], "Scharnitz": [{"Name": "Scharnitz", "Country Code": "AT", "Population": 1403.0, "Lat": 47.38899, "Lon": 11.26455}], "Scharnstein": [{"Name": "Scharnstein", "Country Code": "AT", "Population": 1287.0, "Lat": 47.90426, "Lon": 13.96135}], "Schashagen": [{"Name": "Schashagen", "Country Code": "DE", "Population": 2385.0, "Lat": 54.13333, "Lon": 10.88333}], "Schattdorf": [{"Name": "Schattdorf", "Country Code": "CH", "Population": 4860.0, "Lat": 46.8655, "Lon": 8.65465}], "Schattendorf": [{"Name": "Schattendorf", "Country Code": "AT", "Population": 2379.0, "Lat": 47.70973, "Lon": 16.50979}], "Schattwald": [{"Name": "Schattwald", "Country Code": "AT", "Population": 106.0, "Lat": 47.51427, "Lon": 10.46143}], "Schauenstein": [{"Name": "Schauenstein", "Country Code": "DE", "Population": 2142.0, "Lat": 50.27826, "Lon": 11.74169}], "Schaufling": [{"Name": "Schaufling", "Country Code": "DE", "Population": 1494.0, "Lat": 48.85, "Lon": 13.06667}], "Schaumburg": [{"Name": "Schaumburg", "Country Code": "US", "Population": 74693.0, "Lat": 42.03336, "Lon": -88.08341}], "Schechen": [{"Name": "Schechen", "Country Code": "DE", "Population": 4430.0, "Lat": 47.92911, "Lon": 12.12393}], "Schechingen": [{"Name": "Schechingen", "Country Code": "DE", "Population": 2484.0, "Lat": 48.87341, "Lon": 9.91744}], "Scheden": [{"Name": "Scheden", "Country Code": "DE", "Population": 2132.0, "Lat": 51.45, "Lon": 9.73333}], "Scheemda": [{"Name": "Scheemda", "Country Code": "NL", "Population": 2395.0, "Lat": 53.17333, "Lon": 6.97222}], "Scheer": [{"Name": "Scheer", "Country Code": "DE", "Population": 2622.0, "Lat": 48.07292, "Lon": 9.29486}], "Scheessel": [{"Name": "Schee\u00dfel", "Country Code": "DE", "Population": 12907.0, "Lat": 53.16667, "Lon": 9.48333}], "Scheffau am Tennengebirge": [{"Name": "Scheffau am Tennengebirge", "Country Code": "AT", "Population": 1119.0, "Lat": 47.58831, "Lon": 13.2202}], "Scheffau am Wilden Kaiser": [{"Name": "Scheffau am Wilden Kaiser", "Country Code": "AT", "Population": 1449.0, "Lat": 47.52943, "Lon": 12.25139}], "Scheggia": [{"Name": "Scheggia", "Country Code": "IT", "Population": 740.0, "Lat": 43.40364, "Lon": 12.66584}], "Scheggino": [{"Name": "Scheggino", "Country Code": "IT", "Population": 273.0, "Lat": 42.71304, "Lon": 12.83007}], "Scheia": [{"Name": "Scheia", "Country Code": "RO", "Population": 1306.0, "Lat": 47.11725, "Lon": 26.88153}, {"Name": "Scheia", "Country Code": "RO", "Population": 7533.0, "Lat": 47.65, "Lon": 26.23333}, {"Name": "\u015echeia", "Country Code": "RO", "Population": 4742.0, "Lat": 46.93333, "Lon": 27.51667}], "Scheibbs": [{"Name": "Scheibbs", "Country Code": "AT", "Population": 4196.0, "Lat": 48.00474, "Lon": 15.16817}], "Scheibenberg": [{"Name": "Scheibenberg", "Country Code": "DE", "Population": 2358.0, "Lat": 50.54023, "Lon": 12.91215}], "Scheidegg": [{"Name": "Scheidegg", "Country Code": "DE", "Population": 4198.0, "Lat": 47.58141, "Lon": 9.84829}], "Scheifling": [{"Name": "Scheifling", "Country Code": "AT", "Population": 978.0, "Lat": 47.15044, "Lon": 14.41278}], "Scheinfeld": [{"Name": "Scheinfeld", "Country Code": "DE", "Population": 4770.0, "Lat": 49.66931, "Lon": 10.46554}], "Scheiu de Jos": [{"Name": "Scheiu de Jos", "Country Code": "RO", "Population": 1222.0, "Lat": 44.9346, "Lon": 25.19986}], "Scheiu de Sus": [{"Name": "Scheiu de Sus", "Country Code": "RO", "Population": 1060.0, "Lat": 44.95602, "Lon": 25.19317}], "Schela": [{"Name": "Schela", "Country Code": "RO", "Population": 3548.0, "Lat": 45.5, "Lon": 27.83667}], "Schelderode": [{"Name": "Schelderode", "Country Code": "BE", "Population": 1530.0, "Lat": 50.96922, "Lon": 3.7133}], "Scheldewindeke": [{"Name": "Scheldewindeke", "Country Code": "BE", "Population": 3685.0, "Lat": 50.93436, "Lon": 3.78663}], "Schelfstadt": [{"Name": "Schelfstadt", "Country Code": "DE", "Population": 4308.0, "Lat": 53.63382, "Lon": 11.41711}], "Schelklingen": [{"Name": "Schelklingen", "Country Code": "DE", "Population": 7130.0, "Lat": 48.37575, "Lon": 9.73273}], "Schelle": [{"Name": "Schelle", "Country Code": "BE", "Population": 7675.0, "Lat": 51.12615, "Lon": 4.34114}], "Schellebelle": [{"Name": "Schellebelle", "Country Code": "BE", "Population": 3782.0, "Lat": 51.01136, "Lon": 3.92843}], "Schellenberg": [{"Name": "Schellenberg", "Country Code": "LI", "Population": 1004.0, "Lat": 47.23123, "Lon": 9.54678}], "Schellerten": [{"Name": "Schellerten", "Country Code": "DE", "Population": 8694.0, "Lat": 52.1853, "Lon": 10.10227}], "Schellhorn": [{"Name": "Schellhorn", "Country Code": "DE", "Population": 1714.0, "Lat": 54.22952, "Lon": 10.29402}], "Schelluinen": [{"Name": "Schelluinen", "Country Code": "NL", "Population": 1255.0, "Lat": 51.84333, "Lon": 4.92639}], "Schendelbeke": [{"Name": "Schendelbeke", "Country Code": "BE", "Population": 1870.0, "Lat": 50.79872, "Lon": 3.89882}], "Schenectady": [{"Name": "Schenectady", "Country Code": "US", "Population": 65305.0, "Lat": 42.81424, "Lon": -73.93957}], "Schenefeld": [{"Name": "Schenefeld", "Country Code": "DE", "Population": 2524.0, "Lat": 54.05, "Lon": 9.48333}], "Schengen": [{"Name": "Schengen", "Country Code": "LU", "Population": 470.0, "Lat": 49.47, "Lon": 6.362}], "Schenkendoebern": [{"Name": "Schenkend\u00f6bern", "Country Code": "DE", "Population": 4455.0, "Lat": 51.95723, "Lon": 14.63541}], "Schenkenfelden": [{"Name": "Schenkenfelden", "Country Code": "AT", "Population": 1129.0, "Lat": 48.50273, "Lon": 14.36188}], "Schenkenzell": [{"Name": "Schenkenzell", "Country Code": "DE", "Population": 1822.0, "Lat": 48.31202, "Lon": 8.37212}], "Schenklengsfeld": [{"Name": "Schenklengsfeld", "Country Code": "DE", "Population": 4806.0, "Lat": 50.81667, "Lon": 9.85}], "Schenkon": [{"Name": "Schenkon", "Country Code": "CH", "Population": 2616.0, "Lat": 47.17765, "Lon": 8.13204}], "Schepdaal": [{"Name": "Schepdaal", "Country Code": "BE", "Population": 6004.0, "Lat": 50.83836, "Lon": 4.19609}], "Schererville": [{"Name": "Schererville", "Country Code": "US", "Population": 28791.0, "Lat": 41.47892, "Lon": -87.45476}], "Schermbeck": [{"Name": "Schermbeck", "Country Code": "DE", "Population": 13682.0, "Lat": 51.68333, "Lon": 6.86667}], "Schermen": [{"Name": "Schermen", "Country Code": "DE", "Population": 1575.0, "Lat": 52.23206, "Lon": 11.81382}], "Schermerhorn": [{"Name": "Schermerhorn", "Country Code": "NL", "Population": 1290.0, "Lat": 52.60083, "Lon": 4.89167}], "Schernberg": [{"Name": "Schernberg", "Country Code": "DE", "Population": 3427.0, "Lat": 51.32774, "Lon": 10.76928}], "Scherpenheuvel": [{"Name": "Scherpenheuvel", "Country Code": "BE", "Population": 7162.0, "Lat": 50.98075, "Lon": 4.97552}], "Scherpenisse": [{"Name": "Scherpenisse", "Country Code": "NL", "Population": 1605.0, "Lat": 51.54667, "Lon": 4.10556}], "Scherpenzeel": [{"Name": "Scherpenzeel", "Country Code": "NL", "Population": 8820.0, "Lat": 52.08, "Lon": 5.48889}], "Scherstetten": [{"Name": "Scherstetten", "Country Code": "DE", "Population": 1008.0, "Lat": 48.18032, "Lon": 10.64005}], "Schertz": [{"Name": "Schertz", "Country Code": "US", "Population": 43091.0, "Lat": 29.55217, "Lon": -98.26973}], "Scherwiller": [{"Name": "Scherwiller", "Country Code": "FR", "Population": 2773.0, "Lat": 48.28713, "Lon": 7.42135}], "Schesslitz": [{"Name": "Sche\u00dflitz", "Country Code": "DE", "Population": 7195.0, "Lat": 49.97568, "Lon": 11.03299}], "Scheuerfeld": [{"Name": "Scheuerfeld", "Country Code": "DE", "Population": 2166.0, "Lat": 50.78736, "Lon": 7.84128}], "Scheuring": [{"Name": "Scheuring", "Country Code": "DE", "Population": 1794.0, "Lat": 48.16769, "Lon": 10.89569}], "Scheveningen": [{"Name": "Scheveningen", "Country Code": "NL", "Population": 23000.0, "Lat": 52.10461, "Lon": 4.27557}], "Scheyern": [{"Name": "Scheyern", "Country Code": "DE", "Population": 4450.0, "Lat": 48.5, "Lon": 11.46667}], "Schiavi di Abruzzo": [{"Name": "Schiavi di Abruzzo", "Country Code": "IT", "Population": 259.0, "Lat": 41.81311, "Lon": 14.48655}], "Schiavon": [{"Name": "Schiavon", "Country Code": "IT", "Population": 1077.0, "Lat": 45.69654, "Lon": 11.64573}], "Schiebroek": [{"Name": "Schiebroek", "Country Code": "NL", "Population": 16305.0, "Lat": 51.95838, "Lon": 4.47124}], "Schiedam": [{"Name": "Schiedam", "Country Code": "NL", "Population": 75438.0, "Lat": 51.91917, "Lon": 4.38889}], "Schieder-Schwalenberg": [{"Name": "Schieder-Schwalenberg", "Country Code": "DE", "Population": 9443.0, "Lat": 51.87713, "Lon": 9.19538}], "Schiefling am See": [{"Name": "Schiefling am See", "Country Code": "AT", "Population": 864.0, "Lat": 46.60444, "Lon": 14.0975}], "Schieren": [{"Name": "Schieren", "Country Code": "LU", "Population": 1397.0, "Lat": 49.83056, "Lon": 6.09861}], "Schierling": [{"Name": "Schierling", "Country Code": "DE", "Population": 7347.0, "Lat": 48.83422, "Lon": 12.13946}], "Schiermonnikoog": [{"Name": "Schiermonnikoog", "Country Code": "NL", "Population": 936.0, "Lat": 53.48025, "Lon": 6.15209}], "Schiers": [{"Name": "Schiers", "Country Code": "CH", "Population": 2423.0, "Lat": 46.96973, "Lon": 9.6872}], "Schierstein": [{"Name": "Schierstein", "Country Code": "DE", "Population": 10642.0, "Lat": 50.04457, "Lon": 8.19788}], "Schiffdorf": [{"Name": "Schiffdorf", "Country Code": "DE", "Population": 14143.0, "Lat": 53.53333, "Lon": 8.65}], "Schifferstadt": [{"Name": "Schifferstadt", "Country Code": "DE", "Population": 19209.0, "Lat": 49.38417, "Lon": 8.3775}], "Schifflange": [{"Name": "Schifflange", "Country Code": "LU", "Population": 8155.0, "Lat": 49.50639, "Lon": 6.01278}], "Schiffweiler": [{"Name": "Schiffweiler", "Country Code": "DE", "Population": 15780.0, "Lat": 49.36667, "Lon": 7.13333}], "Schignano": [{"Name": "Schignano", "Country Code": "IT", "Population": 935.0, "Lat": 45.92978, "Lon": 9.10214}], "Schijndel": [{"Name": "Schijndel", "Country Code": "NL", "Population": 23239.0, "Lat": 51.6225, "Lon": 5.43194}], "Schilberg": [{"Name": "Schilberg", "Country Code": "NL", "Population": 1960.0, "Lat": 51.09917, "Lon": 5.88611}], "Schildau": [{"Name": "Schildau", "Country Code": "DE", "Population": 3522.0, "Lat": 51.45721, "Lon": 12.93024}], "Schilde": [{"Name": "Schilde", "Country Code": "BE", "Population": 20373.0, "Lat": 51.24107, "Lon": 4.58336}], "Schildorn": [{"Name": "Schildorn", "Country Code": "AT", "Population": 463.0, "Lat": 48.14564, "Lon": 13.46314}], "Schildwolde": [{"Name": "Schildwolde", "Country Code": "NL", "Population": 1485.0, "Lat": 53.23327, "Lon": 6.81566}], "Schilksee": [{"Name": "Schilksee", "Country Code": "DE", "Population": 5030.0, "Lat": 54.41833, "Lon": 10.17193}], "Schiller Park": [{"Name": "Schiller Park", "Country Code": "US", "Population": 11806.0, "Lat": 41.95586, "Lon": -87.8709}], "Schillig": [{"Name": "Schillig", "Country Code": "DE", "Population": 2000.0, "Lat": 53.70378, "Lon": 8.0217}], "Schillingen": [{"Name": "Schillingen", "Country Code": "DE", "Population": 1334.0, "Lat": 49.63333, "Lon": 6.78333}], "Schillingsfurst": [{"Name": "Schillingsf\u00fcrst", "Country Code": "DE", "Population": 2847.0, "Lat": 49.28775, "Lon": 10.26276}], "Schilpario": [{"Name": "Schilpario", "Country Code": "IT", "Population": 977.0, "Lat": 46.00874, "Lon": 10.15534}], "Schiltach": [{"Name": "Schiltach", "Country Code": "DE", "Population": 4025.0, "Lat": 48.28932, "Lon": 8.34169}], "Schiltberg": [{"Name": "Schiltberg", "Country Code": "DE", "Population": 1824.0, "Lat": 48.46293, "Lon": 11.24876}], "Schiltigheim": [{"Name": "Schiltigheim", "Country Code": "FR", "Population": 32289.0, "Lat": 48.60749, "Lon": 7.74931}], "Schimatari": [{"Name": "Schimat\u00e1ri", "Country Code": "GR", "Population": 4035.0, "Lat": 38.35, "Lon": 23.58333}], "Schimmert": [{"Name": "Schimmert", "Country Code": "NL", "Population": 2310.0, "Lat": 50.90667, "Lon": 5.82361}], "Schindellegi": [{"Name": "Schindellegi", "Country Code": "CH", "Population": 3174.0, "Lat": 47.1746, "Lon": 8.71345}], "Schinnen": [{"Name": "Schinnen", "Country Code": "NL", "Population": 1550.0, "Lat": 50.94333, "Lon": 5.88889}], "Schinveld": [{"Name": "Schinveld", "Country Code": "NL", "Population": 4685.0, "Lat": 50.96917, "Lon": 5.97917}], "Schinznach Bad": [{"Name": "Schinznach Bad", "Country Code": "CH", "Population": 1327.0, "Lat": 47.44992, "Lon": 8.16833}], "Schinznach Dorf": [{"Name": "Schinznach Dorf", "Country Code": "CH", "Population": 1736.0, "Lat": 47.4465, "Lon": 8.14089}], "Schio": [{"Name": "Schio", "Country Code": "IT", "Population": 33740.0, "Lat": 45.71262, "Lon": 11.35671}], "Schipkau": [{"Name": "Schipkau", "Country Code": "DE", "Population": 7876.0, "Lat": 51.51766, "Lon": 13.89738}], "Schipluiden": [{"Name": "Schipluiden", "Country Code": "NL", "Population": 3635.0, "Lat": 51.97583, "Lon": 4.31389}], "Schirgiswalde": [{"Name": "Schirgiswalde", "Country Code": "DE", "Population": 3009.0, "Lat": 51.07641, "Lon": 14.42834}], "Schirmeck": [{"Name": "Schirmeck", "Country Code": "FR", "Population": 2334.0, "Lat": 48.48313, "Lon": 7.22004}], "Schirmitz": [{"Name": "Schirmitz", "Country Code": "DE", "Population": 2120.0, "Lat": 49.65, "Lon": 12.16667}], "Schirnding": [{"Name": "Schirnding", "Country Code": "DE", "Population": 1471.0, "Lat": 50.08205, "Lon": 12.22742}], "Schirrhein": [{"Name": "Schirrhein", "Country Code": "FR", "Population": 2175.0, "Lat": 48.80161, "Lon": 7.90588}], "Schisma Eloundas": [{"Name": "Sch\u00edsma Elo\u00fandas", "Country Code": "GR", "Population": 1730.0, "Lat": 35.25757, "Lon": 25.72796}], "Schitu": [{"Name": "Schitu", "Country Code": "RO", "Population": 1255.0, "Lat": 43.94279, "Lon": 28.62829}, {"Name": "Schitu", "Country Code": "RO", "Population": 3112.0, "Lat": 44.35, "Lon": 24.56667}, {"Name": "Schitu", "Country Code": "RO", "Population": 2227.0, "Lat": 44.14083, "Lon": 25.83667}], "Schitu Frumoasa": [{"Name": "Schitu Frumoasa", "Country Code": "RO", "Population": 2057.0, "Lat": 46.63541, "Lon": 26.48761}], "Schitu-Duca": [{"Name": "Schitu-Duca", "Country Code": "RO", "Population": 4347.0, "Lat": 47.03333, "Lon": 27.76667}], "Schitu-Golesti": [{"Name": "Schitu-Gole\u015fti", "Country Code": "RO", "Population": 4945.0, "Lat": 45.2, "Lon": 25.0}], "Schiulesti": [{"Name": "Schiule\u0219ti", "Country Code": "RO", "Population": 1294.0, "Lat": 45.28471, "Lon": 25.95403}], "Schivenoglia": [{"Name": "Schivenoglia", "Country Code": "IT", "Population": 1091.0, "Lat": 44.99498, "Lon": 11.073}], "Schkeuditz": [{"Name": "Schkeuditz", "Country Code": "DE", "Population": 18487.0, "Lat": 51.39678, "Lon": 12.22141}], "Schkoelen": [{"Name": "Schk\u00f6len", "Country Code": "DE", "Population": 2909.0, "Lat": 51.04166, "Lon": 11.82141}], "Schkopau": [{"Name": "Schkopau", "Country Code": "DE", "Population": 3060.0, "Lat": 51.39186, "Lon": 11.95224}], "Schladen": [{"Name": "Schladen", "Country Code": "DE", "Population": 5251.0, "Lat": 52.02218, "Lon": 10.53967}], "Schladming": [{"Name": "Schladming", "Country Code": "AT", "Population": 3452.0, "Lat": 47.39289, "Lon": 13.68699}], "Schlagsdorf": [{"Name": "Schlagsdorf", "Country Code": "DE", "Population": 1141.0, "Lat": 53.73363, "Lon": 10.82556}], "Schlaitdorf": [{"Name": "Schlaitdorf", "Country Code": "DE", "Population": 1663.0, "Lat": 48.60431, "Lon": 9.22268}], "Schlaiten": [{"Name": "Schlaiten", "Country Code": "AT", "Population": 474.0, "Lat": 46.87944, "Lon": 12.65417}], "Schlaitz": [{"Name": "Schlaitz", "Country Code": "DE", "Population": 1007.0, "Lat": 51.65871, "Lon": 12.42839}], "Schlangen": [{"Name": "Schlangen", "Country Code": "DE", "Population": 9137.0, "Lat": 51.80978, "Lon": 8.84605}], "Schlangenbad": [{"Name": "Schlangenbad", "Country Code": "DE", "Population": 6265.0, "Lat": 50.09322, "Lon": 8.10312}], "Schlat": [{"Name": "Schlat", "Country Code": "DE", "Population": 1719.0, "Lat": 48.65321, "Lon": 9.70625}], "Schlatt": [{"Name": "Schlatt", "Country Code": "AT", "Population": 167.0, "Lat": 48.07177, "Lon": 13.78904}], "Schleben": [{"Name": "Schleben", "Country Code": "AT", "Population": 27.0, "Lat": 46.62039, "Lon": 13.93301}], "Schleching": [{"Name": "Schleching", "Country Code": "DE", "Population": 1854.0, "Lat": 47.72098, "Lon": 12.39481}], "Schleedorf": [{"Name": "Schleedorf", "Country Code": "AT", "Population": 1069.0, "Lat": 47.95, "Lon": 13.15}], "Schlegel": [{"Name": "Schlegel", "Country Code": "DE", "Population": 1115.0, "Lat": 50.97775, "Lon": 14.87686}], "Schlehdorf": [{"Name": "Schlehdorf", "Country Code": "DE", "Population": 1203.0, "Lat": 47.65795, "Lon": 11.31494}], "Schleid": [{"Name": "Schleid", "Country Code": "DE", "Population": 1137.0, "Lat": 50.7, "Lon": 9.96667}], "Schleiden": [{"Name": "Schleiden", "Country Code": "DE", "Population": 14160.0, "Lat": 50.52896, "Lon": 6.47692}], "Schleife": [{"Name": "Schleife", "Country Code": "DE", "Population": 2950.0, "Lat": 51.53333, "Lon": 14.53333}], "Schleinbach": [{"Name": "Schleinbach", "Country Code": "AT", "Population": 1031.0, "Lat": 48.41992, "Lon": 16.47809}], "Schleitheim": [{"Name": "Schleitheim", "Country Code": "CH", "Population": 1723.0, "Lat": 47.74818, "Lon": 8.48213}], "Schleiz": [{"Name": "Schleiz", "Country Code": "DE", "Population": 8976.0, "Lat": 50.57866, "Lon": 11.81024}], "Schleswig": [{"Name": "Schleswig", "Country Code": "DE", "Population": 24114.0, "Lat": 54.52156, "Lon": 9.5586}], "Schlettau": [{"Name": "Schlettau", "Country Code": "DE", "Population": 2733.0, "Lat": 50.55882, "Lon": 12.95269}], "Schleusingen": [{"Name": "Schleusingen", "Country Code": "DE", "Population": 5842.0, "Lat": 50.51076, "Lon": 10.75658}], "Schlieben": [{"Name": "Schlieben", "Country Code": "DE", "Population": 2994.0, "Lat": 51.72379, "Lon": 13.38304}], "Schliengen": [{"Name": "Schliengen", "Country Code": "DE", "Population": 5208.0, "Lat": 47.75698, "Lon": 7.57645}], "Schlier": [{"Name": "Schlier", "Country Code": "DE", "Population": 3665.0, "Lat": 47.77004, "Lon": 9.67354}], "Schlierbach": [{"Name": "Schlierbach", "Country Code": "AT", "Population": 1773.0, "Lat": 47.93636, "Lon": 14.12018}, {"Name": "Schlierbach", "Country Code": "DE", "Population": 3784.0, "Lat": 48.67362, "Lon": 9.51811}], "Schlieren": [{"Name": "Schlieren", "Country Code": "CH", "Population": 12695.0, "Lat": 47.39668, "Lon": 8.44763}], "Schlieren / Boden": [{"Name": "Schlieren / Boden", "Country Code": "CH", "Population": 1241.0, "Lat": 47.39721, "Lon": 8.45734}], "Schlieren / Engstringerquartier": [{"Name": "Schlieren / Engstringerquartier", "Country Code": "CH", "Population": 1877.0, "Lat": 47.40338, "Lon": 8.44352}], "Schlieren / Freiestrasse": [{"Name": "Schlieren / Freiestrasse", "Country Code": "CH", "Population": 1212.0, "Lat": 47.39598, "Lon": 8.44202}], "Schlieren / Kamp": [{"Name": "Schlieren / Kamp", "Country Code": "CH", "Population": 1129.0, "Lat": 47.39358, "Lon": 8.44453}], "Schlieren / Spital": [{"Name": "Schlieren / Spital", "Country Code": "CH", "Population": 2587.0, "Lat": 47.39489, "Lon": 8.43027}], "Schlieren / Zentrum": [{"Name": "Schlieren / Zentrum", "Country Code": "CH", "Population": 1207.0, "Lat": 47.39779, "Lon": 8.4477}], "Schliersee": [{"Name": "Schliersee", "Country Code": "DE", "Population": 6416.0, "Lat": 47.73621, "Lon": 11.85936}], "Schlins": [{"Name": "Schlins", "Country Code": "AT", "Population": 2404.0, "Lat": 47.2, "Lon": 9.7}], "Schlip": [{"Name": "Schlip", "Country Code": NaN, "Population": 1141.0, "Lat": -24.04631, "Lon": 17.12844}], "Schlitters": [{"Name": "Schlitters", "Country Code": "AT", "Population": 1481.0, "Lat": 47.38045, "Lon": 11.83888}], "Schlitz": [{"Name": "Schlitz", "Country Code": "DE", "Population": 10258.0, "Lat": 50.67416, "Lon": 9.56102}], "Schlossvippach": [{"Name": "Schlo\u00dfvippach", "Country Code": "DE", "Population": 1459.0, "Lat": 51.10499, "Lon": 11.14512}], "Schlotheim": [{"Name": "Schlotheim", "Country Code": "DE", "Population": 4288.0, "Lat": 51.24643, "Lon": 10.65842}], "Schluchsee": [{"Name": "Schluchsee", "Country Code": "DE", "Population": 2586.0, "Lat": 47.81667, "Lon": 8.18333}], "Schluechtern": [{"Name": "Schl\u00fcchtern", "Country Code": "DE", "Population": 17260.0, "Lat": 50.34891, "Lon": 9.52532}], "Schluesslberg": [{"Name": "Schl\u00fcsslberg", "Country Code": "AT", "Population": 898.0, "Lat": 48.21861, "Lon": 13.87161}], "Schlusselfeld": [{"Name": "Schl\u00fcsselfeld", "Country Code": "DE", "Population": 5848.0, "Lat": 49.75621, "Lon": 10.61873}], "Schlusser": [{"Name": "Schlusser", "Country Code": "US", "Population": 5265.0, "Lat": 40.24175, "Lon": -77.17693}], "Schmalfeld": [{"Name": "Schmalfeld", "Country Code": "DE", "Population": 1885.0, "Lat": 53.88333, "Lon": 9.96667}], "Schmalkalden": [{"Name": "Schmalkalden", "Country Code": "DE", "Population": 19553.0, "Lat": 50.72136, "Lon": 10.44386}], "Schmallenberg": [{"Name": "Schmallenberg", "Country Code": "DE", "Population": 26132.0, "Lat": 51.15473, "Lon": 8.28505}], "Schmargendorf": [{"Name": "Schmargendorf", "Country Code": "DE", "Population": 22733.0, "Lat": 52.47517, "Lon": 13.29071}], "Schmelz": [{"Name": "Schmelz", "Country Code": "DE", "Population": 17596.0, "Lat": 49.43333, "Lon": 6.85}], "Schmerikon": [{"Name": "Schmerikon", "Country Code": "CH", "Population": 3307.0, "Lat": 47.22538, "Lon": 8.94836}], "Schmidgaden": [{"Name": "Schmidgaden", "Country Code": "DE", "Population": 2881.0, "Lat": 49.4234, "Lon": 12.09247}], "Schmidmuhlen": [{"Name": "Schmidm\u00fchlen", "Country Code": "DE", "Population": 2481.0, "Lat": 49.26898, "Lon": 11.92429}], "Schmiechen": [{"Name": "Schmiechen", "Country Code": "DE", "Population": 1144.0, "Lat": 48.21667, "Lon": 10.96667}], "Schmiedeberg": [{"Name": "Schmiedeberg", "Country Code": "DE", "Population": 4806.0, "Lat": 50.83644, "Lon": 13.67622}], "Schmiedefeld": [{"Name": "Schmiedefeld", "Country Code": "DE", "Population": 1218.0, "Lat": 50.53333, "Lon": 11.21667}], "Schmiedefeld am Rennsteig": [{"Name": "Schmiedefeld am Rennsteig", "Country Code": "DE", "Population": 1989.0, "Lat": 50.60863, "Lon": 10.81284}], "Schmirn": [{"Name": "Schmirn", "Country Code": "AT", "Population": 0.0, "Lat": 47.08333, "Lon": 11.56667}], "Schmitten": [{"Name": "Schmitten", "Country Code": "CH", "Population": 4040.0, "Lat": 46.8575, "Lon": 7.25031}, {"Name": "Schmitten", "Country Code": "DE", "Population": 9042.0, "Lat": 50.26667, "Lon": 8.45}], "Schmoeckwitz": [{"Name": "Schm\u00f6ckwitz", "Country Code": "DE", "Population": 4442.0, "Lat": 52.37513, "Lon": 13.64948}], "Schmoelln": [{"Name": "Schm\u00f6lln", "Country Code": "DE", "Population": 13604.0, "Lat": 50.89678, "Lon": 12.35339}], "Schnaitsee": [{"Name": "Schnaitsee", "Country Code": "DE", "Population": 3571.0, "Lat": 48.06667, "Lon": 12.36667}], "Schnaittach": [{"Name": "Schnaittach", "Country Code": "DE", "Population": 8238.0, "Lat": 49.55958, "Lon": 11.34328}], "Schnaittenbach": [{"Name": "Schnaittenbach", "Country Code": "DE", "Population": 4375.0, "Lat": 49.54692, "Lon": 12.00184}], "Schneckenlohe": [{"Name": "Schneckenlohe", "Country Code": "DE", "Population": 1160.0, "Lat": 50.21184, "Lon": 11.19395}], "Schnecksville": [{"Name": "Schnecksville", "Country Code": "US", "Population": 2935.0, "Lat": 40.67514, "Lon": -75.62044}], "Schneeberg": [{"Name": "Schneeberg", "Country Code": "DE", "Population": 16784.0, "Lat": 50.59465, "Lon": 12.64139}], "Schnega": [{"Name": "Schnega", "Country Code": "DE", "Population": 1488.0, "Lat": 52.8913, "Lon": 10.89226}], "Schneidlingen": [{"Name": "Schneidlingen", "Country Code": "DE", "Population": 1169.0, "Lat": 51.89454, "Lon": 11.44487}], "Schneizlreuth": [{"Name": "Schneizlreuth", "Country Code": "DE", "Population": 1538.0, "Lat": 47.68333, "Lon": 12.8}], "Schnelldorf": [{"Name": "Schnelldorf", "Country Code": "DE", "Population": 3614.0, "Lat": 49.2, "Lon": 10.18333}], "Schnelsen": [{"Name": "Schnelsen", "Country Code": "DE", "Population": 30100.0, "Lat": 53.63743, "Lon": 9.91969}], "Schnepfau": [{"Name": "Schnepfau", "Country Code": "AT", "Population": 272.0, "Lat": 47.35206, "Lon": 9.9452}], "Schnersheim": [{"Name": "Schnersheim", "Country Code": "FR", "Population": 1055.0, "Lat": 48.65741, "Lon": 7.56701}], "Schneverdingen": [{"Name": "Schneverdingen", "Country Code": "DE", "Population": 19199.0, "Lat": 53.11685, "Lon": 9.79524}], "Schnifis": [{"Name": "Schnifis", "Country Code": "AT", "Population": 798.0, "Lat": 47.21667, "Lon": 9.73306}], "Schnurpflingen": [{"Name": "Schn\u00fcrpflingen", "Country Code": "DE", "Population": 1322.0, "Lat": 48.2728, "Lon": 9.99292}], "Schobuell": [{"Name": "Schob\u00fcll", "Country Code": "DE", "Population": 1658.0, "Lat": 54.5092, "Lon": 9.00621}], "Schochwitz": [{"Name": "Schochwitz", "Country Code": "DE", "Population": 1295.0, "Lat": 51.53174, "Lon": 11.75485}], "Schoeder": [{"Name": "Sch\u00f6der", "Country Code": "AT", "Population": 433.0, "Lat": 47.18333, "Lon": 14.1}], "Schoeffengrund": [{"Name": "Sch\u00f6ffengrund", "Country Code": "DE", "Population": 6316.0, "Lat": 50.49345, "Lon": 8.47183}], "Schoenau am Koenigssee": [{"Name": "Sch\u00f6nau am K\u00f6nigssee", "Country Code": "DE", "Population": 5319.0, "Lat": 47.60055, "Lon": 12.98704}], "Schoenau an der Triesting": [{"Name": "Sch\u00f6nau an der Triesting", "Country Code": "AT", "Population": 1467.0, "Lat": 47.93452, "Lon": 16.25376}], "Schoenau im Schwarzwald": [{"Name": "Sch\u00f6nau im Schwarzwald", "Country Code": "DE", "Population": 2525.0, "Lat": 47.78623, "Lon": 7.89445}], "Schoenau-Berzdorf": [{"Name": "Sch\u00f6nau-Berzdorf", "Country Code": "DE", "Population": 1796.0, "Lat": 51.06402, "Lon": 14.88402}], "Schoenbach": [{"Name": "Sch\u00f6nbach", "Country Code": "AT", "Population": 278.0, "Lat": 48.45, "Lon": 15.03333}], "Schoenberg": [{"Name": "Sch\u00f6nberg", "Country Code": "DE", "Population": 1013.0, "Lat": 50.86752, "Lon": 12.49126}], "Schoenberg im Stubaital": [{"Name": "Sch\u00f6nberg im Stubaital", "Country Code": "AT", "Population": 1101.0, "Lat": 47.18333, "Lon": 11.41667}], "Schoenburg": [{"Name": "Sch\u00f6nburg", "Country Code": "DE", "Population": 1133.0, "Lat": 51.16667, "Lon": 11.86667}], "Schoendorf": [{"Name": "Sch\u00f6ndorf", "Country Code": "AT", "Population": 1654.0, "Lat": 48.00167, "Lon": 13.6588}], "Schoenebeck": [{"Name": "Sch\u00f6nebeck", "Country Code": "DE", "Population": 30387.0, "Lat": 52.01682, "Lon": 11.7307}], "Schoeneberg": [{"Name": "Sch\u00f6neberg", "Country Code": "DE", "Population": 122658.0, "Lat": 52.46667, "Lon": 13.35}], "Schoeneck": [{"Name": "Sch\u00f6neck", "Country Code": "DE", "Population": 3728.0, "Lat": 50.39052, "Lon": 12.32731}, {"Name": "Sch\u0153neck", "Country Code": "FR", "Population": 2846.0, "Lat": 49.21667, "Lon": 6.91667}, {"Name": "Schoeneck", "Country Code": "US", "Population": 1056.0, "Lat": 40.24148, "Lon": -76.17411}], "Schoenefeld": [{"Name": "Sch\u00f6nefeld", "Country Code": "DE", "Population": 12015.0, "Lat": 52.38897, "Lon": 13.50374}], "Schoeneiche": [{"Name": "Sch\u00f6neiche", "Country Code": "DE", "Population": 11907.0, "Lat": 52.47286, "Lon": 13.69226}], "Schoenenberg-Kuebelberg": [{"Name": "Sch\u00f6nenberg-K\u00fcbelberg", "Country Code": "DE", "Population": 5957.0, "Lat": 49.4074, "Lon": 7.37233}], "Schoenering": [{"Name": "Sch\u00f6nering", "Country Code": "AT", "Population": 1013.0, "Lat": 48.29838, "Lon": 14.16103}], "Schoenewalde": [{"Name": "Sch\u00f6newalde", "Country Code": "DE", "Population": 3740.0, "Lat": 51.67901, "Lon": 13.60247}], "Schoenhausen": [{"Name": "Sch\u00f6nhausen", "Country Code": "DE", "Population": 2100.0, "Lat": 52.58076, "Lon": 12.03923}], "Schoenheide": [{"Name": "Sch\u00f6nheide", "Country Code": "DE", "Population": 5310.0, "Lat": 50.50458, "Lon": 12.52158}], "Schoeningen": [{"Name": "Sch\u00f6ningen", "Country Code": "DE", "Population": 13265.0, "Lat": 52.13802, "Lon": 10.96745}], "Schoenkirchen-Reyersdorf": [{"Name": "Sch\u00f6nkirchen-Reyersdorf", "Country Code": "AT", "Population": 1963.0, "Lat": 48.35477, "Lon": 16.69115}], "Schoenstedt": [{"Name": "Sch\u00f6nstedt", "Country Code": "DE", "Population": 1479.0, "Lat": 51.12, "Lon": 10.57743}], "Schoenwald": [{"Name": "Sch\u00f6nwald", "Country Code": "DE", "Population": 3741.0, "Lat": 50.1997, "Lon": 12.08503}], "Schoenwies": [{"Name": "Sch\u00f6nwies", "Country Code": "AT", "Population": 1697.0, "Lat": 47.19665, "Lon": 10.65742}], "Schoeppenstedt": [{"Name": "Sch\u00f6ppenstedt", "Country Code": "DE", "Population": 5961.0, "Lat": 52.14308, "Lon": 10.7745}], "Schoerfling": [{"Name": "Sch\u00f6rfling", "Country Code": "AT", "Population": 1680.0, "Lat": 47.94544, "Lon": 13.60408}], "Schoetz": [{"Name": "Sch\u00f6tz", "Country Code": "CH", "Population": 3231.0, "Lat": 47.16896, "Lon": 7.9887}], "Schofield": [{"Name": "Schofield", "Country Code": "US", "Population": 2203.0, "Lat": 44.90969, "Lon": -89.60457}], "Schofield Barracks": [{"Name": "Schofield Barracks", "Country Code": "US", "Population": 16370.0, "Lat": 21.49837, "Lon": -158.06515}], "Schofields": [{"Name": "Schofields", "Country Code": "AU", "Population": 4953.0, "Lat": -33.71667, "Lon": 150.86667}], "Schoftland": [{"Name": "Sch\u00f6ftland", "Country Code": "CH", "Population": 3310.0, "Lat": 47.3059, "Lon": 8.05119}], "Schofweg": [{"Name": "Sch\u00f6fweg", "Country Code": "DE", "Population": 1314.0, "Lat": 48.83882, "Lon": 13.22861}], "Schoharie": [{"Name": "Schoharie", "Country Code": "US", "Population": 838.0, "Lat": 42.66591, "Lon": -74.30958}], "Scholes": [{"Name": "Scholes", "Country Code": "GB", "Population": 2266.0, "Lat": 53.82346, "Lon": -1.42805}], "Schollkrippen": [{"Name": "Sch\u00f6llkrippen", "Country Code": "DE", "Population": 3868.0, "Lat": 50.08545, "Lon": 9.24697}], "Schollnach": [{"Name": "Sch\u00f6llnach", "Country Code": "DE", "Population": 5120.0, "Lat": 48.75412, "Lon": 13.17781}], "Schomberg": [{"Name": "Sch\u00f6mberg", "Country Code": "DE", "Population": 4633.0, "Lat": 48.20997, "Lon": 8.75949}, {"Name": "Sch\u00f6mberg", "Country Code": "DE", "Population": 8725.0, "Lat": 48.78713, "Lon": 8.64495}], "Schomyslitsa": [{"Name": "Schomyslitsa", "Country Code": "BY", "Population": 1822.0, "Lat": 53.8211, "Lon": 27.4522}], "Schonach im Schwarzwald": [{"Name": "Schonach im Schwarzwald", "Country Code": "DE", "Population": 4259.0, "Lat": 48.14229, "Lon": 8.20289}], "Schonaich": [{"Name": "Sch\u00f6naich", "Country Code": "DE", "Population": 10190.0, "Lat": 48.65871, "Lon": 9.06012}], "Schonau": [{"Name": "Sch\u00f6nau", "Country Code": "DE", "Population": 4918.0, "Lat": 49.43665, "Lon": 8.8088}, {"Name": "Sch\u00f6nau", "Country Code": "DE", "Population": 1365.0, "Lat": 50.07571, "Lon": 9.72169}, {"Name": "Sch\u00f6nau", "Country Code": "DE", "Population": 2058.0, "Lat": 48.48333, "Lon": 12.85}], "Schonbach": [{"Name": "Sch\u00f6nbach", "Country Code": "DE", "Population": 1368.0, "Lat": 51.06667, "Lon": 14.56667}], "Schonberg": [{"Name": "Sch\u00f6nberg", "Country Code": "DE", "Population": 1304.0, "Lat": 53.68319, "Lon": 10.42671}], "Schonborn": [{"Name": "Sch\u00f6nborn", "Country Code": "DE", "Population": 1881.0, "Lat": 51.60016, "Lon": 13.48967}], "Schondorf am Ammersee": [{"Name": "Schondorf am Ammersee", "Country Code": "DE", "Population": 3877.0, "Lat": 48.05296, "Lon": 11.09138}], "Schondra": [{"Name": "Schondra", "Country Code": "DE", "Population": 1855.0, "Lat": 50.26814, "Lon": 9.86277}], "Schonecken": [{"Name": "Sch\u00f6necken", "Country Code": "DE", "Population": 1625.0, "Lat": 50.15909, "Lon": 6.4682}], "Schonenbuch": [{"Name": "Sch\u00f6nenbuch", "Country Code": "CH", "Population": 1313.0, "Lat": 47.53853, "Lon": 7.50572}], "Schonenwerd": [{"Name": "Sch\u00f6nenwerd", "Country Code": "CH", "Population": 4732.0, "Lat": 47.3691, "Lon": 8.00167}], "Schonfeld": [{"Name": "Sch\u00f6nfeld", "Country Code": "DE", "Population": 2021.0, "Lat": 51.3, "Lon": 13.7}], "Schongau": [{"Name": "Schongau", "Country Code": "DE", "Population": 12442.0, "Lat": 47.8124, "Lon": 10.89664}], "Schongeising": [{"Name": "Sch\u00f6ngeising", "Country Code": "DE", "Population": 1806.0, "Lat": 48.14135, "Lon": 11.20399}], "Schonkirchen": [{"Name": "Sch\u00f6nkirchen", "Country Code": "DE", "Population": 6375.0, "Lat": 54.33333, "Lon": 10.23333}], "Schonsee": [{"Name": "Sch\u00f6nsee", "Country Code": "DE", "Population": 2720.0, "Lat": 49.5103, "Lon": 12.54763}], "Schonstett": [{"Name": "Schonstett", "Country Code": "DE", "Population": 1214.0, "Lat": 47.98333, "Lon": 12.25}], "Schonthal": [{"Name": "Sch\u00f6nthal", "Country Code": "DE", "Population": 2037.0, "Lat": 49.35, "Lon": 12.6}], "Schonungen": [{"Name": "Schonungen", "Country Code": "DE", "Population": 8230.0, "Lat": 50.05008, "Lon": 10.30809}], "Schonwald": [{"Name": "Sch\u00f6nwald", "Country Code": "DE", "Population": 2548.0, "Lat": 48.10549, "Lon": 8.20387}], "Schonwalde am Bungsberg": [{"Name": "Sch\u00f6nwalde am Bungsberg", "Country Code": "DE", "Population": 2527.0, "Lat": 54.18333, "Lon": 10.75}], "Schoolcraft": [{"Name": "Schoolcraft", "Country Code": "US", "Population": 1566.0, "Lat": 42.11421, "Lon": -85.63778}], "Schoonaarde": [{"Name": "Schoonaarde", "Country Code": "BE", "Population": 2423.0, "Lat": 51.00387, "Lon": 4.0152}], "Schoondijke": [{"Name": "Schoondijke", "Country Code": "NL", "Population": 1280.0, "Lat": 51.35417, "Lon": 3.55556}], "Schoonebeek": [{"Name": "Schoonebeek", "Country Code": "NL", "Population": 3845.0, "Lat": 52.6625, "Lon": 6.88472}], "Schoonhoven": [{"Name": "Schoonhoven", "Country Code": "NL", "Population": 12352.0, "Lat": 51.9475, "Lon": 4.84861}], "Schoonoord": [{"Name": "Schoonoord", "Country Code": "NL", "Population": 2030.0, "Lat": 52.84583, "Lon": 6.75556}], "Schoonrewoerd": [{"Name": "Schoonrewoerd", "Country Code": "NL", "Population": 1595.0, "Lat": 51.92083, "Lon": 5.11667}], "Schopfheim": [{"Name": "Schopfheim", "Country Code": "DE", "Population": 19386.0, "Lat": 47.65105, "Lon": 7.82089}], "Schopfloch": [{"Name": "Schopfloch", "Country Code": "DE", "Population": 2884.0, "Lat": 49.11917, "Lon": 10.30774}, {"Name": "Schopfloch", "Country Code": "DE", "Population": 2569.0, "Lat": 48.45477, "Lon": 8.55131}], "Schopp": [{"Name": "Schopp", "Country Code": "DE", "Population": 1520.0, "Lat": 49.35, "Lon": 7.68333}], "Schoppernau": [{"Name": "Schoppernau", "Country Code": "AT", "Population": 950.0, "Lat": 47.31205, "Lon": 10.01646}], "Schoppingen": [{"Name": "Sch\u00f6ppingen", "Country Code": "DE", "Population": 8165.0, "Lat": 52.1, "Lon": 7.23333}], "Schorisse": [{"Name": "Schorisse", "Country Code": "BE", "Population": 1602.0, "Lat": 50.80309, "Lon": 3.67632}], "Schorndorf": [{"Name": "Schorndorf", "Country Code": "DE", "Population": 2554.0, "Lat": 49.16041, "Lon": 12.59316}, {"Name": "Schorndorf", "Country Code": "DE", "Population": 39697.0, "Lat": 48.80537, "Lon": 9.52721}], "Schornsheim": [{"Name": "Schornsheim", "Country Code": "DE", "Population": 1590.0, "Lat": 49.84583, "Lon": 8.175}], "Schortens": [{"Name": "Schortens", "Country Code": "DE", "Population": 21357.0, "Lat": 53.53333, "Lon": 7.95}], "Schoten": [{"Name": "Schoten", "Country Code": "BE", "Population": 33622.0, "Lat": 51.25251, "Lon": 4.50268}], "Schotten": [{"Name": "Schotten", "Country Code": "DE", "Population": 11566.0, "Lat": 50.50346, "Lon": 9.12516}], "Schottwien": [{"Name": "Schottwien", "Country Code": "AT", "Population": 462.0, "Lat": 47.65683, "Lon": 15.8725}], "Schouweiler": [{"Name": "Schouweiler", "Country Code": "LU", "Population": 1090.0, "Lat": 49.5825, "Lon": 5.95639}], "Schramberg": [{"Name": "Schramberg", "Country Code": "DE", "Population": 18565.0, "Lat": 48.22399, "Lon": 8.38583}], "Schraplau": [{"Name": "Schraplau", "Country Code": "DE", "Population": 1357.0, "Lat": 51.4375, "Lon": 11.66823}], "Schrassig": [{"Name": "Schrassig", "Country Code": "LU", "Population": 1051.0, "Lat": 49.61014, "Lon": 6.25903}], "Schrattenbach": [{"Name": "Schrattenbach", "Country Code": "AT", "Population": 45.0, "Lat": 47.77902, "Lon": 15.9906}], "Schrattenberg": [{"Name": "Schrattenberg", "Country Code": "AT", "Population": 810.0, "Lat": 48.72359, "Lon": 16.72201}], "Schrattenthal": [{"Name": "Schrattenthal", "Country Code": "AT", "Population": 293.0, "Lat": 48.71815, "Lon": 15.90939}], "Schrecksbach": [{"Name": "Schrecksbach", "Country Code": "DE", "Population": 3343.0, "Lat": 50.83333, "Lon": 9.28333}], "Schrems": [{"Name": "Schrems", "Country Code": "AT", "Population": 3248.0, "Lat": 48.78333, "Lon": 15.06667}], "Schrems bei Frohnleiten": [{"Name": "Schrems bei Frohnleiten", "Country Code": "AT", "Population": 299.0, "Lat": 47.28109, "Lon": 15.35932}], "Schriek": [{"Name": "Schriek", "Country Code": "BE", "Population": 5062.0, "Lat": 51.02844, "Lon": 4.69357}], "Schriesheim": [{"Name": "Schriesheim", "Country Code": "DE", "Population": 14379.0, "Lat": 49.47372, "Lon": 8.6636}], "Schriever": [{"Name": "Schriever", "Country Code": "US", "Population": 6853.0, "Lat": 29.74215, "Lon": -90.81037}], "Schrobenhausen": [{"Name": "Schrobenhausen", "Country Code": "DE", "Population": 16143.0, "Lat": 48.56067, "Lon": 11.26071}], "Schroecken": [{"Name": "Schr\u00f6cken", "Country Code": "AT", "Population": 224.0, "Lat": 47.25755, "Lon": 10.09197}], "Schroeder": [{"Name": "Schroeder", "Country Code": "BR", "Population": 15505.0, "Lat": -26.4125, "Lon": -49.07306}], "Schrozberg": [{"Name": "Schrozberg", "Country Code": "DE", "Population": 6082.0, "Lat": 49.34528, "Lon": 9.97944}], "Schruns": [{"Name": "Schruns", "Country Code": "AT", "Population": 3818.0, "Lat": 47.08028, "Lon": 9.91917}], "Schubelbach": [{"Name": "Sch\u00fcbelbach", "Country Code": "CH", "Population": 7745.0, "Lat": 47.17326, "Lon": 8.92811}], "Schuby": [{"Name": "Schuby", "Country Code": "DE", "Population": 2530.0, "Lat": 54.51667, "Lon": 9.48333}], "Schuelp": [{"Name": "Sch\u00fclp", "Country Code": "DE", "Population": 1202.0, "Lat": 54.25896, "Lon": 9.63034}], "Schuepfheim": [{"Name": "Sch\u00fcpfheim", "Country Code": "CH", "Population": 3723.0, "Lat": 46.95161, "Lon": 8.01723}], "Schuettorf": [{"Name": "Sch\u00fcttorf", "Country Code": "DE", "Population": 11465.0, "Lat": 52.32281, "Lon": 7.22176}], "Schuetzen am Gebirge": [{"Name": "Sch\u00fctzen am Gebirge", "Country Code": "AT", "Population": 1392.0, "Lat": 47.85233, "Lon": 16.62334}], "Schuiferskapelle": [{"Name": "Schuiferskapelle", "Country Code": "BE", "Population": 1129.0, "Lat": 51.03244, "Lon": 3.33799}], "Schulen": [{"Name": "Schulen", "Country Code": "BE", "Population": 2930.0, "Lat": 50.95972, "Lon": 5.1901}], "Schulenburg": [{"Name": "Schulenburg", "Country Code": "US", "Population": 2925.0, "Lat": 29.6819, "Lon": -96.90304}], "Schulzendorf": [{"Name": "Schulzendorf", "Country Code": "DE", "Population": 7452.0, "Lat": 52.35818, "Lon": 13.59842}], "Schuntersdlg - West": [{"Name": "Schuntersdlg - West", "Country Code": "DE", "Population": 1691.0, "Lat": 52.29511, "Lon": 10.54182}], "Schupfen": [{"Name": "Sch\u00fcpfen", "Country Code": "CH", "Population": 3248.0, "Lat": 47.03661, "Lon": 7.37723}], "Schutsboom": [{"Name": "Schutsboom", "Country Code": "NL", "Population": 3490.0, "Lat": 51.46152, "Lon": 5.6226}], "Schuttertal": [{"Name": "Schuttertal", "Country Code": "DE", "Population": 3343.0, "Lat": 48.26667, "Lon": 7.95}], "Schutterwald": [{"Name": "Schutterwald", "Country Code": "DE", "Population": 7105.0, "Lat": 48.45, "Lon": 7.88333}], "Schuttrange": [{"Name": "Schuttrange", "Country Code": "LU", "Population": 841.0, "Lat": 49.62056, "Lon": 6.26861}], "Schuyler": [{"Name": "Schuyler", "Country Code": "US", "Population": 6171.0, "Lat": 41.44723, "Lon": -97.05948}], "Schuylerville": [{"Name": "Schuylerville", "Country Code": "US", "Population": 1374.0, "Lat": 43.10008, "Lon": -73.58178}], "Schuylkill Haven": [{"Name": "Schuylkill Haven", "Country Code": "US", "Population": 5228.0, "Lat": 40.63065, "Lon": -76.17105}], "Schwaan": [{"Name": "Schwaan", "Country Code": "DE", "Population": 5345.0, "Lat": 53.94047, "Lon": 12.10715}], "Schwabach": [{"Name": "Schwabach", "Country Code": "DE", "Population": 38554.0, "Lat": 49.33047, "Lon": 11.02346}], "Schwabenheim": [{"Name": "Schwabenheim", "Country Code": "DE", "Population": 2555.0, "Lat": 49.92879, "Lon": 8.09525}], "Schwabmunchen": [{"Name": "Schwabm\u00fcnchen", "Country Code": "DE", "Population": 13232.0, "Lat": 48.17928, "Lon": 10.75675}], "Schwabsoien": [{"Name": "Schwabsoien", "Country Code": "DE", "Population": 1344.0, "Lat": 47.83333, "Lon": 10.83333}], "Schwabstedt": [{"Name": "Schwabstedt", "Country Code": "DE", "Population": 1367.0, "Lat": 54.39705, "Lon": 9.18646}], "Schwaderloch": [{"Name": "Schwaderloch", "Country Code": "CH", "Population": 726.0, "Lat": 47.58541, "Lon": 8.14455}], "Schwadorf": [{"Name": "Schwadorf", "Country Code": "AT", "Population": 2180.0, "Lat": 48.06936, "Lon": 16.57957}], "Schwaebisch Gmuend": [{"Name": "Schw\u00e4bisch Gm\u00fcnd", "Country Code": "DE", "Population": 61216.0, "Lat": 48.79947, "Lon": 9.79809}], "Schwaebisch Hall": [{"Name": "Schw\u00e4bisch Hall", "Country Code": "DE", "Population": 36543.0, "Lat": 49.11127, "Lon": 9.73908}], "Schwaforden": [{"Name": "Schwaf\u00f6rden", "Country Code": "DE", "Population": 1493.0, "Lat": 52.73775, "Lon": 8.83026}], "Schwaig": [{"Name": "Schwaig", "Country Code": "DE", "Population": 8340.0, "Lat": 49.46955, "Lon": 11.20064}], "Schwaigern": [{"Name": "Schwaigern", "Country Code": "DE", "Population": 11047.0, "Lat": 49.14494, "Lon": 9.05525}], "Schwaikheim": [{"Name": "Schwaikheim", "Country Code": "DE", "Population": 9295.0, "Lat": 48.87733, "Lon": 9.34958}], "Schwalbach": [{"Name": "Schwalbach", "Country Code": "DE", "Population": 18708.0, "Lat": 49.3, "Lon": 6.81667}, {"Name": "Schwalbach", "Country Code": "DE", "Population": 1600.0, "Lat": 50.49672, "Lon": 8.46943}], "Schwalbach am Taunus": [{"Name": "Schwalbach am Taunus", "Country Code": "DE", "Population": 14192.0, "Lat": 50.15, "Lon": 8.53333}], "Schwallungen": [{"Name": "Schwallungen", "Country Code": "DE", "Population": 2782.0, "Lat": 50.6926, "Lon": 10.35706}], "Schwalmstadt": [{"Name": "Schwalmstadt", "Country Code": "DE", "Population": 19279.0, "Lat": 50.93333, "Lon": 9.21667}], "Schwalmtal": [{"Name": "Schwalmtal", "Country Code": "DE", "Population": 19435.0, "Lat": 51.21667, "Lon": 6.26667}, {"Name": "Schwalmtal", "Country Code": "DE", "Population": 3159.0, "Lat": 50.68333, "Lon": 9.21667}], "Schwanau": [{"Name": "Schwanau", "Country Code": "DE", "Population": 6858.0, "Lat": 48.36669, "Lon": 7.76244}], "Schwanberg": [{"Name": "Schwanberg", "Country Code": "AT", "Population": 1363.0, "Lat": 46.75833, "Lon": 15.20833}], "Schwanden": [{"Name": "Schwanden", "Country Code": "CH", "Population": 2541.0, "Lat": 46.99541, "Lon": 9.0701}], "Schwandorf in Bayern": [{"Name": "Schwandorf in Bayern", "Country Code": "DE", "Population": 28235.0, "Lat": 49.32534, "Lon": 12.1098}], "Schwanebeck": [{"Name": "Schwanebeck", "Country Code": "DE", "Population": 2435.0, "Lat": 51.9679, "Lon": 11.12393}], "Schwanenstadt": [{"Name": "Schwanenstadt", "Country Code": "AT", "Population": 4264.0, "Lat": 48.05537, "Lon": 13.77505}], "Schwanewede": [{"Name": "Schwanewede", "Country Code": "DE", "Population": 20015.0, "Lat": 53.23333, "Lon": 8.6}], "Schwanfeld": [{"Name": "Schwanfeld", "Country Code": "DE", "Population": 2032.0, "Lat": 49.92166, "Lon": 10.13866}], "Schwangau": [{"Name": "Schwangau", "Country Code": "DE", "Population": 3505.0, "Lat": 47.57722, "Lon": 10.73416}], "Schwarme": [{"Name": "Schwarme", "Country Code": "DE", "Population": 2544.0, "Lat": 52.9, "Lon": 9.01667}], "Schwarmstedt": [{"Name": "Schwarmstedt", "Country Code": "DE", "Population": 5159.0, "Lat": 52.67794, "Lon": 9.61767}], "Schwarza": [{"Name": "Schwarza", "Country Code": "DE", "Population": 1398.0, "Lat": 50.85386, "Lon": 11.32433}], "Schwarzach": [{"Name": "Schwarzach", "Country Code": "AT", "Population": 3949.0, "Lat": 47.44904, "Lon": 9.76213}, {"Name": "Schwarzach", "Country Code": "DE", "Population": 2898.0, "Lat": 48.91567, "Lon": 12.81143}, {"Name": "Schwarzach", "Country Code": "DE", "Population": 2000.0, "Lat": 49.37106, "Lon": 8.98325}, {"Name": "Schwarzach", "Country Code": "DE", "Population": 1912.0, "Lat": 48.74738, "Lon": 8.03738}], "Schwarzach im Pongau": [{"Name": "Schwarzach im Pongau", "Country Code": "AT", "Population": 3515.0, "Lat": 47.32048, "Lon": 13.15171}], "Schwarzau am Steinfeld": [{"Name": "Schwarzau am Steinfeld", "Country Code": "AT", "Population": 1345.0, "Lat": 47.73183, "Lon": 16.17094}], "Schwarzau im Gebirge": [{"Name": "Schwarzau im Gebirge", "Country Code": "AT", "Population": 169.0, "Lat": 47.81223, "Lon": 15.70581}], "Schwarzau im Schwarzautal": [{"Name": "Schwarzau im Schwarzautal", "Country Code": "AT", "Population": 259.0, "Lat": 46.87886, "Lon": 15.66421}], "Schwarzenau": [{"Name": "Schwarzenau", "Country Code": "AT", "Population": 858.0, "Lat": 48.74436, "Lon": 15.25838}], "Schwarzenbach": [{"Name": "Schwarzenbach", "Country Code": "AT", "Population": 941.0, "Lat": 47.63547, "Lon": 16.35109}, {"Name": "Schwarzenbach", "Country Code": "DE", "Population": 1129.0, "Lat": 49.83876, "Lon": 12.38005}], "Schwarzenbach an der Pielach": [{"Name": "Schwarzenbach an der Pielach", "Country Code": "AT", "Population": 0.0, "Lat": 47.93333, "Lon": 15.38333}], "Schwarzenbach an der Saale": [{"Name": "Schwarzenbach an der Saale", "Country Code": "DE", "Population": 11375.0, "Lat": 50.22279, "Lon": 11.93504}], "Schwarzenbek": [{"Name": "Schwarzenbek", "Country Code": "DE", "Population": 14832.0, "Lat": 53.50303, "Lon": 10.48055}], "Schwarzenberg": [{"Name": "Schwarzenberg", "Country Code": "AT", "Population": 1850.0, "Lat": 47.41415, "Lon": 9.85154}, {"Name": "Schwarzenberg", "Country Code": "CH", "Population": 1591.0, "Lat": 47.01705, "Lon": 8.17261}, {"Name": "Schwarzenberg", "Country Code": "DE", "Population": 16168.0, "Lat": 50.53791, "Lon": 12.78522}], "Schwarzenborn": [{"Name": "Schwarzenborn", "Country Code": "DE", "Population": 1251.0, "Lat": 50.90977, "Lon": 9.44658}], "Schwarzenbruck": [{"Name": "Schwarzenbruck", "Country Code": "DE", "Population": 8690.0, "Lat": 49.35778, "Lon": 11.24333}], "Schwarzenfeld": [{"Name": "Schwarzenfeld", "Country Code": "DE", "Population": 6398.0, "Lat": 49.38774, "Lon": 12.13484}], "Schwarzer Berg": [{"Name": "Schwarzer Berg", "Country Code": "DE", "Population": 4721.0, "Lat": 52.28989, "Lon": 10.51201}], "Schwarzheide": [{"Name": "Schwarzheide", "Country Code": "DE", "Population": 6646.0, "Lat": 51.47671, "Lon": 13.85559}], "Schwarzhofen": [{"Name": "Schwarzhofen", "Country Code": "DE", "Population": 1496.0, "Lat": 49.37749, "Lon": 12.3449}], "Schwaz": [{"Name": "Schwaz", "Country Code": "AT", "Population": 13728.0, "Lat": 47.35169, "Lon": 11.71014}], "Schwebheim": [{"Name": "Schwebheim", "Country Code": "DE", "Population": 4023.0, "Lat": 49.99036, "Lon": 10.24776}], "Schwechat": [{"Name": "Schwechat", "Country Code": "AT", "Population": 12351.0, "Lat": 48.13333, "Lon": 16.46667}], "Schwedelbach": [{"Name": "Schwedelbach", "Country Code": "DE", "Population": 1119.0, "Lat": 49.49557, "Lon": 7.59366}], "Schwedt (Oder)": [{"Name": "Schwedt (Oder)", "Country Code": "DE", "Population": 30189.0, "Lat": 53.05963, "Lon": 14.28154}], "Schwegenheim": [{"Name": "Schwegenheim", "Country Code": "DE", "Population": 2996.0, "Lat": 49.27, "Lon": 8.32861}], "Schweich": [{"Name": "Schweich", "Country Code": "DE", "Population": 6533.0, "Lat": 49.82215, "Lon": 6.75256}], "Schweigen-Rechtenbach": [{"Name": "Schweigen-Rechtenbach", "Country Code": "DE", "Population": 1472.0, "Lat": 49.05314, "Lon": 7.95638}], "Schweiggers": [{"Name": "Schweiggers", "Country Code": "AT", "Population": 746.0, "Lat": 48.66667, "Lon": 15.06667}], "Schweighouse-sur-Moder": [{"Name": "Schweighouse-sur-Moder", "Country Code": "FR", "Population": 4884.0, "Lat": 48.82009, "Lon": 7.7281}], "Schweina": [{"Name": "Schweina", "Country Code": "DE", "Population": 3098.0, "Lat": 50.82502, "Lon": 10.33788}], "Schweinbach": [{"Name": "Schweinbach", "Country Code": "AT", "Population": 1454.0, "Lat": 48.34033, "Lon": 14.42247}], "Schweinfurt": [{"Name": "Schweinfurt", "Country Code": "DE", "Population": 54012.0, "Lat": 50.04937, "Lon": 10.22175}], "Schweitenkirchen": [{"Name": "Schweitenkirchen", "Country Code": "DE", "Population": 4876.0, "Lat": 48.50333, "Lon": 11.60451}], "Schweizer-Reneke": [{"Name": "Schweizer-Reneke", "Country Code": "ZA", "Population": 70214.0, "Lat": -27.18871, "Lon": 25.32931}], "Schwellbrunn": [{"Name": "Schwellbrunn", "Country Code": "CH", "Population": 1517.0, "Lat": 47.35255, "Lon": 9.24894}], "Schwelm": [{"Name": "Schwelm", "Country Code": "DE", "Population": 30235.0, "Lat": 51.28635, "Lon": 7.29388}], "Schwendau": [{"Name": "Schwendau", "Country Code": "AT", "Population": 1725.0, "Lat": 47.19753, "Lon": 11.85897}], "Schwendi": [{"Name": "Schwendi", "Country Code": "DE", "Population": 6309.0, "Lat": 48.17424, "Lon": 9.97541}], "Schwendt": [{"Name": "Schwendt", "Country Code": "AT", "Population": 823.0, "Lat": 47.63182, "Lon": 12.39266}], "Schwenksville": [{"Name": "Schwenksville", "Country Code": "US", "Population": 1398.0, "Lat": 40.25621, "Lon": -75.46379}], "Schwenningen": [{"Name": "Schwenningen", "Country Code": "DE", "Population": 1478.0, "Lat": 48.65, "Lon": 10.65}, {"Name": "Schwenningen", "Country Code": "DE", "Population": 1563.0, "Lat": 48.1, "Lon": 9.0}], "Schwepnitz": [{"Name": "Schwepnitz", "Country Code": "DE", "Population": 2823.0, "Lat": 51.32809, "Lon": 13.95772}], "Schwerin": [{"Name": "Schwerin", "Country Code": "DE", "Population": 96641.0, "Lat": 53.62937, "Lon": 11.41316}], "Schwertberg": [{"Name": "Schwertberg", "Country Code": "AT", "Population": 3895.0, "Lat": 48.2734, "Lon": 14.58474}], "Schwerte": [{"Name": "Schwerte", "Country Code": "DE", "Population": 50399.0, "Lat": 51.44387, "Lon": 7.5675}], "Schwerzenbach": [{"Name": "Schwerzenbach", "Country Code": "CH", "Population": 4180.0, "Lat": 47.38213, "Lon": 8.65727}], "Schwerzenbach / Blatten": [{"Name": "Schwerzenbach / Blatten", "Country Code": "CH", "Population": 1078.0, "Lat": 47.38308, "Lon": 8.64954}], "Schwerzenbach / Chimli": [{"Name": "Schwerzenbach / Chimli", "Country Code": "CH", "Population": 1020.0, "Lat": 47.38592, "Lon": 8.65888}], "Schwetzingen": [{"Name": "Schwetzingen", "Country Code": "DE", "Population": 22593.0, "Lat": 49.38217, "Lon": 8.5823}], "Schwieberdingen": [{"Name": "Schwieberdingen", "Country Code": "DE", "Population": 10736.0, "Lat": 48.87644, "Lon": 9.07439}], "Schwindegg": [{"Name": "Schwindegg", "Country Code": "DE", "Population": 3501.0, "Lat": 48.27155, "Lon": 12.25978}], "Schwindratzheim": [{"Name": "Schwindratzheim", "Country Code": "FR", "Population": 1782.0, "Lat": 48.75582, "Lon": 7.59898}], "Schwoich": [{"Name": "Schwoich", "Country Code": "AT", "Population": 2515.0, "Lat": 47.546, "Lon": 12.14049}], "Schworstadt": [{"Name": "Schw\u00f6rstadt", "Country Code": "DE", "Population": 2459.0, "Lat": 47.59314, "Lon": 7.8784}], "Schwyz": [{"Name": "Schwyz", "Country Code": "CH", "Population": 14177.0, "Lat": 47.02076, "Lon": 8.65414}], "Sciacca": [{"Name": "Sciacca", "Country Code": "IT", "Population": 40569.0, "Lat": 37.50693, "Lon": 13.08399}], "Sciara": [{"Name": "Sciara", "Country Code": "IT", "Population": 2623.0, "Lat": 37.91511, "Lon": 13.76177}], "Sciarborasca": [{"Name": "Sciarborasca", "Country Code": "IT", "Population": 1732.0, "Lat": 44.40182, "Lon": 8.61541}], "Sciaves": [{"Name": "Sciaves", "Country Code": "IT", "Population": 498.0, "Lat": 46.76859, "Lon": 11.66607}], "Scicli": [{"Name": "Scicli", "Country Code": "IT", "Population": 16109.0, "Lat": 36.79014, "Lon": 14.7028}], "Scido": [{"Name": "Scido", "Country Code": "IT", "Population": 927.0, "Lat": 38.24439, "Lon": 15.93251}], "Scierie": [{"Name": "Scierie", "Country Code": "CI", "Population": 13694.0, "Lat": 6.32778, "Lon": -5.52229}], "Sciez": [{"Name": "Sciez", "Country Code": "FR", "Population": 4898.0, "Lat": 46.33251, "Lon": 6.38413}], "Scilla": [{"Name": "Scilla", "Country Code": "IT", "Population": 3402.0, "Lat": 38.25201, "Lon": 15.71837}], "Scillato": [{"Name": "Scillato", "Country Code": "IT", "Population": 597.0, "Lat": 37.85778, "Lon": 13.90632}], "Scinawa": [{"Name": "\u015acinawa", "Country Code": "PL", "Population": 5863.0, "Lat": 51.41626, "Lon": 16.4251}], "Sciolze": [{"Name": "Sciolze", "Country Code": "IT", "Population": 307.0, "Lat": 45.09453, "Lon": 7.87818}], "Scionzier": [{"Name": "Scionzier", "Country Code": "FR", "Population": 6766.0, "Lat": 46.0601, "Lon": 6.55271}], "Sciotodale": [{"Name": "Sciotodale", "Country Code": "US", "Population": 1081.0, "Lat": 38.7548, "Lon": -82.86878}], "Scisciano": [{"Name": "Scisciano", "Country Code": "IT", "Population": 4209.0, "Lat": 40.90663, "Lon": 14.47451}], "Scissors": [{"Name": "Scissors", "Country Code": "US", "Population": 3186.0, "Lat": 26.1398, "Lon": -98.05389}], "Scituate": [{"Name": "Scituate", "Country Code": "US", "Population": 5245.0, "Lat": 42.19593, "Lon": -70.72587}], "Sclafani Bagni": [{"Name": "Sclafani Bagni", "Country Code": "IT", "Population": 396.0, "Lat": 37.82175, "Lon": 13.85476}], "Sclayn": [{"Name": "Sclayn", "Country Code": "BE", "Population": 1668.0, "Lat": 50.48979, "Lon": 5.02831}], "Scleddau": [{"Name": "Scleddau", "Country Code": "GB", "Population": 0.0, "Lat": 51.96833, "Lon": -4.99333}], "Scoarta": [{"Name": "Scoar\u0163a", "Country Code": "RO", "Population": 4973.0, "Lat": 45.01667, "Lon": 23.45}], "Scobey": [{"Name": "Scobey", "Country Code": "US", "Population": 1033.0, "Lat": 48.79252, "Lon": -105.42083}], "Scobinti": [{"Name": "Scobin\u0163i", "Country Code": "RO", "Population": 7618.0, "Lat": 47.38333, "Lon": 26.93333}], "Scoglitti": [{"Name": "Scoglitti", "Country Code": "IT", "Population": 4175.0, "Lat": 36.89424, "Lon": 14.43355}], "Scole": [{"Name": "Scole", "Country Code": "GB", "Population": 1028.0, "Lat": 52.36706, "Lon": 1.15674}], "Scomigo": [{"Name": "Scomigo", "Country Code": "IT", "Population": 1222.0, "Lat": 45.94255, "Lon": 12.32014}], "Scone": [{"Name": "Scone", "Country Code": "AU", "Population": 5613.0, "Lat": -32.05014, "Lon": 150.86893}, {"Name": "Scone", "Country Code": "GB", "Population": 4840.0, "Lat": 56.41942, "Lon": -3.40507}], "Scontrone": [{"Name": "Scontrone", "Country Code": "IT", "Population": 212.0, "Lat": 41.74681, "Lon": 14.0388}], "Scopa": [{"Name": "Scopa", "Country Code": "IT", "Population": 256.0, "Lat": 45.79297, "Lon": 8.11402}], "Scopello": [{"Name": "Scopello", "Country Code": "IT", "Population": 309.0, "Lat": 45.77369, "Lon": 8.09435}], "Scoppito": [{"Name": "Scoppito", "Country Code": "IT", "Population": 616.0, "Lat": 42.36948, "Lon": 13.25936}], "Scorbe-Clairvaux": [{"Name": "Scorb\u00e9-Clairvaux", "Country Code": "FR", "Population": 2288.0, "Lat": 46.81303, "Lon": 0.41344}], "Scordia": [{"Name": "Scordia", "Country Code": "IT", "Population": 16645.0, "Lat": 37.29548, "Lon": 14.84058}], "Scoresby": [{"Name": "Scoresby", "Country Code": "AU", "Population": 6066.0, "Lat": -37.9, "Lon": 145.23333}], "Scornicesti": [{"Name": "Scornice\u015fti", "Country Code": "RO", "Population": 12456.0, "Lat": 44.56667, "Lon": 24.55}], "Scorrano": [{"Name": "Scorrano", "Country Code": "IT", "Population": 6476.0, "Lat": 40.09018, "Lon": 18.29993}], "Scortaru Nou": [{"Name": "Scor\u0163aru Nou", "Country Code": "RO", "Population": 1483.0, "Lat": 45.31667, "Lon": 27.6}], "Scortaru Vechi": [{"Name": "Scor\u021baru Vechi", "Country Code": "RO", "Population": 1121.0, "Lat": 45.21886, "Lon": 27.75489}], "Scorteni": [{"Name": "Scor\u0163eni", "Country Code": "RO", "Population": 3159.0, "Lat": 46.55, "Lon": 26.65}, {"Name": "Scor\u0163eni", "Country Code": "RO", "Population": 5995.0, "Lat": 45.1, "Lon": 25.85}], "Scortichino": [{"Name": "Scortichino", "Country Code": "IT", "Population": 1475.0, "Lat": 44.88333, "Lon": 11.33333}], "Scortoasa": [{"Name": "Scor\u0163oasa", "Country Code": "RO", "Population": 3374.0, "Lat": 45.36403, "Lon": 26.66116}], "Scorton": [{"Name": "Scorton", "Country Code": "GB", "Population": 1012.0, "Lat": 54.39785, "Lon": -1.61276}], "Scorze": [{"Name": "Scorz\u00e8", "Country Code": "IT", "Population": 8699.0, "Lat": 45.57405, "Lon": 12.11156}], "Scotby": [{"Name": "Scotby", "Country Code": "GB", "Population": 2366.0, "Lat": 54.89004, "Lon": -2.87464}], "Scotch Plains": [{"Name": "Scotch Plains", "Country Code": "US", "Population": 23584.0, "Lat": 40.65538, "Lon": -74.38987}], "Scotchtown": [{"Name": "Scotchtown", "Country Code": "US", "Population": 9212.0, "Lat": 41.48148, "Lon": -74.36015}], "Scotia": [{"Name": "Scotia", "Country Code": "US", "Population": 7727.0, "Lat": 42.82647, "Lon": -73.96429}], "Scotland": [{"Name": "Scotland", "Country Code": "US", "Population": 1395.0, "Lat": 39.9687, "Lon": -77.58721}], "Scotland Neck": [{"Name": "Scotland Neck", "Country Code": "US", "Population": 1965.0, "Lat": 36.1296, "Lon": -77.42025}], "Scott": [{"Name": "Scott", "Country Code": "US", "Population": 9018.0, "Lat": 30.23576, "Lon": -92.09457}], "Scott Air Force Base": [{"Name": "Scott Air Force Base", "Country Code": "US", "Population": 3612.0, "Lat": 38.5427, "Lon": -89.85035}], "Scott City": [{"Name": "Scott City", "Country Code": "US", "Population": 4526.0, "Lat": 37.21672, "Lon": -89.52453}, {"Name": "Scott City", "Country Code": "US", "Population": 3838.0, "Lat": 38.48252, "Lon": -100.90709}], "Scott Lake": [{"Name": "Scott Lake", "Country Code": "US", "Population": 14425.0, "Lat": 25.94148, "Lon": -80.23199}], "Scottburgh": [{"Name": "Scottburgh", "Country Code": "ZA", "Population": 23949.0, "Lat": -30.28666, "Lon": 30.75316}], "Scottdale": [{"Name": "Scottdale", "Country Code": "US", "Population": 4251.0, "Lat": 40.10035, "Lon": -79.58698}, {"Name": "Scottdale", "Country Code": "US", "Population": 10631.0, "Lat": 33.78983, "Lon": -84.26409}], "Scotter": [{"Name": "Scotter", "Country Code": "GB", "Population": 2865.0, "Lat": 53.49652, "Lon": -0.67429}], "Scotts Mill": [{"Name": "Scotts Mill", "Country Code": "US", "Population": 2400.0, "Lat": 35.72666, "Lon": -78.8839}], "Scotts Valley": [{"Name": "Scotts Valley", "Country Code": "US", "Population": 11945.0, "Lat": 37.05106, "Lon": -122.01468}], "Scottsbluff": [{"Name": "Scottsbluff", "Country Code": "US", "Population": 14802.0, "Lat": 41.86663, "Lon": -103.66717}], "Scottsboro": [{"Name": "Scottsboro", "Country Code": "US", "Population": 14722.0, "Lat": 34.67231, "Lon": -86.03415}], "Scottsburg": [{"Name": "Scottsburg", "Country Code": "US", "Population": 6674.0, "Lat": 38.68561, "Lon": -85.77025}], "Scottsdale": [{"Name": "Scottsdale", "Country Code": "AU", "Population": 2302.0, "Lat": -41.1578, "Lon": 147.51727}, {"Name": "Scottsdale", "Country Code": "US", "Population": 236839.0, "Lat": 33.50921, "Lon": -111.89903}], "Scottsville": [{"Name": "Scottsville", "Country Code": "US", "Population": 1977.0, "Lat": 43.0259, "Lon": -77.74528}, {"Name": "Scottsville", "Country Code": "US", "Population": 4411.0, "Lat": 36.75338, "Lon": -86.19054}], "Scottville": [{"Name": "Scottville", "Country Code": "US", "Population": 1213.0, "Lat": 43.95473, "Lon": -86.28008}], "Scranton": [{"Name": "Scranton", "Country Code": "US", "Population": 77118.0, "Lat": 41.40916, "Lon": -75.6649}], "Scrioastea": [{"Name": "Scrioa\u015ftea", "Country Code": "RO", "Population": 4244.0, "Lat": 44.15, "Lon": 24.95}], "Sculia": [{"Name": "Sculia", "Country Code": "RO", "Population": 1048.0, "Lat": 45.44429, "Lon": 21.43225}], "Scullin": [{"Name": "Scullin", "Country Code": "AU", "Population": 2851.0, "Lat": -35.23462, "Lon": 149.039}], "Scundu": [{"Name": "Scundu", "Country Code": "RO", "Population": 2203.0, "Lat": 44.83333, "Lon": 24.2}], "Scunthorpe": [{"Name": "Scunthorpe", "Country Code": "GB", "Population": 81576.0, "Lat": 53.57905, "Lon": -0.65437}], "Scuol": [{"Name": "Scuol", "Country Code": "CH", "Population": 2184.0, "Lat": 46.79671, "Lon": 10.29804}], "Scurcola Marsicana": [{"Name": "Scurcola Marsicana", "Country Code": "IT", "Population": 1449.0, "Lat": 42.06313, "Lon": 13.33919}], "Scurelle": [{"Name": "Scurelle", "Country Code": "IT", "Population": 1199.0, "Lat": 46.06451, "Lon": 11.50569}], "Scurta": [{"Name": "Scurta", "Country Code": "RO", "Population": 1958.0, "Lat": 46.26133, "Lon": 27.01548}], "Scurtesti": [{"Name": "Scurte\u0219ti", "Country Code": "RO", "Population": 2522.0, "Lat": 45.13829, "Lon": 26.90397},