{"Valleruela de Sepulveda": [{"Name": "Valleruela de Sep\u00falveda", "Country Code": "ES", "Population": 70.0, "Lat": 41.18794, "Lon": -3.77277}], "Valles": [{"Name": "Vall\u00e9s", "Country Code": "ES", "Population": 95.0, "Lat": 38.98518, "Lon": -0.55696}], "Valles de Palenzuela": [{"Name": "Valles de Palenzuela", "Country Code": "ES", "Population": 100.0, "Lat": 42.12019, "Lon": -4.0775}], "Vallesa de la Guarena": [{"Name": "Vallesa de la Guare\u00f1a", "Country Code": "ES", "Population": 161.0, "Lat": 41.13532, "Lon": -5.32611}], "Vallesaccarda": [{"Name": "Vallesaccarda", "Country Code": "IT", "Population": 650.0, "Lat": 41.06312, "Lon": 15.25205}], "Vallese": [{"Name": "Vallese", "Country Code": "IT", "Population": 3091.0, "Lat": 45.32827, "Lon": 11.08608}], "Valleseco": [{"Name": "Valleseco", "Country Code": "ES", "Population": 4116.0, "Lat": 28.0433, "Lon": -15.57623}], "Vallet": [{"Name": "Vallet", "Country Code": "FR", "Population": 7483.0, "Lat": 47.16133, "Lon": -1.26715}], "Valletta": [{"Name": "Valletta", "Country Code": "MT", "Population": 6794.0, "Lat": 35.89968, "Lon": 14.5148}], "Valleve": [{"Name": "Valleve", "Country Code": "IT", "Population": 129.0, "Lat": 46.02819, "Lon": 9.74375}], "Valley": [{"Name": "Valley", "Country Code": "DE", "Population": 2968.0, "Lat": 47.8931, "Lon": 11.77915}, {"Name": "Valley", "Country Code": "GB", "Population": 2361.0, "Lat": 53.2849, "Lon": -4.56644}, {"Name": "Valley", "Country Code": "US", "Population": 2117.0, "Lat": 41.31278, "Lon": -96.34614}, {"Name": "Valley", "Country Code": "US", "Population": 9464.0, "Lat": 32.81874, "Lon": -85.17939}], "Valley Center": [{"Name": "Valley Center", "Country Code": "US", "Population": 9277.0, "Lat": 33.21837, "Lon": -117.0342}, {"Name": "Valley Center", "Country Code": "US", "Population": 7222.0, "Lat": 37.83473, "Lon": -97.37338}], "Valley City": [{"Name": "Valley City", "Country Code": "US", "Population": 6669.0, "Lat": 46.92331, "Lon": -98.00315}], "Valley Cottage": [{"Name": "Valley Cottage", "Country Code": "US", "Population": 9107.0, "Lat": 41.11815, "Lon": -73.95542}], "Valley East": [{"Name": "Valley East", "Country Code": "CA", "Population": 17451.0, "Lat": 46.64499, "Lon": -80.9973}], "Valley Falls": [{"Name": "Valley Falls", "Country Code": "US", "Population": 6299.0, "Lat": 35.01595, "Lon": -81.97483}, {"Name": "Valley Falls", "Country Code": "US", "Population": 11547.0, "Lat": 41.90677, "Lon": -71.39061}, {"Name": "Valley Falls", "Country Code": "US", "Population": 1157.0, "Lat": 39.34333, "Lon": -95.46025}], "Valley Glen": [{"Name": "Valley Glen", "Country Code": "US", "Population": 60000.0, "Lat": 34.18991, "Lon": -118.44953}], "Valley Grande": [{"Name": "Valley Grande", "Country Code": "US", "Population": 3849.0, "Lat": 32.50902, "Lon": -86.98749}], "Valley Green": [{"Name": "Valley Green", "Country Code": "US", "Population": 3429.0, "Lat": 40.15731, "Lon": -76.79275}], "Valley Heights": [{"Name": "Valley Heights", "Country Code": "AU", "Population": 1207.0, "Lat": -33.7, "Lon": 150.58333}], "Valley Hill": [{"Name": "Valley Hill", "Country Code": "US", "Population": 2070.0, "Lat": 35.29845, "Lon": -82.48318}], "Valley Mills": [{"Name": "Valley Mills", "Country Code": "US", "Population": 1177.0, "Lat": 31.65933, "Lon": -97.47224}], "Valley Park": [{"Name": "Valley Park", "Country Code": "US", "Population": 6974.0, "Lat": 38.54922, "Lon": -90.49262}], "Valley Springs": [{"Name": "Valley Springs", "Country Code": "US", "Population": 3553.0, "Lat": 38.19159, "Lon": -120.8291}], "Valley Station": [{"Name": "Valley Station", "Country Code": "US", "Population": 22756.0, "Lat": 38.11118, "Lon": -85.87024}], "Valley Stream": [{"Name": "Valley Stream", "Country Code": "US", "Population": 37962.0, "Lat": 40.66427, "Lon": -73.70846}], "Valley View": [{"Name": "Valley View", "Country Code": "AU", "Population": 6007.0, "Lat": -34.83994, "Lon": 138.66072}, {"Name": "Valley View", "Country Code": "US", "Population": 2012.0, "Lat": 41.38783, "Lon": -81.60457}, {"Name": "Valley View", "Country Code": "US", "Population": 2817.0, "Lat": 39.9501, "Lon": -76.70108}, {"Name": "Valley View", "Country Code": "US", "Population": 1683.0, "Lat": 40.64592, "Lon": -76.53913}], "Valley of Peace": [{"Name": "Valley of Peace", "Country Code": "BZ", "Population": 1809.0, "Lat": 17.33472, "Lon": -88.83472}], "Valleymount": [{"Name": "Valleymount", "Country Code": "IE", "Population": 1756.0, "Lat": 53.10389, "Lon": -6.55361}], "Valleyview": [{"Name": "Valleyview", "Country Code": "CA", "Population": 1863.0, "Lat": 55.06673, "Lon": -117.28585}], "Vallfogona de Balaguer": [{"Name": "Vallfogona de Balaguer", "Country Code": "ES", "Population": 1884.0, "Lat": 41.75211, "Lon": 0.81385}], "Vallfogona de Riucorb": [{"Name": "Vallfogona de Riucorb", "Country Code": "ES", "Population": 0.0, "Lat": 41.5628, "Lon": 1.23691}], "Vallgorguina": [{"Name": "Vallgorguina", "Country Code": "ES", "Population": 1827.0, "Lat": 41.64822, "Lon": 2.50996}], "Valli": [{"Name": "Valli", "Country Code": "IT", "Population": 1143.0, "Lat": 45.22342, "Lon": 12.1899}], "Valli del Pasubio": [{"Name": "Valli del Pasubio", "Country Code": "IT", "Population": 927.0, "Lat": 45.7403, "Lon": 11.26354}], "Vallibona": [{"Name": "Vallibona", "Country Code": "ES", "Population": 84.0, "Lat": 40.603, "Lon": 0.04642}], "Vallieres": [{"Name": "Valli\u00e8res", "Country Code": "FR", "Population": 1378.0, "Lat": 45.90043, "Lon": 5.93863}], "Vallinfreda": [{"Name": "Vallinfreda", "Country Code": "IT", "Population": 239.0, "Lat": 42.08485, "Lon": 12.99595}], "Vallio Terme": [{"Name": "Vallio Terme", "Country Code": "IT", "Population": 1148.0, "Lat": 45.60979, "Lon": 10.39737}], "Valliquerville": [{"Name": "Valliquerville", "Country Code": "FR", "Population": 1208.0, "Lat": 49.61385, "Lon": 0.68703}], "Vallirana": [{"Name": "Vallirana", "Country Code": "ES", "Population": 14066.0, "Lat": 41.38676, "Lon": 1.93205}], "Vallmoll": [{"Name": "Vallmoll", "Country Code": "ES", "Population": 1415.0, "Lat": 41.24311, "Lon": 1.249}], "Vallo Torinese": [{"Name": "Vallo Torinese", "Country Code": "IT", "Population": 748.0, "Lat": 45.22355, "Lon": 7.49632}], "Vallo della Lucania": [{"Name": "Vallo della Lucania", "Country Code": "IT", "Population": 6899.0, "Lat": 40.22786, "Lon": 15.26635}], "Valloire": [{"Name": "Valloire", "Country Code": "FR", "Population": 1346.0, "Lat": 45.16542, "Lon": 6.42998}], "Vallon-Pont-d'Arc": [{"Name": "Vallon-Pont-d'Arc", "Country Code": "FR", "Population": 2337.0, "Lat": 44.40685, "Lon": 4.39374}], "Vallon-en-Sully": [{"Name": "Vallon-en-Sully", "Country Code": "FR", "Population": 1754.0, "Lat": 46.53629, "Lon": 2.60804}], "Vallonga": [{"Name": "Vallonga", "Country Code": "IT", "Population": 1298.0, "Lat": 45.27248, "Lon": 12.0786}], "Vallorbe": [{"Name": "Vallorbe", "Country Code": "CH", "Population": 3098.0, "Lat": 46.71256, "Lon": 6.37894}], "Valloriate": [{"Name": "Valloriate", "Country Code": "IT", "Population": 166.0, "Lat": 44.33763, "Lon": 7.37393}], "Vallromanes": [{"Name": "Vallromanes", "Country Code": "ES", "Population": 0.0, "Lat": 41.53333, "Lon": 2.3}], "Valls": [{"Name": "Valls", "Country Code": "ES", "Population": 25092.0, "Lat": 41.28612, "Lon": 1.24993}], "Valluercanes": [{"Name": "Vallu\u00e9rcanes", "Country Code": "ES", "Population": 103.0, "Lat": 42.5722, "Lon": -3.12113}], "Vallvidrera, el Tibidabo i les Planes": [{"Name": "Vallvidrera, el Tibidabo i les Planes", "Country Code": "ES", "Population": 4666.0, "Lat": 41.4197, "Lon": 2.08911}], "Valmacca": [{"Name": "Valmacca", "Country Code": "IT", "Population": 717.0, "Lat": 45.10101, "Lon": 8.58382}], "Valmadonna": [{"Name": "Valmadonna", "Country Code": "IT", "Population": 1394.0, "Lat": 44.97444, "Lon": 8.61146}], "Valmadrera-Caserta": [{"Name": "Valmadrera-Caserta", "Country Code": "IT", "Population": 11609.0, "Lat": 45.84628, "Lon": 9.35824}], "Valmadrid": [{"Name": "Valmadrid", "Country Code": "ES", "Population": 102.0, "Lat": 41.44351, "Lon": -0.88482}], "Valmala": [{"Name": "Valmala", "Country Code": "ES", "Population": 32.0, "Lat": 42.3059, "Lon": -3.25456}, {"Name": "Valmala", "Country Code": "IT", "Population": 12.0, "Lat": 44.54423, "Lon": 7.34603}], "Valmeyer": [{"Name": "Valmeyer", "Country Code": "US", "Population": 1263.0, "Lat": 38.30561, "Lon": -90.27651}], "Valmiera": [{"Name": "Valmiera", "Country Code": "LV", "Population": 26963.0, "Lat": 57.54108, "Lon": 25.42751}], "Valmojado": [{"Name": "Valmojado", "Country Code": "ES", "Population": 2887.0, "Lat": 40.20444, "Lon": -4.09146}], "Valmondois": [{"Name": "Valmondois", "Country Code": "FR", "Population": 1289.0, "Lat": 49.0973, "Lon": 2.18996}], "Valmont": [{"Name": "Valmont", "Country Code": "FR", "Population": 3312.0, "Lat": 49.0843, "Lon": 6.69781}], "Valmontone": [{"Name": "Valmontone", "Country Code": "IT", "Population": 13001.0, "Lat": 41.77323, "Lon": 12.91856}], "Valmorea": [{"Name": "Valmorea", "Country Code": "IT", "Population": 2467.0, "Lat": 45.81518, "Lon": 8.93064}], "Valnegra": [{"Name": "Valnegra", "Country Code": "IT", "Population": 207.0, "Lat": 45.94909, "Lon": 9.68935}], "Valognes": [{"Name": "Valognes", "Country Code": "FR", "Population": 7873.0, "Lat": 49.50881, "Lon": -1.47047}], "Valongo": [{"Name": "Valongo", "Country Code": "PT", "Population": 5085.0, "Lat": 40.61667, "Lon": -8.45}, {"Name": "Valongo", "Country Code": "PT", "Population": 21328.0, "Lat": 41.18883, "Lon": -8.49857}], "Valor": [{"Name": "V\u00e1lor", "Country Code": "ES", "Population": 743.0, "Lat": 36.99618, "Lon": -3.08287}], "Valoria la Buena": [{"Name": "Valoria la Buena", "Country Code": "ES", "Population": 674.0, "Lat": 41.79966, "Lon": -4.53055}], "Valoua": [{"Name": "Valoua", "Country Code": "CI", "Population": 5303.0, "Lat": 5.93088, "Lon": -6.10075}], "Valozhyn": [{"Name": "Valozhyn", "Country Code": "BY", "Population": 10488.0, "Lat": 54.0892, "Lon": 26.5266}], "Valpacos": [{"Name": "Valpa\u00e7os", "Country Code": "PT", "Population": 4573.0, "Lat": 41.60746, "Lon": -7.31088}], "Valpalmas": [{"Name": "Valpalmas", "Country Code": "ES", "Population": 166.0, "Lat": 42.15821, "Lon": -0.85481}], "Valparai": [{"Name": "Valparai", "Country Code": "IN", "Population": 90353.0, "Lat": 10.32691, "Lon": 76.95116}], "Valparaiso": [{"Name": "Valpara\u00edso", "Country Code": "BR", "Population": 15938.0, "Lat": -21.22778, "Lon": -50.86833}, {"Name": "Valpara\u00edso", "Country Code": "CL", "Population": 282448.0, "Lat": -33.036, "Lon": -71.62963}, {"Name": "Valpara\u00edso", "Country Code": "CO", "Population": 3626.0, "Lat": 5.615, "Lon": -75.62422}, {"Name": "Valpara\u00edso", "Country Code": "CO", "Population": 6082.0, "Lat": 1.19403, "Lon": -75.70746}, {"Name": "Valpara\u00edso", "Country Code": "MX", "Population": 12919.0, "Lat": 22.77104, "Lon": -103.56991}, {"Name": "Valparaiso", "Country Code": "US", "Population": 32626.0, "Lat": 41.47309, "Lon": -87.06114}, {"Name": "Valparaiso", "Country Code": "US", "Population": 5023.0, "Lat": 30.50853, "Lon": -86.50273}], "Valpelline": [{"Name": "Valpelline", "Country Code": "IT", "Population": 385.0, "Lat": 45.82486, "Lon": 7.3255}], "Valperga": [{"Name": "Valperga", "Country Code": "IT", "Population": 2548.0, "Lat": 45.37004, "Lon": 7.66124}], "Valpovo": [{"Name": "Valpovo", "Country Code": "HR", "Population": 6332.0, "Lat": 45.66083, "Lon": 18.41861}], "Valpoy": [{"Name": "Valpoy", "Country Code": "IN", "Population": 8330.0, "Lat": 15.53239, "Lon": 74.13671}], "Valprato Soana": [{"Name": "Valprato Soana", "Country Code": "IT", "Population": 42.0, "Lat": 45.52166, "Lon": 7.54948}], "Valras-Plage": [{"Name": "Valras-Plage", "Country Code": "FR", "Population": 4078.0, "Lat": 43.24808, "Lon": 3.29032}], "Valreas": [{"Name": "Valr\u00e9as", "Country Code": "FR", "Population": 10211.0, "Lat": 44.3849, "Lon": 4.99125}], "Valrico": [{"Name": "Valrico", "Country Code": "US", "Population": 35545.0, "Lat": 27.93789, "Lon": -82.23644}], "Valros": [{"Name": "Valros", "Country Code": "FR", "Population": 1276.0, "Lat": 43.4201, "Lon": 3.36603}], "Vals": [{"Name": "Vals", "Country Code": "AT", "Population": 532.0, "Lat": 47.04507, "Lon": 11.53281}], "Vals Platz": [{"Name": "Vals Platz", "Country Code": "CH", "Population": 1006.0, "Lat": 46.61647, "Lon": 9.18025}], "Vals-les-Bains": [{"Name": "Vals-les-Bains", "Country Code": "FR", "Population": 3777.0, "Lat": 44.66561, "Lon": 4.36615}], "Vals-pres-le-Puy": [{"Name": "Vals-pr\u00e8s-le-Puy", "Country Code": "FR", "Population": 3758.0, "Lat": 45.03155, "Lon": 3.87787}], "Valsad": [{"Name": "Vals\u0101d", "Country Code": "IN", "Population": 72929.0, "Lat": 20.61013, "Lon": 72.93428}], "Valsalabroso": [{"Name": "Valsalabroso", "Country Code": "ES", "Population": 189.0, "Lat": 41.10962, "Lon": -6.50269}], "Valsalobre": [{"Name": "Valsalobre", "Country Code": "ES", "Population": 65.0, "Lat": 40.61742, "Lon": -2.09297}], "Valsamata": [{"Name": "Valsam\u00e1ta", "Country Code": "GR", "Population": 1008.0, "Lat": 38.176, "Lon": 20.58392}], "Valsavarenche": [{"Name": "Valsavarenche", "Country Code": "IT", "Population": 180.0, "Lat": 45.59186, "Lon": 7.21}], "Valseca": [{"Name": "Valseca", "Country Code": "ES", "Population": 327.0, "Lat": 40.99933, "Lon": -4.17514}], "Valsequillo de Gran Canaria": [{"Name": "Valsequillo de Gran Canaria", "Country Code": "ES", "Population": 8635.0, "Lat": 27.98562, "Lon": -15.49725}], "Valsinni": [{"Name": "Valsinni", "Country Code": "IT", "Population": 1400.0, "Lat": 40.17098, "Lon": 16.44388}], "Valstagna": [{"Name": "Valstagna", "Country Code": "IT", "Population": 970.0, "Lat": 45.85108, "Lon": 11.66642}], "Valstrona": [{"Name": "Valstrona", "Country Code": "IT", "Population": 1270.0, "Lat": 45.90767, "Lon": 8.34322}], "Valtablado del Rio": [{"Name": "Valtablado del R\u00edo", "Country Code": "ES", "Population": 20.0, "Lat": 40.7142, "Lon": -2.40225}], "Valtajeros": [{"Name": "Valtajeros", "Country Code": "ES", "Population": 28.0, "Lat": 41.93808, "Lon": -2.22289}], "Valtero": [{"Name": "Valter\u00f3", "Country Code": "GR", "Population": 1102.0, "Lat": 41.17927, "Lon": 23.32022}], "Valthe": [{"Name": "Valthe", "Country Code": "NL", "Population": 1095.0, "Lat": 52.84583, "Lon": 6.89444}], "Valthermond": [{"Name": "Valthermond", "Country Code": "NL", "Population": 3385.0, "Lat": 52.88167, "Lon": 6.9625}], "Valtice": [{"Name": "Valtice", "Country Code": "CZ", "Population": 3656.0, "Lat": 48.74069, "Lon": 16.75499}], "Valtiendas": [{"Name": "Valtiendas", "Country Code": "ES", "Population": 157.0, "Lat": 41.47851, "Lon": -3.91766}], "Valtierra": [{"Name": "Valtierra", "Country Code": "ES", "Population": 2435.0, "Lat": 42.19653, "Lon": -1.63459}], "Valtierrilla": [{"Name": "Valtierrilla", "Country Code": "MX", "Population": 12713.0, "Lat": 20.53244, "Lon": -101.12761}], "Valtimo": [{"Name": "Valtimo", "Country Code": "FI", "Population": 2729.0, "Lat": 63.66667, "Lon": 28.8}], "Valtopina": [{"Name": "Valtopina", "Country Code": "IT", "Population": 714.0, "Lat": 43.05674, "Lon": 12.75307}], "Valtorres": [{"Name": "Valtorres", "Country Code": "ES", "Population": 117.0, "Lat": 41.29855, "Lon": -1.7408}], "Valtorta": [{"Name": "Valtorta", "Country Code": "IT", "Population": 117.0, "Lat": 45.97685, "Lon": 9.53478}], "Valtournenche": [{"Name": "Valtournenche", "Country Code": "IT", "Population": 2198.0, "Lat": 45.87607, "Lon": 7.6243}], "Valu lui Traian": [{"Name": "Valu lui Traian", "Country Code": "RO", "Population": 8733.0, "Lat": 44.16667, "Lon": 28.46667}], "Valuyki": [{"Name": "Valuyki", "Country Code": "RU", "Population": 35887.0, "Lat": 50.2035, "Lon": 38.1067}], "Valva": [{"Name": "Valva", "Country Code": "IT", "Population": 769.0, "Lat": 40.73871, "Lon": 15.26805}], "Valvasone": [{"Name": "Valvasone", "Country Code": "IT", "Population": 1802.0, "Lat": 45.99331, "Lon": 12.86659}], "Valvedditturai": [{"Name": "Valvedditturai", "Country Code": "LK", "Population": 78205.0, "Lat": 9.81667, "Lon": 80.16667}], "Valverde": [{"Name": "Valverde", "Country Code": "ES", "Population": 5000.0, "Lat": 27.80628, "Lon": -17.91578}, {"Name": "Valverde", "Country Code": "IT", "Population": 4913.0, "Lat": 37.57695, "Lon": 15.12419}], "Valverde de Alcala": [{"Name": "Valverde de Alcal\u00e1", "Country Code": "ES", "Population": 346.0, "Lat": 40.41667, "Lon": -3.29631}], "Valverde de Burguillos": [{"Name": "Valverde de Burguillos", "Country Code": "ES", "Population": 325.0, "Lat": 38.3271, "Lon": -6.53648}], "Valverde de Campos": [{"Name": "Valverde de Campos", "Country Code": "ES", "Population": 120.0, "Lat": 41.8351, "Lon": -5.03674}], "Valverde de Jucar": [{"Name": "Valverde de J\u00facar", "Country Code": "ES", "Population": 1372.0, "Lat": 39.71866, "Lon": -2.22135}], "Valverde de Leganes": [{"Name": "Valverde de Legan\u00e9s", "Country Code": "ES", "Population": 3876.0, "Lat": 38.67059, "Lon": -6.98036}], "Valverde de Llerena": [{"Name": "Valverde de Llerena", "Country Code": "ES", "Population": 770.0, "Lat": 38.21667, "Lon": -5.81667}], "Valverde de Merida": [{"Name": "Valverde de M\u00e9rida", "Country Code": "ES", "Population": 1123.0, "Lat": 38.91122, "Lon": -6.21999}], "Valverde de Valdelacasa": [{"Name": "Valverde de Valdelacasa", "Country Code": "ES", "Population": 64.0, "Lat": 40.48155, "Lon": -5.78145}], "Valverde de la Vera": [{"Name": "Valverde de la Vera", "Country Code": "ES", "Population": 706.0, "Lat": 40.12268, "Lon": -5.49541}], "Valverde de la Virgen": [{"Name": "Valverde de la Virgen", "Country Code": "ES", "Population": 4732.0, "Lat": 42.56823, "Lon": -5.68461}], "Valverde de los Arroyos": [{"Name": "Valverde de los Arroyos", "Country Code": "ES", "Population": 102.0, "Lat": 41.1293, "Lon": -3.23333}], "Valverde del Camino": [{"Name": "Valverde del Camino", "Country Code": "ES", "Population": 12780.0, "Lat": 37.57511, "Lon": -6.75432}], "Valverde del Fresno": [{"Name": "Valverde del Fresno", "Country Code": "ES", "Population": 2563.0, "Lat": 40.2221, "Lon": -6.87848}], "Valverde del Majano": [{"Name": "Valverde del Majano", "Country Code": "ES", "Population": 586.0, "Lat": 40.95689, "Lon": -4.23468}], "Valverde-Enrique": [{"Name": "Valverde-Enrique", "Country Code": "ES", "Population": 208.0, "Lat": 42.30459, "Lon": -5.2999}], "Valverdejo": [{"Name": "Valverdejo", "Country Code": "ES", "Population": 124.0, "Lat": 39.61667, "Lon": -2.01667}], "Valverdon": [{"Name": "Valverd\u00f3n", "Country Code": "ES", "Population": 294.0, "Lat": 41.04691, "Lon": -5.76955}], "Valvestino": [{"Name": "Valvestino", "Country Code": "IT", "Population": 287.0, "Lat": 45.76069, "Lon": 10.59547}], "Valya Kuzmyna": [{"Name": "Valya Kuzmyna", "Country Code": "UA", "Population": 1864.0, "Lat": 48.18459, "Lon": 26.01781}], "Valyava": [{"Name": "Valyava", "Country Code": "UA", "Population": 1521.0, "Lat": 48.43491, "Lon": 25.84069}], "Valzemola": [{"Name": "Valzemola", "Country Code": "IT", "Population": 547.0, "Lat": 44.36393, "Lon": 8.17376}], "Vama": [{"Name": "Vama", "Country Code": "RO", "Population": 5995.0, "Lat": 47.56667, "Lon": 25.68333}, {"Name": "Vama", "Country Code": "RO", "Population": 3576.0, "Lat": 47.83333, "Lon": 23.4}], "Vama Buzaului": [{"Name": "Vama Buz\u0103ului", "Country Code": "RO", "Population": 812.0, "Lat": 45.59668, "Lon": 25.99359}], "Vamberk": [{"Name": "Vamberk", "Country Code": "CZ", "Population": 4768.0, "Lat": 50.11756, "Lon": 16.29067}], "Vambolieri": [{"Name": "Vambolieri", "Country Code": "IT", "Population": 1546.0, "Lat": 37.57417, "Lon": 15.16019}], "Vamdrup": [{"Name": "Vamdrup", "Country Code": "DK", "Population": 4809.0, "Lat": 55.42764, "Lon": 9.28435}], "Vammala": [{"Name": "Vammala", "Country Code": "FI", "Population": 14982.0, "Lat": 61.33333, "Lon": 22.9}], "Vamo": [{"Name": "Vamo", "Country Code": "US", "Population": 4727.0, "Lat": 27.222, "Lon": -82.49787}], "Vamos Tamaulipas": [{"Name": "Vamos Tamaulipas", "Country Code": "MX", "Population": 1774.0, "Lat": 25.98667, "Lon": -98.22167}], "Vamosgyork": [{"Name": "V\u00e1mosgy\u00f6rk", "Country Code": "HU", "Population": 2020.0, "Lat": 47.68429, "Lon": 19.92924}], "Vamospercs": [{"Name": "V\u00e1mosp\u00e9rcs", "Country Code": "HU", "Population": 5451.0, "Lat": 47.53333, "Lon": 21.9}], "Vampula": [{"Name": "Vampula", "Country Code": "FI", "Population": 1743.0, "Lat": 61.01667, "Lon": 22.7}], "Vamvakofyto": [{"Name": "Vamvak\u00f3fyto", "Country Code": "GR", "Population": 1061.0, "Lat": 41.17916, "Lon": 23.39602}], "Vamvakou": [{"Name": "Vamvako\u00fa", "Country Code": "GR", "Population": 1104.0, "Lat": 39.33708, "Lon": 22.41983}], "Van": [{"Name": "Van", "Country Code": "TR", "Population": 525016.0, "Lat": 38.49457, "Lon": 43.38323}, {"Name": "Van", "Country Code": "US", "Population": 2685.0, "Lat": 32.52486, "Lon": -95.63718}], "Van Alstyne": [{"Name": "Van Alstyne", "Country Code": "US", "Population": 3344.0, "Lat": 33.4215, "Lon": -96.57721}], "Van Buren": [{"Name": "Van Buren", "Country Code": "US", "Population": 1937.0, "Lat": 47.15727, "Lon": -67.9353}, {"Name": "Van Buren", "Country Code": "US", "Population": 23081.0, "Lat": 35.43676, "Lon": -94.34827}, {"Name": "Van Buren", "Country Code": "US", "Population": 834.0, "Lat": 36.99561, "Lon": -91.01457}], "Van Canh": [{"Name": "V\u00e2n Canh", "Country Code": "VN", "Population": 0.0, "Lat": 13.61945, "Lon": 108.99805}], "Van GJien": [{"Name": "V\u0103n \u0110i\u1ec3n", "Country Code": "VN", "Population": 0.0, "Lat": 20.9463, "Lon": 105.845}], "Van GJinh": [{"Name": "V\u00e2n \u0110\u00ecnh", "Country Code": "VN", "Population": 0.0, "Lat": 20.73514, "Lon": 105.77236}], "Van Gia": [{"Name": "V\u1ea1n Gi\u00e3", "Country Code": "VN", "Population": 0.0, "Lat": 12.69203, "Lon": 109.22069}], "Van Giang": [{"Name": "V\u0103n Giang", "Country Code": "VN", "Population": 0.0, "Lat": 20.94301, "Lon": 105.93119}], "Van Ha": [{"Name": "V\u1ea1n H\u00e0", "Country Code": "VN", "Population": 0.0, "Lat": 19.88659, "Lon": 105.67879}], "Van Horn": [{"Name": "Van Horn", "Country Code": "US", "Population": 1928.0, "Lat": 31.04029, "Lon": -104.83073}], "Van Lear": [{"Name": "Van Lear", "Country Code": "US", "Population": 1079.0, "Lat": 37.77121, "Lon": -82.75794}], "Van Meter": [{"Name": "Van Meter", "Country Code": "US", "Population": 1142.0, "Lat": 41.53193, "Lon": -93.95412}], "Van Nest": [{"Name": "Van Nest", "Country Code": "US", "Population": 23700.0, "Lat": 40.84843, "Lon": -73.86375}], "Van Nuys": [{"Name": "Van Nuys", "Country Code": "US", "Population": 136443.0, "Lat": 34.18667, "Lon": -118.44897}], "Van Quan": [{"Name": "V\u0103n Quan", "Country Code": "VN", "Population": 0.0, "Lat": 21.86516, "Lon": 106.53925}], "Van Tung": [{"Name": "V\u00e2n T\u00f9ng", "Country Code": "VN", "Population": 0.0, "Lat": 22.43082, "Lon": 105.99687}], "Van Vleck": [{"Name": "Van Vleck", "Country Code": "US", "Population": 1844.0, "Lat": 29.01775, "Lon": -95.8894}], "Van Wert": [{"Name": "Van Wert", "Country Code": "US", "Population": 10798.0, "Lat": 40.86949, "Lon": -84.58412}], "Van Wyksvlei": [{"Name": "Van Wyksvlei", "Country Code": "ZA", "Population": 1721.0, "Lat": -30.35101, "Lon": 21.82498}], "Vana-Antsla": [{"Name": "Vana-Antsla", "Country Code": "EE", "Population": 1468.0, "Lat": 57.86611, "Lon": 26.53222}], "Vanadjou": [{"Name": "Vanadjou", "Country Code": "KM", "Population": 1830.0, "Lat": -11.6075, "Lon": 43.27611}], "Vanadzor": [{"Name": "Vanadzor", "Country Code": "AM", "Population": 101098.0, "Lat": 40.80456, "Lon": 44.4939}], "Vanambouani": [{"Name": "Vanambouani", "Country Code": "KM", "Population": 1654.0, "Lat": -11.61139, "Lon": 43.25306}], "Vanaton": [{"Name": "Van\u00e1ton", "Country Code": "GR", "Population": 1045.0, "Lat": 37.79446, "Lon": 20.85188}], "Vanatori": [{"Name": "V\u00e2n\u0103tori", "Country Code": "RO", "Population": 1164.0, "Lat": 47.3598, "Lon": 26.76423}, {"Name": "V\u00e2n\u0103tori", "Country Code": "RO", "Population": 1180.0, "Lat": 46.62456, "Lon": 21.67332}, {"Name": "V\u00e2n\u0103tori", "Country Code": "RO", "Population": 4570.0, "Lat": 44.24278, "Lon": 22.92889}, {"Name": "V\u00e2n\u0103tori", "Country Code": "RO", "Population": 1304.0, "Lat": 47.23333, "Lon": 27.53333}, {"Name": "V\u00e2n\u0103tori", "Country Code": "RO", "Population": 3702.0, "Lat": 46.23333, "Lon": 24.93333}, {"Name": "V\u00e2n\u0103tori", "Country Code": "RO", "Population": 5521.0, "Lat": 45.73333, "Lon": 27.25}, {"Name": "V\u00e2n\u0103tori", "Country Code": "RO", "Population": 4126.0, "Lat": 45.53333, "Lon": 28.01667}], "Vanatori-Neamt": [{"Name": "V\u00e2n\u0103tori-Neam\u0163", "Country Code": "RO", "Population": 7270.0, "Lat": 47.2, "Lon": 26.31667}], "Vanatorii Mari": [{"Name": "V\u00e2n\u0103torii Mari", "Country Code": "RO", "Population": 1482.0, "Lat": 44.48898, "Lon": 25.54548}], "Vanatorii Mici": [{"Name": "V\u00e2n\u0103torii Mici", "Country Code": "RO", "Population": 4965.0, "Lat": 44.49028, "Lon": 25.55889}], "Vanavara": [{"Name": "Vanavara", "Country Code": "RU", "Population": 3090.0, "Lat": 60.34679, "Lon": 102.28434}], "Vance": [{"Name": "Vance", "Country Code": "BE", "Population": 1177.0, "Lat": 49.67163, "Lon": 5.66571}, {"Name": "Vance", "Country Code": "US", "Population": 1513.0, "Lat": 33.17428, "Lon": -87.23361}], "Vanceburg": [{"Name": "Vanceburg", "Country Code": "US", "Population": 1448.0, "Lat": 38.59924, "Lon": -83.3188}], "Vanchikivtsi": [{"Name": "Vanchikivtsi", "Country Code": "UA", "Population": 2656.0, "Lat": 48.21571, "Lon": 26.44921}], "Vancleave": [{"Name": "Vancleave", "Country Code": "US", "Population": 5886.0, "Lat": 30.54047, "Lon": -88.68752}], "Vancouver": [{"Name": "Vancouver", "Country Code": "CA", "Population": 600000.0, "Lat": 49.24966, "Lon": -123.11934}, {"Name": "Vancouver", "Country Code": "US", "Population": 172860.0, "Lat": 45.63873, "Lon": -122.66149}], "Vandalia": [{"Name": "Vandalia", "Country Code": "US", "Population": 7112.0, "Lat": 38.9606, "Lon": -89.09368}, {"Name": "Vandalia", "Country Code": "US", "Population": 15106.0, "Lat": 39.89061, "Lon": -84.19883}, {"Name": "Vandalia", "Country Code": "US", "Population": 4348.0, "Lat": 39.31087, "Lon": -91.48849}], "Vandalur": [{"Name": "Vandal\u016br", "Country Code": "IN", "Population": 13715.0, "Lat": 12.8924, "Lon": 80.08079}], "Vandans": [{"Name": "Vandans", "Country Code": "AT", "Population": 2636.0, "Lat": 47.09569, "Lon": 9.86525}], "Vandavasi": [{"Name": "Vandav\u0101si", "Country Code": "IN", "Population": 31530.0, "Lat": 12.50429, "Lon": 79.60556}], "Vandeikya": [{"Name": "Vandeikya", "Country Code": "NG", "Population": 0.0, "Lat": 6.78481, "Lon": 9.06799}], "Vandenberg Space Force Base": [{"Name": "Vandenberg Space Force Base", "Country Code": "US", "Population": 3338.0, "Lat": 34.7483, "Lon": -120.51817}], "Vandenberg Village": [{"Name": "Vandenberg Village", "Country Code": "US", "Population": 6497.0, "Lat": 34.70832, "Lon": -120.46766}], "Vander": [{"Name": "Vander", "Country Code": "US", "Population": 1146.0, "Lat": 35.03211, "Lon": -78.79474}], "Vanderbijlpark": [{"Name": "Vanderbijlpark", "Country Code": "ZA", "Population": 246754.0, "Lat": -26.71171, "Lon": 27.83795}], "Vandercook Lake": [{"Name": "Vandercook Lake", "Country Code": "US", "Population": 4721.0, "Lat": 42.19337, "Lon": -84.39107}], "Vandergrift": [{"Name": "Vandergrift", "Country Code": "US", "Population": 5032.0, "Lat": 40.60284, "Lon": -79.56477}], "Vanderhoof": [{"Name": "Vanderhoof", "Country Code": "CA", "Population": 1462.0, "Lat": 54.01657, "Lon": -124.01982}], "Vandiver": [{"Name": "Vandiver", "Country Code": "US", "Population": 1135.0, "Lat": 33.47066, "Lon": -86.51332}], "Vandoeuvre-les-Nancy": [{"Name": "Vand\u0153uvre-l\u00e8s-Nancy", "Country Code": "FR", "Population": 31785.0, "Lat": 48.66115, "Lon": 6.17114}], "Vandoeuvres": [{"Name": "Vand\u0153uvres", "Country Code": "CH", "Population": 2826.0, "Lat": 46.22179, "Lon": 6.20285}], "Vandoies - Vintl": [{"Name": "Vandoies - Vintl", "Country Code": "IT", "Population": 3108.0, "Lat": 46.81513, "Lon": 11.72068}], "Vandoies di Sotto": [{"Name": "Vandoies di Sotto", "Country Code": "IT", "Population": 780.0, "Lat": 46.816, "Lon": 11.72183}], "Vanegas": [{"Name": "Vanegas", "Country Code": "MX", "Population": 2728.0, "Lat": 23.88459, "Lon": -100.95148}], "Vang": [{"Name": "Vang", "Country Code": "NO", "Population": 1587.0, "Lat": 61.12529, "Lon": 8.5729}], "Vang Vieng": [{"Name": "Vang Vieng", "Country Code": "LA", "Population": 25000.0, "Lat": 18.9235, "Lon": 102.44784}], "Vangaindrano": [{"Name": "Vangaindrano", "Country Code": "MG", "Population": 40813.0, "Lat": -23.35, "Lon": 47.6}], "Vangazi": [{"Name": "Vanga\u017ei", "Country Code": "LV", "Population": 3235.0, "Lat": 57.09358, "Lon": 24.54468}], "Vani": [{"Name": "Vani", "Country Code": "GE", "Population": 4265.0, "Lat": 42.08495, "Lon": 42.51192}], "Vaniebotifla": [{"Name": "Vani\u00e9botifla", "Country Code": "CI", "Population": 2919.0, "Lat": 7.34933, "Lon": -6.02013}], "Vanier": [{"Name": "Vanier", "Country Code": "CA", "Population": 17000.0, "Lat": 45.4399, "Lon": -75.66498}], "Vanimo": [{"Name": "Vanimo", "Country Code": "PG", "Population": 11204.0, "Lat": -2.68372, "Lon": 141.30195}], "Vanino": [{"Name": "Vanino", "Country Code": "RU", "Population": 18618.0, "Lat": 49.09848, "Lon": 140.25313}], "Vaniyambadi": [{"Name": "Vaniyambadi", "Country Code": "IN", "Population": 90288.0, "Lat": 12.68162, "Lon": 78.62014}], "Vanj": [{"Name": "Vanj", "Country Code": "TJ", "Population": 0.0, "Lat": 38.37078, "Lon": 71.45474}], "Vanju-Mare": [{"Name": "V\u00e2nju-Mare", "Country Code": "RO", "Population": 6740.0, "Lat": 44.42528, "Lon": 22.86972}], "Vanjulet": [{"Name": "V\u00e2njule\u0163", "Country Code": "RO", "Population": 1894.0, "Lat": 44.44111, "Lon": 22.7925}], "Vank": [{"Name": "Vank", "Country Code": "AZ", "Population": 1335.0, "Lat": 40.05275, "Lon": 46.54419}], "Vanlose": [{"Name": "Vanl\u00f8se", "Country Code": "DK", "Population": 37115.0, "Lat": 55.68361, "Lon": 12.48713}], "Vannes": [{"Name": "Vannes", "Country Code": "FR", "Population": 54020.0, "Lat": 47.65688, "Lon": -2.76205}], "Vansada": [{"Name": "V\u0101nsada", "Country Code": "IN", "Population": 12703.0, "Lat": 20.75817, "Lon": 73.36389}], "Vansbro": [{"Name": "Vansbro", "Country Code": "SE", "Population": 2042.0, "Lat": 60.50893, "Lon": 14.22458}], "Vanse": [{"Name": "Vanse", "Country Code": "NO", "Population": 1953.0, "Lat": 58.09812, "Lon": 6.69184}], "Vantaa": [{"Name": "Vantaa", "Country Code": "FI", "Population": 190058.0, "Lat": 60.29414, "Lon": 25.04099}], "Vanves": [{"Name": "Vanves", "Country Code": "FR", "Population": 26068.0, "Lat": 48.82345, "Lon": 2.29025}], "Vanzaghello": [{"Name": "Vanzaghello", "Country Code": "IT", "Population": 5303.0, "Lat": 45.57964, "Lon": 8.78234}], "Vanzago": [{"Name": "Vanzago", "Country Code": "IT", "Population": 7262.0, "Lat": 45.52566, "Lon": 8.99097}], "Vanzone": [{"Name": "Vanzone", "Country Code": "IT", "Population": 241.0, "Lat": 45.97785, "Lon": 8.10826}], "Vao": [{"Name": "Vao", "Country Code": "NC", "Population": 1862.0, "Lat": -22.66645, "Lon": 167.49627}], "Vaou": [{"Name": "Vaou", "Country Code": "CI", "Population": 12331.0, "Lat": 7.44358, "Lon": -6.99199}], "Vapenna": [{"Name": "V\u00e1penn\u00e1", "Country Code": "CZ", "Population": 1271.0, "Lat": 50.28338, "Lon": 17.09762}], "Vapi": [{"Name": "Vapi", "Country Code": "IN", "Population": 71395.0, "Lat": 20.37175, "Lon": 72.90493}], "Vapleu": [{"Name": "Vapleu", "Country Code": "CI", "Population": 1151.0, "Lat": 6.82515, "Lon": -8.26864}], "Vapnyarka": [{"Name": "Vapnyarka", "Country Code": "UA", "Population": 7316.0, "Lat": 48.5311, "Lon": 28.747}], "Vaprio D'Agogna": [{"Name": "Vaprio D'Agogna", "Country Code": "IT", "Population": 901.0, "Lat": 45.60322, "Lon": 8.55402}], "Vaprio d'Adda": [{"Name": "Vaprio d'Adda", "Country Code": "IT", "Population": 7901.0, "Lat": 45.5764, "Lon": 9.52407}], "Vaqarr": [{"Name": "Vaqarr", "Country Code": "AL", "Population": 0.0, "Lat": 41.29917, "Lon": 19.74417}], "Vaquerias": [{"Name": "Vaquer\u00edas", "Country Code": "MX", "Population": 1067.0, "Lat": 21.76831, "Lon": -101.65385}], "Vara": [{"Name": "Vara", "Country Code": "SE", "Population": 4052.0, "Lat": 58.26234, "Lon": 12.95413}], "Vara de Rey": [{"Name": "Vara de Rey", "Country Code": "ES", "Population": 629.0, "Lat": 39.42595, "Lon": -2.29404}], "Varadero": [{"Name": "Varadero", "Country Code": "CU", "Population": 20000.0, "Lat": 23.15678, "Lon": -81.24441}], "Varades": [{"Name": "Varades", "Country Code": "FR", "Population": 3452.0, "Lat": 47.385, "Lon": -1.03039}], "Varadia": [{"Name": "V\u0103r\u0103dia", "Country Code": "RO", "Population": 1483.0, "Lat": 45.07833, "Lon": 21.54694}], "Varadia de Mures": [{"Name": "V\u0103r\u0103dia de Mure\u015f", "Country Code": "RO", "Population": 2082.0, "Lat": 46.01667, "Lon": 22.15}], "Varago": [{"Name": "Varago", "Country Code": "IT", "Population": 2356.0, "Lat": 45.73726, "Lon": 12.31083}], "Varaklani": [{"Name": "Varak\u013c\u0101ni", "Country Code": "LV", "Population": 2106.0, "Lat": 56.60826, "Lon": 26.75377}], "Varale": [{"Name": "Varal\u00e9", "Country Code": "CI", "Population": 1337.0, "Lat": 9.6588, "Lon": -3.27959}], "Varallo": [{"Name": "Varallo", "Country Code": "IT", "Population": 5427.0, "Lat": 45.81383, "Lon": 8.25814}], "Varallo Pombia": [{"Name": "Varallo Pombia", "Country Code": "IT", "Population": 4531.0, "Lat": 45.66784, "Lon": 8.6285}], "Varamin": [{"Name": "Var\u0101m\u012bn", "Country Code": "IR", "Population": 179603.0, "Lat": 35.3242, "Lon": 51.6457}], "Varanasi": [{"Name": "Varanasi", "Country Code": "IN", "Population": 1164404.0, "Lat": 25.31668, "Lon": 83.01041}], "Varangaon": [{"Name": "Varangaon", "Country Code": "IN", "Population": 44067.0, "Lat": 21.01767, "Lon": 75.91042}], "Varangeville": [{"Name": "Varang\u00e9ville", "Country Code": "FR", "Population": 4320.0, "Lat": 48.63675, "Lon": 6.31875}], "Varano Borghi": [{"Name": "Varano Borghi", "Country Code": "IT", "Population": 2418.0, "Lat": 45.77407, "Lon": 8.70403}], "Varano De' Melegari": [{"Name": "Varano De' Melegari", "Country Code": "IT", "Population": 1408.0, "Lat": 44.68806, "Lon": 10.01148}], "Varapodio": [{"Name": "Varapodio", "Country Code": "IT", "Population": 2223.0, "Lat": 38.31633, "Lon": 15.98347}], "Varash": [{"Name": "Varash", "Country Code": "UA", "Population": 42000.0, "Lat": 51.3509, "Lon": 25.84738}], "Varasti": [{"Name": "V\u0103r\u0103\u0219ti", "Country Code": "RO", "Population": 1289.0, "Lat": 44.21244, "Lon": 26.97188}, {"Name": "V\u0103r\u0103\u015fti", "Country Code": "RO", "Population": 6412.0, "Lat": 44.23778, "Lon": 26.24861}], "Varatec": [{"Name": "V\u0103ratec", "Country Code": "RO", "Population": 1428.0, "Lat": 47.63988, "Lon": 26.40312}], "Varazdin": [{"Name": "Vara\u017edin", "Country Code": "HR", "Population": 36187.0, "Lat": 46.30444, "Lon": 16.33778}], "Varazdin Breg": [{"Name": "Vara\u017edin Breg", "Country Code": "HR", "Population": 1661.0, "Lat": 46.23227, "Lon": 16.38454}], "Varazdinske Toplice": [{"Name": "Vara\u017edinske Toplice", "Country Code": "HR", "Population": 1606.0, "Lat": 46.20917, "Lon": 16.41917}], "Varazqan": [{"Name": "Varazq\u0101n", "Country Code": "IR", "Population": 0.0, "Lat": 38.67549, "Lon": 46.11205}], "Varazze": [{"Name": "Varazze", "Country Code": "IT", "Population": 11534.0, "Lat": 44.36412, "Lon": 8.5963}], "Varberg": [{"Name": "Varberg", "Country Code": "SE", "Population": 34248.0, "Lat": 57.10557, "Lon": 12.25078}], "Varbila": [{"Name": "V\u0103rbila", "Country Code": "RO", "Population": 1407.0, "Lat": 45.04654, "Lon": 26.19691}], "Varbilau": [{"Name": "V\u0103rbil\u0103u", "Country Code": "RO", "Population": 7084.0, "Lat": 45.18333, "Lon": 25.95}], "Varbitsa": [{"Name": "Varbitsa", "Country Code": "BG", "Population": 3803.0, "Lat": 43.0, "Lon": 26.63333}], "Varbo": [{"Name": "Varbo", "Country Code": "CI", "Population": 1451.0, "Lat": 9.43787, "Lon": -2.8309}], "Varby": [{"Name": "V\u00e5rby", "Country Code": "SE", "Population": 10115.0, "Lat": 59.26671, "Lon": 17.88407}], "Varca": [{"Name": "Varca", "Country Code": "IN", "Population": 5079.0, "Lat": 15.23237, "Lon": 73.94311}], "Varciorog": [{"Name": "V\u00e2rciorog", "Country Code": "RO", "Population": 2314.0, "Lat": 46.96667, "Lon": 22.3}], "Varciorova": [{"Name": "V\u00e2rciorova", "Country Code": "RO", "Population": 1112.0, "Lat": 45.3271, "Lon": 22.35208}], "Varco Sabino": [{"Name": "Varco Sabino", "Country Code": "IT", "Population": 110.0, "Lat": 42.24016, "Lon": 13.02052}], "Varda": [{"Name": "V\u00e1rda", "Country Code": "GR", "Population": 3307.0, "Lat": 38.03058, "Lon": 21.36506}], "Vardablur": [{"Name": "Vardablur", "Country Code": "AM", "Population": 1297.0, "Lat": 40.97083, "Lon": 44.50889}], "Vardadzor": [{"Name": "Vardadzor", "Country Code": "AM", "Population": 2095.0, "Lat": 40.18701, "Lon": 45.19212}], "Vardaman": [{"Name": "Vardaman", "Country Code": "US", "Population": 1297.0, "Lat": 33.87567, "Lon": -89.17729}], "Vardane": [{"Name": "Vardane", "Country Code": "RU", "Population": 5000.0, "Lat": 43.73179, "Lon": 39.55428}], "Varde": [{"Name": "Varde", "Country Code": "DK", "Population": 14039.0, "Lat": 55.62112, "Lon": 8.48069}], "Vardenik": [{"Name": "Vardenik", "Country Code": "AM", "Population": 7709.0, "Lat": 40.13348, "Lon": 45.44311}], "Vardenis": [{"Name": "Vardenis", "Country Code": "AM", "Population": 11382.0, "Lat": 40.18329, "Lon": 45.73053}], "Vardo": [{"Name": "Vard\u00f8", "Country Code": "NO", "Population": 1875.0, "Lat": 70.37048, "Lon": 31.11066}], "Vardoe": [{"Name": "V\u00e5rd\u00f6", "Country Code": "AX", "Population": 411.0, "Lat": 60.25, "Lon": 20.38333}], "Vare Chiquichuca": [{"Name": "Vare Chiquichuca", "Country Code": "MX", "Population": 1675.0, "Lat": 19.35539, "Lon": -100.19493}], "Varedo": [{"Name": "Varedo", "Country Code": "IT", "Population": 12750.0, "Lat": 45.59761, "Lon": 9.16323}], "Vareia": [{"Name": "Varei\u00e1", "Country Code": "GR", "Population": 1133.0, "Lat": 39.07941, "Lon": 26.57777}], "Varel": [{"Name": "Varel", "Country Code": "DE", "Population": 25212.0, "Lat": 53.39693, "Lon": 8.13621}], "Varen": [{"Name": "Varen", "Country Code": "CH", "Population": 1203.0, "Lat": 46.3186, "Lon": 7.60743}], "Varena": [{"Name": "Var\u0117na", "Country Code": "LT", "Population": 7892.0, "Lat": 54.21546, "Lon": 24.57538}], "Varengeville-sur-Mer": [{"Name": "Varengeville-sur-Mer", "Country Code": "FR", "Population": 1224.0, "Lat": 49.90475, "Lon": 0.99479}], "Varenikovskaya": [{"Name": "Varenikovskaya", "Country Code": "RU", "Population": 14409.0, "Lat": 45.12085, "Lon": 37.64171}], "Varenna": [{"Name": "Varenna", "Country Code": "IT", "Population": 764.0, "Lat": 46.01078, "Lon": 9.28465}], "Varennes": [{"Name": "Varennes", "Country Code": "CA", "Population": 20994.0, "Lat": 45.68338, "Lon": -73.43246}], "Varennes-Jarcy": [{"Name": "Varennes-Jarcy", "Country Code": "FR", "Population": 2019.0, "Lat": 48.67914, "Lon": 2.56152}], "Varennes-Saint-Sauveur": [{"Name": "Varennes-Saint-Sauveur", "Country Code": "FR", "Population": 1005.0, "Lat": 46.48226, "Lon": 5.24349}], "Varennes-Vauzelles": [{"Name": "Varennes-Vauzelles", "Country Code": "FR", "Population": 10464.0, "Lat": 47.01678, "Lon": 3.14037}], "Varennes-le-Grand": [{"Name": "Varennes-le-Grand", "Country Code": "FR", "Population": 2065.0, "Lat": 46.71868, "Lon": 4.86872}], "Varennes-sur-Allier": [{"Name": "Varennes-sur-Allier", "Country Code": "FR", "Population": 4314.0, "Lat": 46.31318, "Lon": 3.40147}], "Varennes-sur-Loire": [{"Name": "Varennes-sur-Loire", "Country Code": "FR", "Population": 1954.0, "Lat": 47.23851, "Lon": 0.05314}], "Varennes-sur-Seine": [{"Name": "Varennes-sur-Seine", "Country Code": "FR", "Population": 3494.0, "Lat": 48.37304, "Lon": 2.92571}], "Vares": [{"Name": "Vare\u0161", "Country Code": "BA", "Population": 7193.0, "Lat": 44.16444, "Lon": 18.32833}], "Varese": [{"Name": "Varese", "Country Code": "IT", "Population": 80588.0, "Lat": 45.82058, "Lon": 8.82511}], "Varese Ligure": [{"Name": "Varese Ligure", "Country Code": "IT", "Population": 525.0, "Lat": 44.37687, "Lon": 9.59372}], "Varetz": [{"Name": "Varetz", "Country Code": "FR", "Population": 1975.0, "Lat": 45.19392, "Lon": 1.45063}], "Varfu Campului": [{"Name": "V\u00e2rfu C\u00e2mpului", "Country Code": "RO", "Population": 2115.0, "Lat": 47.84566, "Lon": 26.33056}], "Varfuri": [{"Name": "V\u00e2rfuri", "Country Code": "RO", "Population": 2086.0, "Lat": 45.1, "Lon": 25.51667}], "Varfurile": [{"Name": "V\u00e2rfurile", "Country Code": "RO", "Population": 3247.0, "Lat": 46.31667, "Lon": 22.51667}], "Vargarda": [{"Name": "V\u00e5rg\u00e5rda", "Country Code": "SE", "Population": 5384.0, "Lat": 58.03706, "Lon": 12.80907}], "Vargas": [{"Name": "Vargas", "Country Code": "MX", "Population": 2519.0, "Lat": 19.22774, "Lon": -96.32046}, {"Name": "Vargas", "Country Code": "PH", "Population": 2777.0, "Lat": 15.59332, "Lon": 120.48709}], "Vargashi": [{"Name": "Vargashi", "Country Code": "RU", "Population": 9728.0, "Lat": 55.35556, "Lon": 65.84667}], "Vargata": [{"Name": "V\u0103rgata", "Country Code": "RO", "Population": 1976.0, "Lat": 46.56667, "Lon": 24.8}], "Vargem Alta": [{"Name": "Vargem Alta", "Country Code": "BR", "Population": 4672.0, "Lat": -20.67139, "Lon": -41.00694}], "Vargem Grande": [{"Name": "Vargem Grande", "Country Code": "BR", "Population": 21419.0, "Lat": -3.54306, "Lon": -43.91583}], "Vargem Grande Paulista": [{"Name": "Vargem Grande Paulista", "Country Code": "BR", "Population": 0.0, "Lat": -23.60333, "Lon": -47.02639}], "Vargem Grande do Sul": [{"Name": "Vargem Grande do Sul", "Country Code": "BR", "Population": 36213.0, "Lat": -21.83222, "Lon": -46.89361}], "Varghis": [{"Name": "V\u00e2rghi\u015f", "Country Code": "RO", "Population": 1876.0, "Lat": 46.13333, "Lon": 25.53333}], "Varginha": [{"Name": "Varginha", "Country Code": "BR", "Population": 116571.0, "Lat": -21.55139, "Lon": -45.43028}], "Vargon": [{"Name": "Varg\u00f6n", "Country Code": "SE", "Population": 4981.0, "Lat": 58.35599, "Lon": 12.3906}], "Varhaug": [{"Name": "Varhaug", "Country Code": "NO", "Population": 3314.0, "Lat": 58.6181, "Lon": 5.65702}], "Vari": [{"Name": "V\u00e1ri", "Country Code": "GR", "Population": 1266.0, "Lat": 37.39859, "Lon": 24.94904}, {"Name": "V\u00e1ri", "Country Code": "GR", "Population": 15855.0, "Lat": 37.8332, "Lon": 23.80311}], "Varias": [{"Name": "Varia\u015f", "Country Code": "RO", "Population": 6054.0, "Lat": 46.01667, "Lon": 20.95}], "Varilhes": [{"Name": "Varilhes", "Country Code": "FR", "Population": 2892.0, "Lat": 43.04572, "Lon": 1.62813}], "Varin": [{"Name": "Varin", "Country Code": "KH", "Population": 0.0, "Lat": 13.79322, "Lon": 103.76085}], "Varisella": [{"Name": "Varisella", "Country Code": "IT", "Population": 713.0, "Lat": 45.20835, "Lon": 7.48381}], "Varjota": [{"Name": "Varjota", "Country Code": "BR", "Population": 16462.0, "Lat": -4.19444, "Lon": -40.47667}], "Varkala": [{"Name": "Varkala", "Country Code": "IN", "Population": 43276.0, "Lat": 8.7333, "Lon": 76.7167}], "Varkaus": [{"Name": "Varkaus", "Country Code": "FI", "Population": 22365.0, "Lat": 62.31533, "Lon": 27.873}], "Varlamovo": [{"Name": "Varlamovo", "Country Code": "RU", "Population": 3264.0, "Lat": 53.1897, "Lon": 48.4226}], "Varlezi": [{"Name": "V\u00e2rlezi", "Country Code": "RO", "Population": 2185.0, "Lat": 45.9, "Lon": 27.85}], "Varmo": [{"Name": "Varmo", "Country Code": "IT", "Population": 709.0, "Lat": 45.8863, "Lon": 12.99005}], "Varna": [{"Name": "Varna", "Country Code": "BG", "Population": 312770.0, "Lat": 43.21667, "Lon": 27.91667}, {"Name": "Varna", "Country Code": "IT", "Population": 1848.0, "Lat": 46.73901, "Lon": 11.63749}, {"Name": "Varna", "Country Code": "RS", "Population": 1549.0, "Lat": 44.67914, "Lon": 19.6515}, {"Name": "Varna", "Country Code": "RU", "Population": 9906.0, "Lat": 53.38194, "Lon": 60.97472}], "Varnavas": [{"Name": "Varn\u00e1vas", "Country Code": "GR", "Population": 1326.0, "Lat": 38.22358, "Lon": 23.92307}], "Varnavino": [{"Name": "Varnavino", "Country Code": "RU", "Population": 3278.0, "Lat": 57.40169, "Lon": 45.08937}], "Varnell": [{"Name": "Varnell", "Country Code": "US", "Population": 1790.0, "Lat": 34.90119, "Lon": -84.97383}], "Varnita": [{"Name": "Varni\u0163a", "Country Code": "MD", "Population": 4000.0, "Lat": 46.86606, "Lon": 29.46636}, {"Name": "Varni\u021ba", "Country Code": "RO", "Population": 1092.0, "Lat": 44.80679, "Lon": 25.9453}], "Varnsdorf": [{"Name": "Varnsdorf", "Country Code": "CZ", "Population": 15895.0, "Lat": 50.91154, "Lon": 14.61824}], "Varnville": [{"Name": "Varnville", "Country Code": "US", "Population": 2067.0, "Lat": 32.85044, "Lon": -81.07927}], "Varois-et-Chaignot": [{"Name": "Varois-et-Chaignot", "Country Code": "FR", "Population": 2036.0, "Lat": 47.35059, "Lon": 5.12838}], "Varosfoeld": [{"Name": "V\u00e1rosf\u00f6ld", "Country Code": "HU", "Population": 2248.0, "Lat": 46.81674, "Lon": 19.75668}], "Varoska Rijeka": [{"Name": "Varo\u0161ka Rijeka", "Country Code": "BA", "Population": 6573.0, "Lat": 45.08936, "Lon": 16.01906}], "Varpaisjaervi": [{"Name": "Varpaisj\u00e4rvi", "Country Code": "FI", "Population": 3007.0, "Lat": 63.35932, "Lon": 27.75506}], "Varpalota": [{"Name": "V\u00e1rpalota", "Country Code": "HU", "Population": 21299.0, "Lat": 47.19936, "Lon": 18.13954}], "Varrains": [{"Name": "Varrains", "Country Code": "FR", "Population": 1220.0, "Lat": 47.22184, "Lon": -0.06403}], "Varreddes": [{"Name": "Varreddes", "Country Code": "FR", "Population": 1991.0, "Lat": 49.00305, "Lon": 2.92788}], "Varrel": [{"Name": "Varrel", "Country Code": "DE", "Population": 1368.0, "Lat": 52.6215, "Lon": 8.7331}], "Vars": [{"Name": "Vars", "Country Code": "FR", "Population": 1634.0, "Lat": 45.76207, "Lon": 0.12402}], "Varsag": [{"Name": "V\u0103r\u015fag", "Country Code": "RO", "Population": 1493.0, "Lat": 46.51667, "Lon": 25.35}], "Varsenare": [{"Name": "Varsenare", "Country Code": "BE", "Population": 5081.0, "Lat": 51.18981, "Lon": 3.13916}], "Varser": [{"Name": "Varser", "Country Code": "AM", "Population": 1614.0, "Lat": 40.55548, "Lon": 44.90832}], "Varshets": [{"Name": "Varshets", "Country Code": "BG", "Population": 7512.0, "Lat": 43.19356, "Lon": 23.2868}], "Varsi": [{"Name": "Varsi", "Country Code": "IT", "Population": 492.0, "Lat": 44.66274, "Lon": 9.84879}], "Varsity Lakes": [{"Name": "Varsity Lakes", "Country Code": "AU", "Population": 14753.0, "Lat": -28.0894, "Lon": 153.4122}], "Varsolt": [{"Name": "V\u00e2r\u015fol\u0163", "Country Code": "RO", "Population": 0.0, "Lat": 47.2, "Lon": 22.93333}], "Varsseveld": [{"Name": "Varsseveld", "Country Code": "NL", "Population": 5450.0, "Lat": 51.94333, "Lon": 6.45833}], "Varsta": [{"Name": "V\u00e5rsta", "Country Code": "SE", "Population": 2470.0, "Lat": 59.16528, "Lon": 17.79722}], "Vartej": [{"Name": "Vartej", "Country Code": "IN", "Population": 10271.0, "Lat": 21.73947, "Lon": 72.06553}], "Varteju": [{"Name": "V\u00e2rteju", "Country Code": "RO", "Population": 1818.0, "Lat": 44.35606, "Lon": 25.99183}], "Vartescoiu": [{"Name": "V\u00e2rte\u015fcoiu", "Country Code": "RO", "Population": 0.0, "Lat": 45.73333, "Lon": 27.08333}], "Vartholomio": [{"Name": "Vartholomi\u00f3", "Country Code": "GR", "Population": 3068.0, "Lat": 37.86219, "Lon": 21.20575}], "Varto": [{"Name": "Varto", "Country Code": "TR", "Population": 18691.0, "Lat": 39.17375, "Lon": 41.45402}], "Vartoapele de Jos": [{"Name": "V\u00e2rtoapele de Jos", "Country Code": "RO", "Population": 3201.0, "Lat": 44.18333, "Lon": 25.2}], "Vartoapele de Sus": [{"Name": "V\u00e2rtoapele de Sus", "Country Code": "RO", "Population": 1507.0, "Lat": 44.19182, "Lon": 25.20025}], "Vartop": [{"Name": "V\u00e2rtop", "Country Code": "RO", "Population": 1818.0, "Lat": 44.20682, "Lon": 23.34869}], "Vartykivtsi": [{"Name": "Vartykivtsi", "Country Code": "UA", "Population": 1457.0, "Lat": 48.43426, "Lon": 26.79316}], "Varva": [{"Name": "Varva", "Country Code": "UA", "Population": 7689.0, "Lat": 50.49503, "Lon": 32.71968}], "Varvarin": [{"Name": "Varvarin", "Country Code": "RS", "Population": 0.0, "Lat": 43.72397, "Lon": 21.3624}], "Varvarivka": [{"Name": "Varvarivka", "Country Code": "UA", "Population": 1912.0, "Lat": 49.53797, "Lon": 35.20182}], "Varvasaina": [{"Name": "Varv\u00e1saina", "Country Code": "GR", "Population": 1280.0, "Lat": 37.67106, "Lon": 21.49886}], "Varvoru de Jos": [{"Name": "V\u00e2rvoru de Jos", "Country Code": "RO", "Population": 0.0, "Lat": 44.24415, "Lon": 23.6079}], "Vary": [{"Name": "Vary", "Country Code": "UA", "Population": 2998.0, "Lat": 48.12278, "Lon": 22.70878}], "Varybobi": [{"Name": "Varyb\u00f3bi", "Country Code": "GR", "Population": 1377.0, "Lat": 38.12723, "Lon": 23.78729}], "Varygino": [{"Name": "Varygino", "Country Code": "RU", "Population": 0.0, "Lat": 56.76268, "Lon": 28.53495}], "Varzea": [{"Name": "V\u00e1rzea", "Country Code": "PT", "Population": 1904.0, "Lat": 41.51512, "Lon": -8.584}], "Varzea Alegre": [{"Name": "V\u00e1rzea Alegre", "Country Code": "BR", "Population": 21841.0, "Lat": -5.35, "Lon": -40.38333}], "Varzea Grande": [{"Name": "V\u00e1rzea Grande", "Country Code": "BR", "Population": 249752.0, "Lat": -15.64667, "Lon": -56.1325}], "Varzea Paulista": [{"Name": "V\u00e1rzea Paulista", "Country Code": "BR", "Population": 110936.0, "Lat": -23.21139, "Lon": -46.82833}], "Varzea da Palma": [{"Name": "V\u00e1rzea da Palma", "Country Code": "BR", "Population": 28706.0, "Lat": -17.5976, "Lon": -44.73367}], "Varzelandia": [{"Name": "Varzel\u00e2ndia", "Country Code": "BR", "Population": 6397.0, "Lat": -15.70139, "Lon": -44.0275}], "Varzi": [{"Name": "Varzi", "Country Code": "IT", "Population": 2306.0, "Lat": 44.82297, "Lon": 9.19762}], "Varzo": [{"Name": "Varzo", "Country Code": "IT", "Population": 1839.0, "Lat": 46.20736, "Lon": 8.25267}], "Varzob": [{"Name": "Varzob", "Country Code": "TJ", "Population": 2154.0, "Lat": 38.77369, "Lon": 68.81776}], "Varzy": [{"Name": "Varzy", "Country Code": "FR", "Population": 1473.0, "Lat": 47.3581, "Lon": 3.38619}], "Vas": [{"Name": "Vas", "Country Code": "IT", "Population": 487.0, "Lat": 45.93804, "Lon": 11.93579}], "Vas'kovo": [{"Name": "Vas\u2019kovo", "Country Code": "RU", "Population": 1057.0, "Lat": 64.4122, "Lon": 40.4639}], "Vasa": [{"Name": "Vasa", "Country Code": "IN", "Population": 15934.0, "Lat": 22.66079, "Lon": 72.75519}], "Vasad": [{"Name": "V\u0103\u0219ad", "Country Code": "RO", "Population": 1078.0, "Lat": 47.5186, "Lon": 22.2566}], "Vasanello": [{"Name": "Vasanello", "Country Code": "IT", "Population": 3881.0, "Lat": 42.41507, "Lon": 12.34767}], "Vasarosnameny": [{"Name": "V\u00e1s\u00e1rosnam\u00e9ny", "Country Code": "HU", "Population": 9310.0, "Lat": 48.12542, "Lon": 22.31325}], "Vasastan": [{"Name": "Vasastan", "Country Code": "SE", "Population": 58458.0, "Lat": 59.34571, "Lon": 18.04985}], "Vascau": [{"Name": "Va\u015fc\u0103u", "Country Code": "RO", "Population": 2722.0, "Lat": 46.46667, "Lon": 22.46667}], "Vasco da Gama": [{"Name": "Vasco da Gama", "Country Code": "IN", "Population": 100485.0, "Lat": 15.39585, "Lon": 73.81568}], "Vashkivtsi": [{"Name": "Vashkivtsi", "Country Code": "UA", "Population": 3662.0, "Lat": 48.4094, "Lon": 27.13221}, {"Name": "Vashkivtsi", "Country Code": "UA", "Population": 5312.0, "Lat": 48.38386, "Lon": 25.51751}], "Vashon": [{"Name": "Vashon", "Country Code": "US", "Population": 10624.0, "Lat": 47.44732, "Lon": -122.45985}], "Vasia": [{"Name": "Vasia", "Country Code": "IT", "Population": 216.0, "Lat": 43.93268, "Lon": 7.95389}], "Vasian": [{"Name": "Vas\u012b\u0101n", "Country Code": "IR", "Population": 1817.0, "Lat": 33.49083, "Lon": 48.04917}], "Vasil'sursk": [{"Name": "Vasil\u2019sursk", "Country Code": "RU", "Population": 1038.0, "Lat": 56.13139, "Lon": 46.016}], "Vasil'yevo": [{"Name": "Vasil\u2019yevo", "Country Code": "RU", "Population": 16800.0, "Lat": 55.83007, "Lon": 48.71729}], "Vasil'yevskiy Mokh": [{"Name": "Vasil\u2019yevskiy Mokh", "Country Code": "RU", "Population": 2363.0, "Lat": 57.01316, "Lon": 35.91897}], "Vasilati": [{"Name": "Vasila\u0163i", "Country Code": "RO", "Population": 7840.0, "Lat": 44.28778, "Lon": 26.4475}], "Vasilevo": [{"Name": "Vasilevo", "Country Code": "MK", "Population": 12382.0, "Lat": 41.47408, "Lon": 22.64301}], "Vasilika": [{"Name": "Vasilik\u00e1", "Country Code": "GR", "Population": 4519.0, "Lat": 40.47966, "Lon": 23.13695}], "Vasiliki": [{"Name": "Vasilik\u00ed", "Country Code": "GR", "Population": 1388.0, "Lat": 39.63984, "Lon": 21.70448}], "Vasilikon": [{"Name": "Vasilik\u00f3n", "Country Code": "GR", "Population": 6571.0, "Lat": 38.42586, "Lon": 23.67189}], "Vasilyevichy": [{"Name": "Vasilyevichy", "Country Code": "BY", "Population": 4749.0, "Lat": 52.2512, "Lon": 29.8288}], "Vasilyevka": [{"Name": "Vasilyevka", "Country Code": "UA", "Population": 1331.0, "Lat": 45.13938, "Lon": 34.72291}], "Vasind": [{"Name": "Vasind", "Country Code": "IN", "Population": 16970.0, "Lat": 19.40844, "Lon": 73.26285}], "Vaskelovo": [{"Name": "Vaskelovo", "Country Code": "RU", "Population": 12388.0, "Lat": 60.39571, "Lon": 30.35419}], "Vaskut": [{"Name": "Vask\u00fat", "Country Code": "HU", "Population": 3613.0, "Lat": 46.10782, "Lon": 18.98514}], "Vasles": [{"Name": "Vasles", "Country Code": "FR", "Population": 1615.0, "Lat": 46.57569, "Lon": -0.02519}], "Vaslui": [{"Name": "Vaslui", "Country Code": "RO", "Population": 69225.0, "Lat": 46.63333, "Lon": 27.73333}], "Vasoldsberg": [{"Name": "Vasoldsberg", "Country Code": "AT", "Population": 4572.0, "Lat": 47.01634, "Lon": 15.55835}], "Vassalboro": [{"Name": "Vassalboro", "Country Code": "US", "Population": 4208.0, "Lat": 44.45923, "Lon": -69.67755}], "Vassar": [{"Name": "Vassar", "Country Code": "US", "Population": 2620.0, "Lat": 43.37197, "Lon": -83.58329}], "Vasse": [{"Name": "Vasse", "Country Code": "AU", "Population": 2325.0, "Lat": -33.69337, "Lon": 115.2678}], "Vasselay": [{"Name": "Vasselay", "Country Code": "FR", "Population": 1124.0, "Lat": 47.15686, "Lon": 2.38963}], "Vassena": [{"Name": "Vassena", "Country Code": "IT", "Population": 359.0, "Lat": 45.92998, "Lon": 9.28399}], "Vassilies": [{"Name": "Vassilies", "Country Code": "GR", "Population": 1662.0, "Lat": 35.27064, "Lon": 25.13783}], "Vassouras": [{"Name": "Vassouras", "Country Code": "BR", "Population": 21174.0, "Lat": -22.40389, "Lon": -43.6625}], "Vassy": [{"Name": "Vassy", "Country Code": "FR", "Population": 1734.0, "Lat": 48.85381, "Lon": -0.67485}], "Vasto": [{"Name": "Vasto", "Country Code": "IT", "Population": 41409.0, "Lat": 42.1115, "Lon": 14.70649}], "Vastogirardi": [{"Name": "Vastogirardi", "Country Code": "IT", "Population": 488.0, "Lat": 41.7746, "Lon": 14.25844}], "Vasudevanallur": [{"Name": "V\u0101sudevanall\u016br", "Country Code": "IN", "Population": 19021.0, "Lat": 9.24171, "Lon": 77.41177}], "Vasvar": [{"Name": "Vasv\u00e1r", "Country Code": "HU", "Population": 4613.0, "Lat": 47.04928, "Lon": 16.79954}], "Vasyl'evsky Ostrov": [{"Name": "Vasyl'evsky Ostrov", "Country Code": "RU", "Population": 203058.0, "Lat": 59.94091, "Lon": 30.25377}], "Vasyliv": [{"Name": "Vasyliv", "Country Code": "UA", "Population": 1229.0, "Lat": 48.6058, "Lon": 25.84324}], "Vasylivka": [{"Name": "Vasylivka", "Country Code": "UA", "Population": 12567.0, "Lat": 47.44218, "Lon": 35.28213}, {"Name": "Vasylivka", "Country Code": "UA", "Population": 1220.0, "Lat": 45.52175, "Lon": 29.16316}, {"Name": "Vasylivka", "Country Code": "UA", "Population": 2068.0, "Lat": 46.60835, "Lon": 30.30578}, {"Name": "Vasylivka", "Country Code": "UA", "Population": 3902.0, "Lat": 45.64334, "Lon": 28.83298}, {"Name": "Vasylivka", "Country Code": "UA", "Population": 1372.0, "Lat": 48.52652, "Lon": 27.47376}], "Vasylkiv": [{"Name": "Vasylkiv", "Country Code": "UA", "Population": 37068.0, "Lat": 50.18693, "Lon": 30.31346}], "Vasyshcheve": [{"Name": "Vasyshcheve", "Country Code": "UA", "Population": 5862.0, "Lat": 49.83465, "Lon": 36.33123}], "Vasyurinskaya": [{"Name": "Vasyurinskaya", "Country Code": "RU", "Population": 12830.0, "Lat": 45.11809, "Lon": 39.42399}], "Vata de Jos": [{"Name": "Va\u0163a de Jos", "Country Code": "RO", "Population": 4239.0, "Lat": 46.18333, "Lon": 22.6}], "Vatan": [{"Name": "Vatan", "Country Code": "FR", "Population": 1970.0, "Lat": 47.07447, "Lon": 1.8101}], "Vatasa": [{"Name": "Vata\u0161a", "Country Code": "MK", "Population": 2802.0, "Lat": 41.41694, "Lon": 22.01889}], "Vatava": [{"Name": "V\u0103tava", "Country Code": "RO", "Population": 2099.0, "Lat": 46.96667, "Lon": 24.76667}], "Vaterstetten": [{"Name": "Vaterstetten", "Country Code": "DE", "Population": 21007.0, "Lat": 48.10537, "Lon": 11.76825}], "Vathi": [{"Name": "Vath\u00ed", "Country Code": "GR", "Population": 2385.0, "Lat": 38.4049, "Lon": 23.60332}], "Vathy": [{"Name": "Vath\u00fd", "Country Code": "GR", "Population": 1888.0, "Lat": 37.74692, "Lon": 26.98316}, {"Name": "Vath\u00fd", "Country Code": "GR", "Population": 1495.0, "Lat": 37.7642, "Lon": 23.48011}], "Vathylakkos": [{"Name": "Vath\u00fdlakkos", "Country Code": "GR", "Population": 2316.0, "Lat": 40.76942, "Lon": 22.7088}], "Vatican City": [{"Name": "Vatican City", "Country Code": "VA", "Population": 829.0, "Lat": 41.90268, "Lon": 12.45414}], "Vatne": [{"Name": "Vatne", "Country Code": "NO", "Population": 1609.0, "Lat": 62.55826, "Lon": 6.61708}], "Vatomandry": [{"Name": "Vatomandry", "Country Code": "MG", "Population": 16771.0, "Lat": -19.33018, "Lon": 48.97791}], "Vatouo": [{"Name": "Vatouo", "Country Code": "CI", "Population": 1164.0, "Lat": 7.08063, "Lon": -8.11344}], "Vatra": [{"Name": "Vatra", "Country Code": "MD", "Population": 3800.0, "Lat": 47.0746, "Lon": 28.73685}], "Vatra Dornei": [{"Name": "Vatra Dornei", "Country Code": "RO", "Population": 16054.0, "Lat": 47.35, "Lon": 25.36667}], "Vatra Moldovitei": [{"Name": "Vatra Moldovi\u0163ei", "Country Code": "RO", "Population": 4653.0, "Lat": 47.65, "Lon": 25.56667}], "Vattalkundu": [{"Name": "Vattalkundu", "Country Code": "IN", "Population": 22638.0, "Lat": 10.16069, "Lon": 77.75883}], "Vattaro": [{"Name": "Vattaro", "Country Code": "IT", "Population": 868.0, "Lat": 45.99388, "Lon": 11.21792}], "Vattholma": [{"Name": "Vattholma", "Country Code": "SE", "Population": 1410.0, "Lat": 60.01667, "Lon": 17.73333}], "Vatutine": [{"Name": "Vatutine", "Country Code": "UA", "Population": 15763.0, "Lat": 49.01198, "Lon": 31.04659}], "Vatutinki": [{"Name": "Vatutinki", "Country Code": "RU", "Population": 9502.0, "Lat": 55.4965, "Lon": 37.32988}], "Vatutino": [{"Name": "Vatutino", "Country Code": "RU", "Population": 50000.0, "Lat": 55.88441, "Lon": 37.69055}], "Vau i Dejes": [{"Name": "Vau i Dej\u00ebs", "Country Code": "AL", "Population": 0.0, "Lat": 42.01, "Lon": 19.62472}], "Vauchretien": [{"Name": "Vauchr\u00e9tien", "Country Code": "FR", "Population": 1534.0, "Lat": 47.33234, "Lon": -0.47678}], "Vaucluse": [{"Name": "Vaucluse", "Country Code": "AU", "Population": 9205.0, "Lat": -33.85549, "Lon": 151.27754}], "Vaucouleurs": [{"Name": "Vaucouleurs", "Country Code": "FR", "Population": 2311.0, "Lat": 48.60313, "Lon": 5.66659}], "Vaucresson": [{"Name": "Vaucresson", "Country Code": "FR", "Population": 8693.0, "Lat": 48.84078, "Lon": 2.15652}], "Vauda Canavese Superiore": [{"Name": "Vauda Canavese Superiore", "Country Code": "IT", "Population": 899.0, "Lat": 45.27947, "Lon": 7.61945}], "Vaudelnay": [{"Name": "Vaudelnay", "Country Code": "FR", "Population": 1117.0, "Lat": 47.13744, "Lon": -0.20443}], "Vaudreuil-Dorion": [{"Name": "Vaudreuil-Dorion", "Country Code": "CA", "Population": 25789.0, "Lat": 45.40008, "Lon": -74.03251}], "Vaudry": [{"Name": "Vaudry", "Country Code": "FR", "Population": 1559.0, "Lat": 48.8413, "Lon": -0.85309}], "Vaughan": [{"Name": "Vaughan", "Country Code": "CA", "Population": 306233.0, "Lat": 43.8361, "Lon": -79.49827}], "Vaugneray": [{"Name": "Vaugneray", "Country Code": "FR", "Population": 4443.0, "Lat": 45.73791, "Lon": 4.65645}], "Vaugrigneuse": [{"Name": "Vaugrigneuse", "Country Code": "FR", "Population": 1141.0, "Lat": 48.60263, "Lon": 2.12218}], "Vauhallan": [{"Name": "Vauhallan", "Country Code": "FR", "Population": 2175.0, "Lat": 48.73354, "Lon": 2.20277}], "Vaujours": [{"Name": "Vaujours", "Country Code": "FR", "Population": 5922.0, "Lat": 48.93022, "Lon": 2.5711}], "Vaulnaveys-le-Bas": [{"Name": "Vaulnaveys-le-Bas", "Country Code": "FR", "Population": 1258.0, "Lat": 45.1002, "Lon": 5.82532}], "Vaulnaveys-le-Haut": [{"Name": "Vaulnaveys-le-Haut", "Country Code": "FR", "Population": 3328.0, "Lat": 45.12524, "Lon": 5.81723}], "Vaulx-Milieu": [{"Name": "Vaulx-Milieu", "Country Code": "FR", "Population": 2401.0, "Lat": 45.61329, "Lon": 5.18371}], "Vaulx-Vraucourt": [{"Name": "Vaulx-Vraucourt", "Country Code": "FR", "Population": 1133.0, "Lat": 50.1491, "Lon": 2.9083}], "Vaulx-en-Velin": [{"Name": "Vaulx-en-Velin", "Country Code": "FR", "Population": 37489.0, "Lat": 45.78693, "Lon": 4.9251}], "Vaulx-lez-Tournai": [{"Name": "Vaulx-lez-Tournai", "Country Code": "BE", "Population": 1343.0, "Lat": 50.59406, "Lon": 3.42954}], "Vaumoise": [{"Name": "Vaumoise", "Country Code": "FR", "Population": 1008.0, "Lat": 49.23525, "Lon": 2.98077}], "Vaureal": [{"Name": "Vaur\u00e9al", "Country Code": "FR", "Population": 20699.0, "Lat": 49.03333, "Lon": 2.03333}], "Vauvert": [{"Name": "Vauvert", "Country Code": "FR", "Population": 10798.0, "Lat": 43.69386, "Lon": 4.27587}], "Vaux-en-Bugey": [{"Name": "Vaux-en-Bugey", "Country Code": "FR", "Population": 1105.0, "Lat": 45.92671, "Lon": 5.35141}], "Vaux-et-Borset": [{"Name": "Vaux-et-Borset", "Country Code": "BE", "Population": 1028.0, "Lat": 50.61385, "Lon": 5.23438}], "Vaux-le-Penil": [{"Name": "Vaux-le-P\u00e9nil", "Country Code": "FR", "Population": 11758.0, "Lat": 48.52803, "Lon": 2.69165}], "Vaux-sous-Chevremont": [{"Name": "Vaux-sous-Ch\u00e8vremont", "Country Code": "BE", "Population": 6503.0, "Lat": 50.60302, "Lon": 5.6335}], "Vaux-sur-Mer": [{"Name": "Vaux-sur-Mer", "Country Code": "FR", "Population": 3738.0, "Lat": 45.64464, "Lon": -1.06038}], "Vaux-sur-Seine": [{"Name": "Vaux-sur-Seine", "Country Code": "FR", "Population": 4600.0, "Lat": 49.01271, "Lon": 1.96942}], "Vaux-sur-Sure": [{"Name": "Vaux-sur-S\u00fbre", "Country Code": "BE", "Population": 4581.0, "Lat": 49.911, "Lon": 5.57848}], "Vauxhall": [{"Name": "Vauxhall", "Country Code": "CA", "Population": 1222.0, "Lat": 50.06678, "Lon": -112.11853}], "Vavatenina": [{"Name": "Vavatenina", "Country Code": "MG", "Population": 37861.0, "Lat": -17.46667, "Lon": 49.2}], "Vavoua": [{"Name": "Vavoua", "Country Code": "CI", "Population": 86977.0, "Lat": 7.38194, "Lon": -6.47778}], "Vavozh": [{"Name": "Vavozh", "Country Code": "RU", "Population": 5569.0, "Lat": 56.77513, "Lon": 51.93098}], "Vavuniya": [{"Name": "Vavuniya", "Country Code": "LK", "Population": 60176.0, "Lat": 8.7514, "Lon": 80.4971}], "Vaxholm": [{"Name": "Vaxholm", "Country Code": "SE", "Population": 4849.0, "Lat": 59.40225, "Lon": 18.35317}], "Vay": [{"Name": "Vay", "Country Code": "FR", "Population": 1333.0, "Lat": 47.55459, "Lon": -1.70172}], "Vayalar": [{"Name": "Vayal\u0101r", "Country Code": "IN", "Population": 25094.0, "Lat": 9.71158, "Lon": 76.33888}], "Vayk'": [{"Name": "Vayk\u2019", "Country Code": "AM", "Population": 5419.0, "Lat": 39.6889, "Lon": 45.46668}], "Vayrac": [{"Name": "Vayrac", "Country Code": "FR", "Population": 1269.0, "Lat": 44.95312, "Lon": 1.70327}], "Vayres": [{"Name": "Vayres", "Country Code": "FR", "Population": 2934.0, "Lat": 44.89693, "Lon": -0.31867}], "Vazante": [{"Name": "Vazante", "Country Code": "BR", "Population": 15459.0, "Lat": -17.98694, "Lon": -46.90778}], "Vazhiny": [{"Name": "Vazhiny", "Country Code": "RU", "Population": 2926.0, "Lat": 60.96444, "Lon": 34.02222}], "Vazquez": [{"Name": "V\u00e1zquez", "Country Code": "PR", "Population": 2297.0, "Lat": 18.0658, "Lon": -66.2385}], "Vazzano": [{"Name": "Vazzano", "Country Code": "IT", "Population": 1106.0, "Lat": 38.63288, "Lon": 16.248}], "Vazzola": [{"Name": "Vazzola", "Country Code": "IT", "Population": 5283.0, "Lat": 45.83511, "Lon": 12.40851}], "Vcelna": [{"Name": "V\u010deln\u00e1", "Country Code": "CZ", "Population": 1504.0, "Lat": 48.92373, "Lon": 14.45383}], "Veal Veaeng": [{"Name": "Veal Veaeng", "Country Code": "KH", "Population": 0.0, "Lat": 12.30491, "Lon": 103.1023}], "Veauche": [{"Name": "Veauche", "Country Code": "FR", "Population": 8189.0, "Lat": 45.56326, "Lon": 4.29192}], "Veazie": [{"Name": "Veazie", "Country Code": "US", "Population": 1813.0, "Lat": 44.83868, "Lon": -68.70531}], "Veberoed": [{"Name": "Veber\u00f6d", "Country Code": "SE", "Population": 4850.0, "Lat": 55.63333, "Lon": 13.48333}], "Vecchiano-Nodica": [{"Name": "Vecchiano-Nodica", "Country Code": "IT", "Population": 6324.0, "Lat": 43.78334, "Lon": 10.3844}], "Vechelde": [{"Name": "Vechelde", "Country Code": "DE", "Population": 16219.0, "Lat": 52.26038, "Lon": 10.36491}], "Vechigen": [{"Name": "Vechigen", "Country Code": "CH", "Population": 4619.0, "Lat": 46.94616, "Lon": 7.56065}], "Vechta": [{"Name": "Vechta", "Country Code": "DE", "Population": 29729.0, "Lat": 52.72632, "Lon": 8.28598}], "Vecindario": [{"Name": "Vecindario", "Country Code": "ES", "Population": 14910.0, "Lat": 27.84636, "Lon": -15.44455}], "Vecinos": [{"Name": "Vecinos", "Country Code": "ES", "Population": 302.0, "Lat": 40.77875, "Lon": -5.87815}], "Veckenstedt": [{"Name": "Veckenstedt", "Country Code": "DE", "Population": 1433.0, "Lat": 51.90113, "Lon": 10.73203}], "Vecoux": [{"Name": "Vecoux", "Country Code": "FR", "Population": 1132.0, "Lat": 47.97797, "Lon": 6.63651}], "Vecpiebalga": [{"Name": "Vecpiebalga", "Country Code": "LV", "Population": 596.0, "Lat": 57.0609, "Lon": 25.81624}], "Vecriga": [{"Name": "Vecr\u012bga", "Country Code": "LV", "Population": 3336.0, "Lat": 56.94966, "Lon": 24.10418}], "Vecses": [{"Name": "Vecs\u00e9s", "Country Code": "HU", "Population": 19327.0, "Lat": 47.40705, "Lon": 19.28648}], "Vecumnieki": [{"Name": "Vecumnieki", "Country Code": "LV", "Population": 2103.0, "Lat": 56.60608, "Lon": 24.52232}], "Vedano Olona": [{"Name": "Vedano Olona", "Country Code": "IT", "Population": 6820.0, "Lat": 45.7757, "Lon": 8.88771}], "Vedano al Lambro": [{"Name": "Vedano al Lambro", "Country Code": "IT", "Population": 7426.0, "Lat": 45.60878, "Lon": 9.26785}], "Vedaraniyam": [{"Name": "Vedaraniyam", "Country Code": "IN", "Population": 32245.0, "Lat": 10.37208, "Lon": 79.85095}], "Vedasandur": [{"Name": "Vedasand\u016br", "Country Code": "IN", "Population": 12493.0, "Lat": 10.53102, "Lon": 77.95019}], "Vedavagen": [{"Name": "Vedav\u00e5gen", "Country Code": "NO", "Population": 2728.0, "Lat": 59.29483, "Lon": 5.21874}], "Veddasca": [{"Name": "Veddasca", "Country Code": "IT", "Population": 346.0, "Lat": 46.07058, "Lon": 8.79873}], "Veddel": [{"Name": "Veddel", "Country Code": "DE", "Population": 4356.0, "Lat": 53.52016, "Lon": 10.03687}], "Veddige": [{"Name": "Veddige", "Country Code": "SE", "Population": 2260.0, "Lat": 57.26591, "Lon": 12.3322}], "Vedea": [{"Name": "Vedea", "Country Code": "RO", "Population": 4243.0, "Lat": 44.78333, "Lon": 24.61667}, {"Name": "Vedea", "Country Code": "RO", "Population": 3108.0, "Lat": 44.08333, "Lon": 25.06667}, {"Name": "Vedea", "Country Code": "RO", "Population": 5785.0, "Lat": 43.78333, "Lon": 25.78333}], "Vedelago": [{"Name": "Vedelago", "Country Code": "IT", "Population": 3939.0, "Lat": 45.68722, "Lon": 12.01853}], "Vedene": [{"Name": "Ved\u00e8ne", "Country Code": "FR", "Population": 9538.0, "Lat": 43.97744, "Lon": 4.90428}], "Vedeno": [{"Name": "Vedeno", "Country Code": "RU", "Population": 1472.0, "Lat": 42.971, "Lon": 46.09719}], "Vedeseta": [{"Name": "Vedeseta", "Country Code": "IT", "Population": 190.0, "Lat": 45.89102, "Lon": 9.53927}], "Vedi": [{"Name": "Vedi", "Country Code": "AM", "Population": 12192.0, "Lat": 39.91388, "Lon": 44.7251}], "Vedia": [{"Name": "Vedia", "Country Code": "AR", "Population": 0.0, "Lat": -34.49791, "Lon": -61.54231}], "Vedra": [{"Name": "Vedra", "Country Code": "ES", "Population": 5069.0, "Lat": 42.77817, "Lon": -8.47636}], "Vedrin": [{"Name": "Vedrin", "Country Code": "BE", "Population": 7308.0, "Lat": 50.50273, "Lon": 4.87604}], "Veduggio Con Colzano": [{"Name": "Veduggio Con Colzano", "Country Code": "IT", "Population": 4314.0, "Lat": 45.73388, "Lon": 9.27024}], "Veedersburg": [{"Name": "Veedersburg", "Country Code": "US", "Population": 2095.0, "Lat": 40.11309, "Lon": -87.26251}], "Veen": [{"Name": "Veen", "Country Code": "NL", "Population": 2991.0, "Lat": 51.7775, "Lon": 5.10833}], "Veendam": [{"Name": "Veendam", "Country Code": "NL", "Population": 28155.0, "Lat": 53.10667, "Lon": 6.87917}], "Veenendaal": [{"Name": "Veenendaal", "Country Code": "NL", "Population": 61271.0, "Lat": 52.02863, "Lon": 5.55891}], "Veenoord": [{"Name": "Veenoord", "Country Code": "NL", "Population": 2175.0, "Lat": 52.71087, "Lon": 6.84869}], "Veerle": [{"Name": "Veerle", "Country Code": "BE", "Population": 5748.0, "Lat": 51.06989, "Lon": 4.98761}], "Vega": [{"Name": "Vega", "Country Code": "US", "Population": 900.0, "Lat": 35.24283, "Lon": -102.42826}], "Vega Alta": [{"Name": "Vega Alta", "Country Code": "CU", "Population": 1061.0, "Lat": 22.55, "Lon": -79.81917}, {"Name": "Vega Alta", "Country Code": "PR", "Population": 12036.0, "Lat": 18.41217, "Lon": -66.33128}], "Vega Baja": [{"Name": "Vega Baja", "Country Code": "PR", "Population": 29325.0, "Lat": 18.44439, "Lon": -66.38767}], "Vega de Alatorre": [{"Name": "Vega de Alatorre", "Country Code": "MX", "Population": 7653.0, "Lat": 20.02823, "Lon": -96.64751}], "Vega de Espinareda": [{"Name": "Vega de Espinareda", "Country Code": "ES", "Population": 2647.0, "Lat": 42.72537, "Lon": -6.65439}], "Vega de Infanzones": [{"Name": "Vega de Infanzones", "Country Code": "ES", "Population": 846.0, "Lat": 42.48116, "Lon": -5.53295}], "Vega de Pas": [{"Name": "Vega de Pas", "Country Code": "ES", "Population": 947.0, "Lat": 43.15692, "Lon": -3.78316}], "Vega de Ruiponce": [{"Name": "Vega de Ruiponce", "Country Code": "ES", "Population": 134.0, "Lat": 42.18808, "Lon": -5.11477}], "Vega de San Mateo": [{"Name": "Vega de San Mateo", "Country Code": "ES", "Population": 7687.0, "Lat": 28.00892, "Lon": -15.5333}], "Vega de Santa Maria": [{"Name": "Vega de Santa Mar\u00eda", "Country Code": "ES", "Population": 126.0, "Lat": 40.83618, "Lon": -4.64287}], "Vega de Tera": [{"Name": "Vega de Tera", "Country Code": "ES", "Population": 457.0, "Lat": 41.99759, "Lon": -6.125}], "Vega de Tirados": [{"Name": "Vega de Tirados", "Country Code": "ES", "Population": 286.0, "Lat": 41.02543, "Lon": -5.88667}], "Vega de Valcarce": [{"Name": "Vega de Valcarce", "Country Code": "ES", "Population": 802.0, "Lat": 42.66068, "Lon": -6.93785}], "Vega de Valdetronco": [{"Name": "Vega de Valdetronco", "Country Code": "ES", "Population": 160.0, "Lat": 41.59364, "Lon": -5.11319}], "Vega de Villalobos": [{"Name": "Vega de Villalobos", "Country Code": "ES", "Population": 150.0, "Lat": 41.97057, "Lon": -5.46324}], "Vega del Codorno": [{"Name": "Vega del Codorno", "Country Code": "ES", "Population": 0.0, "Lat": 40.42457, "Lon": -1.91312}], "Vega del Rosario": [{"Name": "Vega del Rosario", "Country Code": "MX", "Population": 1014.0, "Lat": 15.52083, "Lon": -92.3072}], "Vega del Sol": [{"Name": "Vega del Sol", "Country Code": "MX", "Population": 1278.0, "Lat": 17.80972, "Lon": -96.21694}], "Vegacervera": [{"Name": "Vegacervera", "Country Code": "ES", "Population": 335.0, "Lat": 42.88808, "Lon": -5.53549}], "Vegachi": [{"Name": "Vegach\u00ed", "Country Code": "CO", "Population": 9618.0, "Lat": 6.76141, "Lon": -74.79473}], "Vegadeo": [{"Name": "Vegadeo", "Country Code": "ES", "Population": 4427.0, "Lat": 43.46834, "Lon": -7.0539}], "Vegalatrave": [{"Name": "Vegalatrave", "Country Code": "ES", "Population": 147.0, "Lat": 41.70026, "Lon": -6.10675}], "Veganzones": [{"Name": "Veganzones", "Country Code": "ES", "Population": 296.0, "Lat": 41.19308, "Lon": -3.99329}], "Vegaquemada": [{"Name": "Vegaquemada", "Country Code": "ES", "Population": 477.0, "Lat": 42.8187, "Lon": -5.33242}], "Vegas de Matute": [{"Name": "Vegas de Matute", "Country Code": "ES", "Population": 259.0, "Lat": 40.79476, "Lon": -4.27762}], "Vegas de la Soledad y Soledad Dos": [{"Name": "Vegas de la Soledad y Soledad Dos", "Country Code": "MX", "Population": 1258.0, "Lat": 20.94476, "Lon": -97.83273}], "Vegesack": [{"Name": "Vegesack", "Country Code": "DE", "Population": 34757.0, "Lat": 53.16667, "Lon": 8.61667}], "Veggia-Villalunga": [{"Name": "Veggia-Villalunga", "Country Code": "IT", "Population": 6110.0, "Lat": 44.5607, "Lon": 10.75621}], "Veggiano": [{"Name": "Veggiano", "Country Code": "IT", "Population": 2126.0, "Lat": 45.44719, "Lon": 11.7128}], "Veghel": [{"Name": "Veghel", "Country Code": "NL", "Population": 25352.0, "Lat": 51.61667, "Lon": 5.54861}], "Veglie": [{"Name": "Veglie", "Country Code": "IT", "Population": 13970.0, "Lat": 40.33474, "Lon": 17.96238}], "Veglio": [{"Name": "Veglio", "Country Code": "IT", "Population": 660.0, "Lat": 45.64057, "Lon": 8.11412}], "Vegreville": [{"Name": "Vegreville", "Country Code": "CA", "Population": 5708.0, "Lat": 53.50015, "Lon": -112.05182}], "Vegueta": [{"Name": "V\u00e9gueta", "Country Code": "PE", "Population": 6219.0, "Lat": -11.02253, "Lon": -77.64378}], "Veguien": [{"Name": "V\u00e9guien", "Country Code": "CI", "Population": 1704.0, "Lat": 7.14149, "Lon": -8.01464}], "Veguillas de la Sierra": [{"Name": "Veguillas de la Sierra", "Country Code": "ES", "Population": 22.0, "Lat": 40.15, "Lon": -1.4}], "Veguitas": [{"Name": "Veguitas", "Country Code": "VE", "Population": 0.0, "Lat": 8.82391, "Lon": -69.99581}], "Vehmaa": [{"Name": "Vehmaa", "Country Code": "FI", "Population": 2435.0, "Lat": 60.68333, "Lon": 21.66667}], "Vehmersalmi": [{"Name": "Vehmersalmi", "Country Code": "FI", "Population": 1889.0, "Lat": 62.76101, "Lon": 28.02853}], "Veigne": [{"Name": "Veign\u00e9", "Country Code": "FR", "Population": 5771.0, "Lat": 47.28556, "Lon": 0.74079}], "Veigy": [{"Name": "Veigy", "Country Code": "FR", "Population": 3002.0, "Lat": 46.26787, "Lon": 6.26304}], "Veikkari": [{"Name": "Veikkari", "Country Code": "FI", "Population": 3784.0, "Lat": 60.60965, "Lon": 24.81241}], "Veilsdorf": [{"Name": "Veilsdorf", "Country Code": "DE", "Population": 3225.0, "Lat": 50.40876, "Lon": 10.80947}], "Veinge": [{"Name": "Veinge", "Country Code": "SE", "Population": 1417.0, "Lat": 56.55, "Lon": 13.06667}], "Veinte de Noviembre": [{"Name": "Veinte de Noviembre", "Country Code": "MX", "Population": 2207.0, "Lat": 16.62, "Lon": -92.08194}, {"Name": "Veinte de Noviembre", "Country Code": "MX", "Population": 1022.0, "Lat": 17.84699, "Lon": -92.5891}, {"Name": "Veinte de Noviembre", "Country Code": "MX", "Population": 1420.0, "Lat": 25.71193, "Lon": -103.3296}, {"Name": "Veinte de Noviembre", "Country Code": "MX", "Population": 4309.0, "Lat": 14.9773, "Lon": -92.26509}, {"Name": "Veinte de Noviembre", "Country Code": "MX", "Population": 1351.0, "Lat": 18.865, "Lon": -96.95472}], "Veinte de Noviembre (Santa Lucia)": [{"Name": "Veinte de Noviembre (Santa Luc\u00eda)", "Country Code": "MX", "Population": 1097.0, "Lat": 25.78923, "Lon": -103.15127}], "Veinticinco de Mayo": [{"Name": "Veinticinco de Mayo", "Country Code": "AR", "Population": 24668.0, "Lat": -35.43247, "Lon": -60.17156}, {"Name": "Veinticinco de Mayo", "Country Code": "AR", "Population": 6962.0, "Lat": -37.77491, "Lon": -67.71354}, {"Name": "Veinticinco de Mayo", "Country Code": "AR", "Population": 11928.0, "Lat": -27.37796, "Lon": -54.74505}], "Veintidos de Febrero": [{"Name": "Veintid\u00f3s de Febrero", "Country Code": "MX", "Population": 13021.0, "Lat": 19.61139, "Lon": -99.34667}], "Veintiuno de Agosto": [{"Name": "Veintiuno de Agosto", "Country Code": "MX", "Population": 1401.0, "Lat": 19.725, "Lon": -97.27222}], "Veisiejai": [{"Name": "Veisiejai", "Country Code": "LT", "Population": 1654.0, "Lat": 54.1011, "Lon": 23.69614}], "Veitsbronn": [{"Name": "Veitsbronn", "Country Code": "DE", "Population": 6194.0, "Lat": 49.51239, "Lon": 10.88797}], "Veitsch": [{"Name": "Veitsch", "Country Code": "AT", "Population": 360.0, "Lat": 47.57815, "Lon": 15.4945}], "Veitshochheim": [{"Name": "Veitsh\u00f6chheim", "Country Code": "DE", "Population": 10279.0, "Lat": 49.83278, "Lon": 9.88167}], "Vejalpur": [{"Name": "Vejalpur", "Country Code": "IN", "Population": 121610.0, "Lat": 22.69021, "Lon": 73.56299}], "Vejano": [{"Name": "Vejano", "Country Code": "IT", "Population": 1856.0, "Lat": 42.21905, "Lon": 12.09398}], "Vejbystrand": [{"Name": "Vejbystrand", "Country Code": "SE", "Population": 2764.0, "Lat": 56.31778, "Lon": 12.76722}], "Vejen": [{"Name": "Vejen", "Country Code": "DK", "Population": 8525.0, "Lat": 55.48117, "Lon": 9.13795}], "Vejer de la Frontera": [{"Name": "Vejer de la Frontera", "Country Code": "ES", "Population": 12973.0, "Lat": 36.25213, "Lon": -5.96717}], "Vejle": [{"Name": "Vejle", "Country Code": "DK", "Population": 60231.0, "Lat": 55.70927, "Lon": 9.5357}], "Vejprnice": [{"Name": "Vejprnice", "Country Code": "CZ", "Population": 2626.0, "Lat": 49.72988, "Lon": 13.27628}], "Vejprty": [{"Name": "Vejprty", "Country Code": "CZ", "Population": 3273.0, "Lat": 50.49232, "Lon": 13.03212}], "Vekso": [{"Name": "Veks\u00f8", "Country Code": "DK", "Population": 1792.0, "Lat": 55.75473, "Lon": 12.23837}], "Vel'sk": [{"Name": "Vel\u2019sk", "Country Code": "RU", "Population": 23126.0, "Lat": 61.06919, "Lon": 42.0992}], "Vel'ye": [{"Name": "Vel\u2019ye", "Country Code": "RU", "Population": 0.0, "Lat": 56.97005, "Lon": 28.57883}], "Vela": [{"Name": "Vela", "Country Code": "RO", "Population": 2211.0, "Lat": 44.28333, "Lon": 23.41667}], "Vela Luka": [{"Name": "Vela Luka", "Country Code": "HR", "Population": 3772.0, "Lat": 42.96333, "Lon": 16.7225}], "Velabisht": [{"Name": "Velabisht", "Country Code": "AL", "Population": 1162.0, "Lat": 40.70167, "Lon": 19.93222}], "Velada": [{"Name": "Velada", "Country Code": "ES", "Population": 2429.0, "Lat": 39.97687, "Lon": -4.97641}], "Veladero": [{"Name": "Veladero", "Country Code": "PA", "Population": 885.0, "Lat": 8.23455, "Lon": -81.65246}], "Velagici": [{"Name": "Velagi\u0107i", "Country Code": "BA", "Population": 4972.0, "Lat": 44.55618, "Lon": 16.73349}], "Velaine": [{"Name": "Velaine", "Country Code": "BE", "Population": 3510.0, "Lat": 50.47805, "Lon": 4.61031}], "Velaine-en-Haye": [{"Name": "Velaine-en-Haye", "Country Code": "FR", "Population": 1494.0, "Lat": 48.6999, "Lon": 6.02754}], "Velaines": [{"Name": "Velaines", "Country Code": "BE", "Population": 1147.0, "Lat": 50.66801, "Lon": 3.4866}, {"Name": "Velaines", "Country Code": "FR", "Population": 1009.0, "Lat": 48.6988, "Lon": 5.30483}], "Velamazan": [{"Name": "Velamaz\u00e1n", "Country Code": "ES", "Population": 122.0, "Lat": 41.44895, "Lon": -2.69935}], "Velankanni": [{"Name": "Velankanni", "Country Code": "IN", "Population": 10000.0, "Lat": 10.68333, "Lon": 79.83333}], "Velardena": [{"Name": "Velarde\u00f1a", "Country Code": "MX", "Population": 2425.0, "Lat": 25.06472, "Lon": -103.73668}], "Velars-sur-Ouche": [{"Name": "Velars-sur-Ouche", "Country Code": "FR", "Population": 1583.0, "Lat": 47.3196, "Lon": 4.90594}], "Velas": [{"Name": "Velas", "Country Code": "PT", "Population": 1980.0, "Lat": 38.68182, "Lon": -28.20909}], "Velasca": [{"Name": "Velasca", "Country Code": "IT", "Population": 1703.0, "Lat": 45.63165, "Lon": 9.35519}], "Velascalvaro": [{"Name": "Velasc\u00e1lvaro", "Country Code": "ES", "Population": 188.0, "Lat": 41.23028, "Lon": -4.97242}], "Velasco Ibarra": [{"Name": "Velasco Ibarra", "Country Code": "EC", "Population": 48754.0, "Lat": -1.04376, "Lon": -79.63837}], "Velaux": [{"Name": "Velaux", "Country Code": "FR", "Population": 7963.0, "Lat": 43.52839, "Lon": 5.25661}], "Velayos": [{"Name": "Velayos", "Country Code": "ES", "Population": 276.0, "Lat": 40.84157, "Lon": -4.62324}], "Velazquez": [{"Name": "Vel\u00e1zquez", "Country Code": "UY", "Population": 1022.0, "Lat": -34.03631, "Lon": -54.28054}], "Velbert": [{"Name": "Velbert", "Country Code": "DE", "Population": 87669.0, "Lat": 51.33537, "Lon": 7.04348}], "Velburg": [{"Name": "Velburg", "Country Code": "DE", "Population": 5373.0, "Lat": 49.23212, "Lon": 11.6716}], "Velcan": [{"Name": "Vel\u00e7an", "Country Code": "AL", "Population": 0.0, "Lat": 40.95472, "Lon": 20.46222}], "Velda Village": [{"Name": "Velda Village", "Country Code": "US", "Population": 1420.0, "Lat": 38.69005, "Lon": -90.29428}], "Velda Village Hills": [{"Name": "Velda Village Hills", "Country Code": "US", "Population": 1055.0, "Lat": 38.69061, "Lon": -90.28734}], "Veldegem": [{"Name": "Veldegem", "Country Code": "BE", "Population": 5189.0, "Lat": 51.1048, "Lon": 3.1591}], "Velden": [{"Name": "Velden", "Country Code": "DE", "Population": 6488.0, "Lat": 48.36632, "Lon": 12.25596}, {"Name": "Velden", "Country Code": "DE", "Population": 1887.0, "Lat": 49.61388, "Lon": 11.51008}], "Velden am Woerthersee": [{"Name": "Velden am W\u00f6rthersee", "Country Code": "AT", "Population": 2325.0, "Lat": 46.61301, "Lon": 14.0413}], "Veldhoven": [{"Name": "Veldhoven", "Country Code": "NL", "Population": 5340.0, "Lat": 51.41833, "Lon": 5.40278}], "Veldhuizen": [{"Name": "Veldhuizen", "Country Code": "NL", "Population": 9460.0, "Lat": 52.07537, "Lon": 5.01234}], "Veldwezelt": [{"Name": "Veldwezelt", "Country Code": "BE", "Population": 3859.0, "Lat": 50.86805, "Lon": 5.63101}], "Velefique": [{"Name": "Velefique", "Country Code": "ES", "Population": 246.0, "Lat": 37.19407, "Lon": -2.40155}], "Velehrad": [{"Name": "Velehrad", "Country Code": "CZ", "Population": 1323.0, "Lat": 49.10543, "Lon": 17.39426}], "Velemin": [{"Name": "Velem\u00edn", "Country Code": "CZ", "Population": 1427.0, "Lat": 50.53898, "Lon": 13.97675}], "Velen": [{"Name": "Velen", "Country Code": "DE", "Population": 13074.0, "Lat": 51.89447, "Lon": 6.98807}], "Velence": [{"Name": "Velence", "Country Code": "HU", "Population": 4832.0, "Lat": 47.23855, "Lon": 18.65484}], "Velenje": [{"Name": "Velenje", "Country Code": "SI", "Population": 24327.0, "Lat": 46.35917, "Lon": 15.11028}], "Veles": [{"Name": "Veles", "Country Code": "MK", "Population": 57873.0, "Lat": 41.71556, "Lon": 21.77556}], "Velesin": [{"Name": "Vele\u0161\u00edn", "Country Code": "CZ", "Population": 4023.0, "Lat": 48.82949, "Lon": 14.46252}], "Veleso": [{"Name": "Veleso", "Country Code": "IT", "Population": 216.0, "Lat": 45.90875, "Lon": 9.1809}], "Velesta": [{"Name": "Velesta", "Country Code": "MK", "Population": 8646.0, "Lat": 41.24083, "Lon": 20.64389}], "Velestino": [{"Name": "Velest\u00edno", "Country Code": "GR", "Population": 3044.0, "Lat": 39.38181, "Lon": 22.74616}], "Velez": [{"Name": "V\u00e9lez", "Country Code": "CO", "Population": 19376.0, "Lat": 6.01335, "Lon": -73.67352}], "Velez Rubio": [{"Name": "Velez Rubio", "Country Code": "ES", "Population": 6630.0, "Lat": 37.64844, "Lon": -2.07686}], "Velez de Benaudalla": [{"Name": "V\u00e9lez de Benaudalla", "Country Code": "ES", "Population": 2618.0, "Lat": 36.83244, "Lon": -3.51539}], "Velez-Blanco": [{"Name": "V\u00e9lez-Blanco", "Country Code": "ES", "Population": 2044.0, "Lat": 37.69178, "Lon": -2.09587}], "Velez-Malaga": [{"Name": "V\u00e9lez-M\u00e1laga", "Country Code": "ES", "Population": 74190.0, "Lat": 36.78107, "Lon": -4.10266}], "Velezzo Lomellina": [{"Name": "Velezzo Lomellina", "Country Code": "IT", "Population": 55.0, "Lat": 45.16336, "Lon": 8.73724}], "Velgast": [{"Name": "Velgast", "Country Code": "DE", "Population": 2016.0, "Lat": 54.27204, "Lon": 12.81075}], "Velika": [{"Name": "Velika", "Country Code": "HR", "Population": 1650.0, "Lat": 45.45444, "Lon": 17.66139}], "Velika Gorica": [{"Name": "Velika Gorica", "Country Code": "HR", "Population": 30036.0, "Lat": 45.7125, "Lon": 16.07556}], "Velika Greda": [{"Name": "Velika Greda", "Country Code": "RS", "Population": 1585.0, "Lat": 45.24376, "Lon": 21.03498}], "Velika Kladusa": [{"Name": "Velika Kladu\u0161a", "Country Code": "BA", "Population": 19330.0, "Lat": 45.18497, "Lon": 15.80579}], "Velika Kopanica": [{"Name": "Velika Kopanica", "Country Code": "HR", "Population": 1412.0, "Lat": 45.15611, "Lon": 18.39306}], "Velika Ludina": [{"Name": "Velika Ludina", "Country Code": "HR", "Population": 697.0, "Lat": 45.60657, "Lon": 16.58881}], "Velika Mlaka": [{"Name": "Velika Mlaka", "Country Code": "HR", "Population": 3395.0, "Lat": 45.73639, "Lon": 16.03111}], "Velika Mostanica": [{"Name": "Velika Mo\u0161tanica", "Country Code": "RS", "Population": 2751.0, "Lat": 44.66486, "Lon": 20.35395}], "Velika Obarska": [{"Name": "Velika Obarska", "Country Code": "BA", "Population": 3549.0, "Lat": 44.80461, "Lon": 19.16183}], "Velika Ostrna": [{"Name": "Velika Ostrna", "Country Code": "HR", "Population": 1136.0, "Lat": 45.78752, "Lon": 16.28139}], "Velika Pisanica": [{"Name": "Velika Pisanica", "Country Code": "HR", "Population": 830.0, "Lat": 45.8016, "Lon": 17.06551}], "Velika Plana": [{"Name": "Velika Plana", "Country Code": "RS", "Population": 0.0, "Lat": 44.33389, "Lon": 21.07676}], "Velika Polana": [{"Name": "Velika Polana", "Country Code": "SI", "Population": 870.0, "Lat": 46.57194, "Lon": 16.34694}], "Velika Socanica": [{"Name": "Velika So\u010danica", "Country Code": "BA", "Population": 1489.0, "Lat": 44.88465, "Lon": 17.92341}], "Velika Trnovitica": [{"Name": "Velika Trnovitica", "Country Code": "HR", "Population": 486.0, "Lat": 45.6825, "Lon": 16.95389}], "Velike Lasce": [{"Name": "Velike La\u0161\u010de", "Country Code": "SI", "Population": 729.0, "Lat": 45.83222, "Lon": 14.63639}], "Velikent": [{"Name": "Velikent", "Country Code": "RU", "Population": 4020.0, "Lat": 42.18762, "Lon": 48.06366}], "Veliki Bukovec": [{"Name": "Veliki Bukovec", "Country Code": "HR", "Population": 660.0, "Lat": 46.29444, "Lon": 16.71306}], "Veliki Gaj": [{"Name": "Veliki Gaj", "Country Code": "RS", "Population": 1039.0, "Lat": 45.28849, "Lon": 21.17057}], "Veliki Grgevac": [{"Name": "Veliki Gr\u0111evac", "Country Code": "HR", "Population": 1054.0, "Lat": 45.75028, "Lon": 17.0475}], "Veliki Preslav": [{"Name": "Veliki Preslav", "Country Code": "BG", "Population": 9425.0, "Lat": 43.16667, "Lon": 26.81667}], "Veliki Prokop": [{"Name": "Veliki Prokop", "Country Code": "HR", "Population": 25.0, "Lat": 45.63458, "Lon": 16.84115}], "Velikiy Novgorod": [{"Name": "Velikiy Novgorod", "Country Code": "RU", "Population": 222868.0, "Lat": 58.52131, "Lon": 31.27104}], "Velikiy Ustyug": [{"Name": "Velikiy Ustyug", "Country Code": "RU", "Population": 32642.0, "Lat": 60.76186, "Lon": 46.31352}], "Velikiye Luki": [{"Name": "Velikiye Luki", "Country Code": "RU", "Population": 103149.0, "Lat": 56.34063, "Lon": 30.54377}], "Veliko Gradiste": [{"Name": "Veliko Gradi\u0161te", "Country Code": "RS", "Population": 0.0, "Lat": 44.76329, "Lon": 21.51646}], "Veliko Polje": [{"Name": "Veliko Polje", "Country Code": "HR", "Population": 2122.0, "Lat": 45.73682, "Lon": 16.01584}], "Veliko Selce": [{"Name": "Veliko Selce", "Country Code": "HR", "Population": 70.0, "Lat": 45.4295, "Lon": 14.91373}], "Veliko Srediste": [{"Name": "Veliko Sredi\u0161te", "Country Code": "RS", "Population": 1698.0, "Lat": 45.17919, "Lon": 21.40353}], "Veliko Trgovisce": [{"Name": "Veliko Trgovi\u0161\u0107e", "Country Code": "HR", "Population": 1193.0, "Lat": 46.0, "Lon": 15.85}], "Veliko Trojstvo": [{"Name": "Veliko Trojstvo", "Country Code": "HR", "Population": 1075.0, "Lat": 45.93556, "Lon": 16.93417}], "Veliko Turnovo": [{"Name": "Veliko T\u016drnovo", "Country Code": "BG", "Population": 66217.0, "Lat": 43.08124, "Lon": 25.62904}], "Velikodvorskiy": [{"Name": "Velikodvorskiy", "Country Code": "RU", "Population": 2218.0, "Lat": 55.24996, "Lon": 40.6678}], "Velikooktyabr'skiy": [{"Name": "Velikooktyabr\u2019skiy", "Country Code": "RU", "Population": 2472.0, "Lat": 57.43333, "Lon": 33.81595}], "Velikopetrovka": [{"Name": "Velikopetrovka", "Country Code": "RU", "Population": 1164.0, "Lat": 53.25042, "Lon": 60.48606}], "Velikovechnoye": [{"Name": "Velikovechnoye", "Country Code": "RU", "Population": 5762.0, "Lat": 44.93402, "Lon": 39.75499}], "Velikoy": [{"Name": "Velik\u00f6y", "Country Code": "TR", "Population": 0.0, "Lat": 41.31528, "Lon": 42.4325}], "Velilla": [{"Name": "Velilla", "Country Code": "ES", "Population": 130.0, "Lat": 41.5592, "Lon": -5.00454}], "Velilla de Ebro": [{"Name": "Velilla de Ebro", "Country Code": "ES", "Population": 260.0, "Lat": 41.37416, "Lon": -0.43483}], "Velilla de Jiloca": [{"Name": "Velilla de Jiloca", "Country Code": "ES", "Population": 111.0, "Lat": 41.27509, "Lon": -1.60396}], "Velilla de San Antonio": [{"Name": "Velilla de San Antonio", "Country Code": "ES", "Population": 11553.0, "Lat": 40.36516, "Lon": -3.48484}], "Velilla de los Ajos": [{"Name": "Velilla de los Ajos", "Country Code": "ES", "Population": 40.0, "Lat": 41.49058, "Lon": -2.25579}], "Velilla del Rio Carrion": [{"Name": "Velilla del R\u00edo Carri\u00f3n", "Country Code": "ES", "Population": 1591.0, "Lat": 42.82611, "Lon": -4.84626}], "Velille": [{"Name": "Velille", "Country Code": "PE", "Population": 0.0, "Lat": -14.50889, "Lon": -71.88528}], "Velim": [{"Name": "Velim", "Country Code": "CZ", "Population": 2021.0, "Lat": 50.05965, "Lon": 15.10711}], "Velimese": [{"Name": "Velime\u015fe", "Country Code": "TR", "Population": 7893.0, "Lat": 41.25361, "Lon": 27.87833}], "Velines": [{"Name": "V\u00e9lines", "Country Code": "FR", "Population": 1166.0, "Lat": 44.85855, "Lon": 0.10748}], "Velinga": [{"Name": "Velinga", "Country Code": "PE", "Population": 59.0, "Lat": -15.27333, "Lon": -73.02167}], "Velingara": [{"Name": "V\u00e9lingara", "Country Code": "SN", "Population": 32161.0, "Lat": 13.15, "Lon": -14.11667}], "Velingrad": [{"Name": "Velingrad", "Country Code": "BG", "Population": 24036.0, "Lat": 42.02754, "Lon": 23.99155}], "Velipoje": [{"Name": "Velipoj\u00eb", "Country Code": "AL", "Population": 0.0, "Lat": 41.87833, "Lon": 19.40556}], "Velizh": [{"Name": "Velizh", "Country Code": "RU", "Population": 8146.0, "Lat": 55.60448, "Lon": 31.1986}], "Velizy-Villacoublay": [{"Name": "V\u00e9lizy-Villacoublay", "Country Code": "FR", "Population": 21741.0, "Lat": 48.78198, "Lon": 2.19395}], "Veljusa": [{"Name": "Veljusa", "Country Code": "MK", "Population": 1720.0, "Lat": 41.47611, "Lon": 22.5675}], "Velka Bites": [{"Name": "Velk\u00e1 B\u00edte\u0161", "Country Code": "CZ", "Population": 4843.0, "Lat": 49.28838, "Lon": 16.22742}], "Velka Bystrice": [{"Name": "Velk\u00e1 Byst\u0159ice", "Country Code": "CZ", "Population": 2913.0, "Lat": 49.5948, "Lon": 17.36544}], "Velka Dobra": [{"Name": "Velk\u00e1 Dobr\u00e1", "Country Code": "CZ", "Population": 1264.0, "Lat": 50.10964, "Lon": 14.0698}], "Velka Hlegsebe": [{"Name": "Velk\u00e1 Hle\u010fsebe", "Country Code": "CZ", "Population": 2164.0, "Lat": 49.96151, "Lon": 12.66763}], "Velka Polom": [{"Name": "Velk\u00e1 Polom", "Country Code": "CZ", "Population": 1597.0, "Lat": 49.86359, "Lon": 18.09331}], "Velka nad Velickou": [{"Name": "Velk\u00e1 nad Veli\u010dkou", "Country Code": "CZ", "Population": 3149.0, "Lat": 48.88257, "Lon": 17.5206}], "Velke Bilovice": [{"Name": "Velk\u00e9 B\u00edlovice", "Country Code": "CZ", "Population": 3727.0, "Lat": 48.84929, "Lon": 16.89227}], "Velke Brezno": [{"Name": "Velk\u00e9 B\u0159ezno", "Country Code": "CZ", "Population": 1957.0, "Lat": 50.6627, "Lon": 14.14174}], "Velke Hamry": [{"Name": "Velk\u00e9 Hamry", "Country Code": "CZ", "Population": 2754.0, "Lat": 50.71373, "Lon": 15.31539}], "Velke Heraltice": [{"Name": "Velk\u00e9 Heraltice", "Country Code": "CZ", "Population": 1613.0, "Lat": 49.97493, "Lon": 17.72879}], "Velke Hostice": [{"Name": "Velk\u00e9 Ho\u0161tice", "Country Code": "CZ", "Population": 1675.0, "Lat": 49.93609, "Lon": 17.9738}], "Velke Kapusany": [{"Name": "Ve\u013ek\u00e9 Kapu\u0161any", "Country Code": "SK", "Population": 8940.0, "Lat": 48.55197, "Lon": 22.08036}], "Velke Karlovice": [{"Name": "Velk\u00e9 Karlovice", "Country Code": "CZ", "Population": 2651.0, "Lat": 49.36064, "Lon": 18.28355}], "Velke Losiny": [{"Name": "Velk\u00e9 Losiny", "Country Code": "CZ", "Population": 2862.0, "Lat": 50.03197, "Lon": 17.04058}], "Velke Mezirici": [{"Name": "Velk\u00e9 Mezi\u0159\u00ed\u010d\u00ed", "Country Code": "CZ", "Population": 11753.0, "Lat": 49.35522, "Lon": 16.01224}], "Velke Nemcice": [{"Name": "Velk\u00e9 N\u011bm\u010dice", "Country Code": "CZ", "Population": 1654.0, "Lat": 48.99168, "Lon": 16.67208}], "Velke Opatovice": [{"Name": "Velk\u00e9 Opatovice", "Country Code": "CZ", "Population": 4169.0, "Lat": 49.61237, "Lon": 16.67947}], "Velke Pavlovice": [{"Name": "Velk\u00e9 Pavlovice", "Country Code": "CZ", "Population": 3078.0, "Lat": 48.90469, "Lon": 16.81605}], "Velke Popovice": [{"Name": "Velk\u00e9 Popovice", "Country Code": "CZ", "Population": 1926.0, "Lat": 49.92252, "Lon": 14.63934}], "Velke Porici": [{"Name": "Velk\u00e9 Po\u0159\u00ed\u010d\u00ed", "Country Code": "CZ", "Population": 2275.0, "Lat": 50.46177, "Lon": 16.18931}], "Velke Prilepy": [{"Name": "Velk\u00e9 P\u0159\u00edlepy", "Country Code": "CZ", "Population": 1105.0, "Lat": 50.1605, "Lon": 14.31447}], "Velke Svatonovice": [{"Name": "Velk\u00e9 Svato\u0148ovice", "Country Code": "CZ", "Population": 1125.0, "Lat": 50.53164, "Lon": 16.02853}], "Velkua": [{"Name": "Velkua", "Country Code": "FI", "Population": 217.0, "Lat": 60.46667, "Lon": 21.66667}], "Velky Beranov": [{"Name": "Velk\u00fd Beranov", "Country Code": "CZ", "Population": 1269.0, "Lat": 49.40504, "Lon": 15.667}], "Velky Krtis": [{"Name": "Ve\u013ek\u00fd Krt\u00ed\u0161", "Country Code": "SK", "Population": 12608.0, "Lat": 48.21059, "Lon": 19.35043}], "Velky Meder": [{"Name": "Ve\u013ek\u00fd Meder", "Country Code": "SK", "Population": 8611.0, "Lat": 47.85798, "Lon": 17.76884}], "Velky Osek": [{"Name": "Velk\u00fd Osek", "Country Code": "CZ", "Population": 2150.0, "Lat": 50.09867, "Lon": 15.18629}], "Velky Senov": [{"Name": "Velk\u00fd \u0160enov", "Country Code": "CZ", "Population": 1978.0, "Lat": 50.99078, "Lon": 14.37428}], "Velky Tynec": [{"Name": "Velk\u00fd T\u00fdnec", "Country Code": "CZ", "Population": 2150.0, "Lat": 49.54994, "Lon": 17.33359}], "Velky Ujezd": [{"Name": "Velk\u00fd \u00dajezd", "Country Code": "CZ", "Population": 1068.0, "Lat": 49.57858, "Lon": 17.48347}], "Vellanur": [{"Name": "Vell\u0101n\u016br", "Country Code": "IN", "Population": 6078.0, "Lat": 13.15804, "Lon": 80.10634}], "Vellberg": [{"Name": "Vellberg", "Country Code": "DE", "Population": 4264.0, "Lat": 49.0843, "Lon": 9.87914}], "Vellereille-les-Brayeux": [{"Name": "Vellereille-les-Brayeux", "Country Code": "BE", "Population": 1090.0, "Lat": 50.37952, "Lon": 4.15112}], "Velleron": [{"Name": "Velleron", "Country Code": "FR", "Population": 3028.0, "Lat": 43.95742, "Lon": 5.02936}], "Velletri": [{"Name": "Velletri", "Country Code": "IT", "Population": 52911.0, "Lat": 41.68573, "Lon": 12.77753}], "Vellezzo Bellini": [{"Name": "Vellezzo Bellini", "Country Code": "IT", "Population": 1649.0, "Lat": 45.26948, "Lon": 9.10088}], "Vellinge": [{"Name": "Vellinge", "Country Code": "SE", "Population": 6496.0, "Lat": 55.47124, "Lon": 13.01971}], "Vellisca": [{"Name": "Vellisca", "Country Code": "ES", "Population": 163.0, "Lat": 40.12965, "Lon": -2.81444}], "Velliza": [{"Name": "Velliza", "Country Code": "ES", "Population": 139.0, "Lat": 41.57918, "Lon": -4.94655}], "Vellmar": [{"Name": "Vellmar", "Country Code": "DE", "Population": 18623.0, "Lat": 51.35806, "Lon": 9.47974}], "Vellore": [{"Name": "Vellore", "Country Code": "IN", "Population": 484690.0, "Lat": 12.9184, "Lon": 79.13255}], "Velm": [{"Name": "Velm", "Country Code": "AT", "Population": 1295.0, "Lat": 48.03333, "Lon": 16.43333}, {"Name": "Velm", "Country Code": "BE", "Population": 2580.0, "Lat": 50.7787, "Lon": 5.13096}], "Velo": [{"Name": "V\u00e9lo", "Country Code": "GR", "Population": 3096.0, "Lat": 37.9761, "Lon": 22.75985}, {"Name": "Velo", "Country Code": "IT", "Population": 749.0, "Lat": 45.78983, "Lon": 11.36725}], "Velo Veronese": [{"Name": "Velo Veronese", "Country Code": "IT", "Population": 245.0, "Lat": 45.60669, "Lon": 11.09519}], "Velo d'Astico": [{"Name": "Velo d'Astico", "Country Code": "IT", "Population": 2350.0, "Lat": 45.7884, "Lon": 11.36769}], "Velp": [{"Name": "Velp", "Country Code": "NL", "Population": 17669.0, "Lat": 51.995, "Lon": 5.97361}], "Velpke": [{"Name": "Velpke", "Country Code": "DE", "Population": 4506.0, "Lat": 52.40797, "Lon": 10.93637}], "Velsen-Zuid": [{"Name": "Velsen-Zuid", "Country Code": "NL", "Population": 67758.0, "Lat": 52.46, "Lon": 4.65}], "Veltem-Beisem": [{"Name": "Veltem-Beisem", "Country Code": "BE", "Population": 4698.0, "Lat": 50.90807, "Lon": 4.61906}], "Velten": [{"Name": "Velten", "Country Code": "DE", "Population": 11498.0, "Lat": 52.69149, "Lon": 13.17533}], "Veltenhof": [{"Name": "Veltenhof", "Country Code": "DE", "Population": 2738.0, "Lat": 52.30774, "Lon": 10.48937}], "Veltheim": [{"Name": "Veltheim (Kreis 5)", "Country Code": "CH", "Population": 8901.0, "Lat": 47.51419, "Lon": 8.717}, {"Name": "Veltheim", "Country Code": "CH", "Population": 1374.0, "Lat": 47.43796, "Lon": 8.14722},