{"Kota Ternate": [{"Name": "Kota Ternate", "Country Code": "ID", "Population": 0.0, "Lat": 0.78333, "Lon": 127.36667}], "Kota Tinggi": [{"Name": "Kota Tinggi", "Country Code": "MY", "Population": 52743.0, "Lat": 1.7381, "Lon": 103.8999}], "Kota Trieng": [{"Name": "Kota Trieng", "Country Code": "ID", "Population": 0.0, "Lat": 3.5984, "Lon": 96.96243}], "Kotaagung": [{"Name": "Kotaagung", "Country Code": "ID", "Population": 0.0, "Lat": -5.49415, "Lon": 104.62201}, {"Name": "Kotaagung", "Country Code": "ID", "Population": 0.0, "Lat": -4.06853, "Lon": 103.43164}], "Kotabahagia": [{"Name": "Kotabahagia", "Country Code": "ID", "Population": 0.0, "Lat": 3.819, "Lon": 96.7658}], "Kotabaru": [{"Name": "Kotabaru", "Country Code": "ID", "Population": 0.0, "Lat": -8.5104, "Lon": 121.9911}, {"Name": "Kotabaru", "Country Code": "ID", "Population": 0.0, "Lat": -1.10155, "Lon": 101.76031}, {"Name": "Kotabaru", "Country Code": "ID", "Population": 0.0, "Lat": -4.2137, "Lon": 120.0096}], "Kotabaru Hilir": [{"Name": "Kotabaru Hilir", "Country Code": "ID", "Population": 0.0, "Lat": -3.24267, "Lon": 116.22514}], "Kotabesi": [{"Name": "Kotabesi", "Country Code": "ID", "Population": 0.0, "Lat": -2.3715, "Lon": 113.0025}], "Kotablieoua": [{"Name": "Kotabli\u00e9oua", "Country Code": "CI", "Population": 2389.0, "Lat": 6.20663, "Lon": -6.51734}], "Kotabumi": [{"Name": "Kotabumi", "Country Code": "ID", "Population": 42366.0, "Lat": -4.82505, "Lon": 104.8817}], "Kotabunan": [{"Name": "Kotabunan", "Country Code": "ID", "Population": 0.0, "Lat": 0.81217, "Lon": 124.65546}], "Kotagiri": [{"Name": "Kotagiri", "Country Code": "IN", "Population": 28848.0, "Lat": 11.42072, "Lon": 76.86035}], "Kotaj": [{"Name": "K\u00f3taj", "Country Code": "HU", "Population": 4553.0, "Lat": 48.05, "Lon": 21.71667}], "Kotamangalam": [{"Name": "Kotamangalam", "Country Code": "IN", "Population": 37543.0, "Lat": 10.06435, "Lon": 76.62843}], "Kotanopan": [{"Name": "Kotanopan", "Country Code": "ID", "Population": 0.0, "Lat": 0.66758, "Lon": 99.70908}], "Kotaparh": [{"Name": "Kotap\u0101rh", "Country Code": "IN", "Population": 15479.0, "Lat": 19.14256, "Lon": 82.32536}], "Kotar": [{"Name": "Kot\u0101r", "Country Code": "IN", "Population": 6953.0, "Lat": 24.69802, "Lon": 80.98073}], "Kotara": [{"Name": "Kotara", "Country Code": "AU", "Population": 3846.0, "Lat": -32.94282, "Lon": 151.69585}], "Kotara South": [{"Name": "Kotara South", "Country Code": "AU", "Population": 1112.0, "Lat": -32.95261, "Lon": 151.69076}], "Kotatua": [{"Name": "Kotatua", "Country Code": "ID", "Population": 0.0, "Lat": -0.34514, "Lon": 100.36241}], "Kotawaikabubak": [{"Name": "Kotawaikabubak", "Country Code": "ID", "Population": 0.0, "Lat": -9.6376, "Lon": 119.4229}], "Kotawaringin": [{"Name": "Kotawaringin", "Country Code": "ID", "Population": 0.0, "Lat": -2.4729, "Lon": 111.4731}], "Kotayk'": [{"Name": "Kotayk\u2019", "Country Code": "AM", "Population": 1510.0, "Lat": 40.27789, "Lon": 44.66388}], "Kotdefe": [{"Name": "Kotdef\u00e8", "Country Code": "HT", "Population": 2393.0, "Lat": 18.18872, "Lon": -73.00287}], "Kotdwara": [{"Name": "Kotdw\u0101ra", "Country Code": "IN", "Population": 27009.0, "Lat": 29.74612, "Lon": 78.52219}], "Kote": [{"Name": "Kot\u00eb", "Country Code": "AL", "Population": 0.0, "Lat": 40.38944, "Lon": 19.60222}], "Kotek": [{"Name": "K\u00f6tek", "Country Code": "TR", "Population": 0.0, "Lat": 40.2185, "Lon": 43.0022}], "Kotel": [{"Name": "Kotel", "Country Code": "BG", "Population": 6421.0, "Lat": 42.88333, "Lon": 26.45}], "Kotel'nich": [{"Name": "Kotel\u2019nich", "Country Code": "RU", "Population": 27600.0, "Lat": 58.30348, "Lon": 48.33745}], "Kotel'niki": [{"Name": "Kotel\u2019niki", "Country Code": "RU", "Population": 18300.0, "Lat": 55.65384, "Lon": 37.86234}], "Kotel'nikovo": [{"Name": "Kotel\u2019nikovo", "Country Code": "RU", "Population": 19622.0, "Lat": 47.63009, "Lon": 43.14068}, {"Name": "Kotel\u2019nikovo", "Country Code": "UA", "Population": 1373.0, "Lat": 45.36584, "Lon": 34.02575}], "Koteleve": [{"Name": "Koteleve", "Country Code": "UA", "Population": 2991.0, "Lat": 48.2835, "Lon": 26.35822}], "Kotelva": [{"Name": "Kotelva", "Country Code": "UA", "Population": 12122.0, "Lat": 50.06849, "Lon": 34.74697}], "Kothapet": [{"Name": "Koth\u0101pet", "Country Code": "IN", "Population": 4266.0, "Lat": 19.35176, "Lon": 79.48323}], "Kothi": [{"Name": "Kothi", "Country Code": "IN", "Population": 7790.0, "Lat": 24.7526, "Lon": 80.77751}], "Kotiari": [{"Name": "Kotiari", "Country Code": "SN", "Population": 4243.0, "Lat": 13.9, "Lon": -13.45}], "Kotido": [{"Name": "Kotido", "Country Code": "UG", "Population": 18800.0, "Lat": 2.98056, "Lon": 34.13306}], "Kotiessou": [{"Name": "Koti\u00e9ssou", "Country Code": "CI", "Population": 2932.0, "Lat": 6.17827, "Lon": -5.06123}], "Kotik": [{"Name": "Kotik", "Country Code": "RU", "Population": 1500.0, "Lat": 54.65057, "Lon": 100.45395}], "Kotikawatta": [{"Name": "Kotikawatta", "Country Code": "LK", "Population": 64565.0, "Lat": 6.9269, "Lon": 79.9095}], "Kotimpo": [{"Name": "Kotimpo", "Country Code": "CI", "Population": 3772.0, "Lat": 6.17761, "Lon": -4.24411}], "Kotka": [{"Name": "Kotka", "Country Code": "FI", "Population": 54616.0, "Lat": 60.4664, "Lon": 26.94582}], "Kotkapura": [{"Name": "Kotkapura", "Country Code": "IN", "Population": 80741.0, "Lat": 30.5819, "Lon": 74.83298}], "Kotkhai": [{"Name": "Kotkhai", "Country Code": "IN", "Population": 1253.0, "Lat": 31.11728, "Lon": 77.53936}], "Kotkot": [{"Name": "Kotkot", "Country Code": "PH", "Population": 4067.0, "Lat": 10.425, "Lon": 124.0005}], "Kotla": [{"Name": "Kotla", "Country Code": "IN", "Population": 5000.0, "Lat": 32.25, "Lon": 76.03333}, {"Name": "Kotla", "Country Code": "PL", "Population": 1400.0, "Lat": 51.74542, "Lon": 16.03575}], "Kotlas": [{"Name": "Kotlas", "Country Code": "RU", "Population": 59180.0, "Lat": 61.25663, "Lon": 46.6537}], "Kotli": [{"Name": "Kotli", "Country Code": "PK", "Population": 640000.0, "Lat": 33.51836, "Lon": 73.9022}], "Kotli Loharan": [{"Name": "Kotli Loharan", "Country Code": "PK", "Population": 21463.0, "Lat": 32.58893, "Lon": 74.49466}], "Kotlin": [{"Name": "Kotlin", "Country Code": "PL", "Population": 3416.0, "Lat": 51.91913, "Lon": 17.64825}], "Kotlje": [{"Name": "Kotlje", "Country Code": "SI", "Population": 1026.0, "Lat": 46.52139, "Lon": 14.98694}], "Kotlovka": [{"Name": "Kotlovka", "Country Code": "RU", "Population": 64000.0, "Lat": 55.65928, "Lon": 37.60404}], "Kotlovyna": [{"Name": "Kotlovyna", "Country Code": "UA", "Population": 2643.0, "Lat": 45.50692, "Lon": 28.57438}], "Kotlyareve": [{"Name": "Kotlyareve", "Country Code": "UA", "Population": 1602.0, "Lat": 46.88586, "Lon": 32.21949}], "Kotlyarevskaya": [{"Name": "Kotlyarevskaya", "Country Code": "RU", "Population": 3887.0, "Lat": 43.57344, "Lon": 44.06134}], "Kotma": [{"Name": "Kotma", "Country Code": "IN", "Population": 31756.0, "Lat": 23.20383, "Lon": 81.97904}], "Koto": [{"Name": "Koto", "Country Code": "HT", "Population": 2065.0, "Lat": 18.20601, "Lon": -74.04013}], "Koto-Ganda": [{"Name": "Koto-Ganda", "Country Code": "CI", "Population": 2146.0, "Lat": 7.58746, "Lon": -3.23384}], "Kotobi": [{"Name": "Kotobi", "Country Code": "CI", "Population": 8768.0, "Lat": 6.69569, "Lon": -4.12892}], "Kotobo": [{"Name": "Kotobo", "Country Code": "CI", "Population": 1857.0, "Lat": 7.73138, "Lon": -3.82677}], "Kotoka": [{"Name": "Kotoka", "Country Code": "CI", "Population": 4493.0, "Lat": 5.54281, "Lon": -2.86912}], "Kotokosso": [{"Name": "Kotokosso", "Country Code": "CI", "Population": 2418.0, "Lat": 7.07394, "Lon": -3.12552}], "Kotokou-Ayera": [{"Name": "Kotokou-Ay\u00e9ra", "Country Code": "CI", "Population": 1947.0, "Lat": 7.29761, "Lon": -3.16776}], "Kotolo": [{"Name": "Kotolo", "Country Code": "CI", "Population": 1061.0, "Lat": 8.32589, "Lon": -4.4125}], "Kotolte": [{"Name": "Kotolte", "Country Code": "MX", "Population": 2503.0, "Lat": 16.86444, "Lon": -92.46111}], "Koton-Karfe": [{"Name": "Koton-Karfe", "Country Code": "NG", "Population": 10709.0, "Lat": 8.08834, "Lon": 6.79876}], "Kotor": [{"Name": "Kotor", "Country Code": "ME", "Population": 5345.0, "Lat": 42.42067, "Lon": 18.76825}], "Kotor Varos": [{"Name": "Kotor Varo\u0161", "Country Code": "BA", "Population": 5068.0, "Lat": 44.61831, "Lon": 17.37204}], "Kotoriba": [{"Name": "Kotoriba", "Country Code": "HR", "Population": 2938.0, "Lat": 46.355, "Lon": 16.81806}], "Kototujuh": [{"Name": "Kototujuh", "Country Code": "ID", "Population": 0.0, "Lat": -0.6361, "Lon": 100.889}], "Kotouagnoa": [{"Name": "Kotouagnoa", "Country Code": "CI", "Population": 5645.0, "Lat": 5.21608, "Lon": -2.89049}], "Kotouba": [{"Name": "Kotouba", "Country Code": "CI", "Population": 1394.0, "Lat": 8.68898, "Lon": -3.19378}], "Kotoula": [{"Name": "Kotoula", "Country Code": "CI", "Population": 1725.0, "Lat": 10.11709, "Lon": -7.3949}], "Kotovo": [{"Name": "Kotovo", "Country Code": "RU", "Population": 26981.0, "Lat": 50.32113, "Lon": 44.80119}], "Kotovsk": [{"Name": "Kotovsk", "Country Code": "RU", "Population": 33077.0, "Lat": 52.59047, "Lon": 41.50251}], "Kotowal": [{"Name": "K\u014d\u1e6fow\u0101l", "Country Code": "AF", "Population": 0.0, "Lat": 34.10319, "Lon": 70.46073}], "Kotputli": [{"Name": "Kotputli", "Country Code": "IN", "Population": 43651.0, "Lat": 27.70207, "Lon": 76.19911}], "Kotra": [{"Name": "Kotra", "Country Code": "IN", "Population": 8534.0, "Lat": 25.8077, "Lon": 79.30909}], "Kotri": [{"Name": "Kotri", "Country Code": "PK", "Population": 72672.0, "Lat": 25.36566, "Lon": 68.30831}], "Kotsiubynske": [{"Name": "Kotsiubynske", "Country Code": "UA", "Population": 17623.0, "Lat": 50.48836, "Lon": 30.32957}], "Kottagudem": [{"Name": "Kottag\u016bdem", "Country Code": "IN", "Population": 79247.0, "Lat": 17.55106, "Lon": 80.61779}], "Kottaiyur": [{"Name": "Kottaiy\u016br", "Country Code": "IN", "Population": 11519.0, "Lat": 10.10956, "Lon": 78.7956}], "Kottapalli": [{"Name": "Kottapalli", "Country Code": "IN", "Population": 9899.0, "Lat": 18.49543, "Lon": 79.0943}], "Kottayam": [{"Name": "Kottayam", "Country Code": "IN", "Population": 55374.0, "Lat": 9.58692, "Lon": 76.52132}], "Kottenheim": [{"Name": "Kottenheim", "Country Code": "DE", "Population": 2780.0, "Lat": 50.35, "Lon": 7.25}], "Kottgeisering": [{"Name": "Kottgeisering", "Country Code": "DE", "Population": 1488.0, "Lat": 48.11667, "Lon": 11.13333}], "Kottingbrunn": [{"Name": "Kottingbrunn", "Country Code": "AT", "Population": 7417.0, "Lat": 47.95096, "Lon": 16.22715}], "Kotturu": [{"Name": "Kott\u016bru", "Country Code": "IN", "Population": 24004.0, "Lat": 14.82442, "Lon": 76.22005}], "Kottweiler-Schwanden": [{"Name": "Kottweiler-Schwanden", "Country Code": "DE", "Population": 1435.0, "Lat": 49.48333, "Lon": 7.53333}], "Kotu": [{"Name": "Kotu", "Country Code": "GM", "Population": 19634.0, "Lat": 13.45944, "Lon": -16.70528}], "Kotun": [{"Name": "Kotu\u0144", "Country Code": "PL", "Population": 2503.0, "Lat": 52.17643, "Lon": 22.06819}], "Kotwa": [{"Name": "Kotwa", "Country Code": "IN", "Population": 13916.0, "Lat": 25.0308, "Lon": 81.31908}], "Kotzebue": [{"Name": "Kotzebue", "Country Code": "US", "Population": 3277.0, "Lat": 66.89846, "Lon": -162.59809}], "Kotzting": [{"Name": "K\u00f6tzting", "Country Code": "DE", "Population": 7471.0, "Lat": 49.17649, "Lon": 12.85515}], "Kou'an": [{"Name": "Kou\u2019an", "Country Code": "CN", "Population": 0.0, "Lat": 32.3082, "Lon": 119.87568}], "Koua": [{"Name": "Koua", "Country Code": "CI", "Population": 2450.0, "Lat": 7.50571, "Lon": -7.27025}, {"Name": "Koua", "Country Code": "KM", "Population": 1391.0, "Lat": -11.40514, "Lon": 43.34713}], "Kouablazra": [{"Name": "Kouablazra", "Country Code": "CI", "Population": 1284.0, "Lat": 7.28026, "Lon": -6.24726}], "Kouadio-Etienkro": [{"Name": "Kouadio-Etienkro", "Country Code": "CI", "Population": 1103.0, "Lat": 6.79472, "Lon": -4.74949}], "Kouadio-Kissikro": [{"Name": "Kouadio-Kissikro", "Country Code": "CI", "Population": 1027.0, "Lat": 7.44104, "Lon": -3.02236}], "Kouadio-Sakassou": [{"Name": "Kouadio-Sakassou", "Country Code": "CI", "Population": 1322.0, "Lat": 7.48224, "Lon": -5.57569}], "Kouadioagui": [{"Name": "Kouadioagui", "Country Code": "CI", "Population": 1031.0, "Lat": 5.34685, "Lon": -6.62945}], "Kouadiokoto": [{"Name": "Kouadiokoto", "Country Code": "CI", "Population": 1260.0, "Lat": 7.96187, "Lon": -3.4691}], "Kouadiokro": [{"Name": "Kouadiokro", "Country Code": "CI", "Population": 1582.0, "Lat": 6.6151, "Lon": -3.81945}], "Kouadiokrou": [{"Name": "Kouadiokrou", "Country Code": "CI", "Population": 1320.0, "Lat": 7.095, "Lon": -3.03528}], "Kouadiotekro": [{"Name": "Kouadiot\u00e9kro", "Country Code": "CI", "Population": 1752.0, "Lat": 6.56114, "Lon": -4.74247}], "Kouadioukro": [{"Name": "Kouadioukro", "Country Code": "CI", "Population": 3944.0, "Lat": 7.25528, "Lon": -3.7675}], "Kouadjannikro": [{"Name": "Kouadjannikro", "Country Code": "CI", "Population": 1402.0, "Lat": 7.62982, "Lon": -4.74975}], "Kouadjokro": [{"Name": "Kouadjokro", "Country Code": "CI", "Population": 1296.0, "Lat": 6.004, "Lon": -4.51903}], "Kouafla": [{"Name": "Kouafla", "Country Code": "CI", "Population": 2700.0, "Lat": 7.60747, "Lon": -5.87601}], "Kouafo-Akidom": [{"Name": "Kouafo-Akidom", "Country Code": "CI", "Population": 1497.0, "Lat": 8.20469, "Lon": -2.84851}], "Kouaisseizra": [{"Name": "Koua\u00efss\u00e9izra", "Country Code": "CI", "Population": 1628.0, "Lat": 7.55916, "Lon": -5.91184}], "Kouakou": [{"Name": "Kouakou", "Country Code": "CI", "Population": 2374.0, "Lat": 6.99847, "Lon": -5.51243}], "Kouakou-Kankrou": [{"Name": "Kouakou-Kankrou", "Country Code": "CI", "Population": 2007.0, "Lat": 7.96895, "Lon": -3.62765}], "Kouakouagui": [{"Name": "Kouakouagui", "Country Code": "CI", "Population": 2575.0, "Lat": 5.93006, "Lon": -6.80181}], "Kouakouamekrou": [{"Name": "Kouakouam\u00e9krou", "Country Code": "CI", "Population": 2845.0, "Lat": 7.26087, "Lon": -3.05376}], "Kouakoudougou": [{"Name": "Kouakoudougou", "Country Code": "CI", "Population": 2096.0, "Lat": 7.77038, "Lon": -4.24489}], "Kouakoukrakro": [{"Name": "Kouakoukrakro", "Country Code": "CI", "Population": 2065.0, "Lat": 7.47385, "Lon": -3.25097}], "Kouakoussekro": [{"Name": "Kouakoussekro", "Country Code": "CI", "Population": 2171.0, "Lat": 7.29013, "Lon": -4.15449}], "Kouakro": [{"Name": "Kouakro", "Country Code": "CI", "Population": 4005.0, "Lat": 5.444, "Lon": -2.90642}, {"Name": "Kouakro", "Country Code": "CI", "Population": 1022.0, "Lat": 7.79722, "Lon": -4.8325}, {"Name": "Kouakro", "Country Code": "CI", "Population": 1895.0, "Lat": 6.65142, "Lon": -4.43821}], "Kouakro-Mizron": [{"Name": "Kouakro-Mizron", "Country Code": "CI", "Population": 1271.0, "Lat": 7.83448, "Lon": -5.07892}], "Kouame-Akaffoukro": [{"Name": "Kouam\u00e9-Akaffoukro", "Country Code": "CI", "Population": 1231.0, "Lat": 7.11787, "Lon": -4.86128}], "Kouame-Lekro": [{"Name": "Kouam\u00e9-L\u00e9kro", "Country Code": "CI", "Population": 1565.0, "Lat": 7.31551, "Lon": -4.073}], "Kouameagui": [{"Name": "Kouam\u00e9agui", "Country Code": "CI", "Population": 2079.0, "Lat": 5.47519, "Lon": -6.47273}], "Kouamefra": [{"Name": "Kouam\u00e9fra", "Country Code": "CI", "Population": 11237.0, "Lat": 6.59205, "Lon": -5.42399}], "Kouamekro": [{"Name": "Kouam\u00e9kro", "Country Code": "CI", "Population": 1520.0, "Lat": 6.1916, "Lon": -4.43922}], "Kouan Houle": [{"Name": "Kouan Houl\u00e9", "Country Code": "CI", "Population": 6406.0, "Lat": 7.39279, "Lon": -8.26093}], "Kouande": [{"Name": "Kouand\u00e9", "Country Code": "BJ", "Population": 27197.0, "Lat": 6.4, "Lon": 2.06667}], "Kouandi-Ndakro": [{"Name": "Kouandi-Ndakro", "Country Code": "CI", "Population": 1462.0, "Lat": 7.57896, "Lon": -4.00099}], "Kouango": [{"Name": "Kouango", "Country Code": "CF", "Population": 36575.0, "Lat": 4.99337, "Lon": 19.96186}], "Kouarabo": [{"Name": "Kouarabo", "Country Code": "CI", "Population": 1617.0, "Lat": 7.80487, "Lon": -5.69796}], "Kouasililie": [{"Name": "Kouasilili\u00e9", "Country Code": "CI", "Population": 2924.0, "Lat": 5.7154, "Lon": -5.56047}], "Kouassi Kouamekro": [{"Name": "Kouassi Kouam\u00e9kro", "Country Code": "CI", "Population": 1398.0, "Lat": 7.91887, "Lon": -5.70867}], "Kouassi-Badoukro": [{"Name": "Kouassi-Badoukro", "Country Code": "CI", "Population": 1090.0, "Lat": 7.40931, "Lon": -3.20596}], "Kouassi-Datekro": [{"Name": "Kouassi-Dat\u00e9kro", "Country Code": "CI", "Population": 7965.0, "Lat": 7.8175, "Lon": -3.52556}], "Kouassi-Kouassikro": [{"Name": "Kouassi-Kouassikro", "Country Code": "CI", "Population": 10102.0, "Lat": 7.34141, "Lon": -4.67709}], "Kouassi-Nawa": [{"Name": "Kouassi-Nawa", "Country Code": "CI", "Population": 2144.0, "Lat": 8.11848, "Lon": -2.91086}], "Kouassi-Ngatakro": [{"Name": "Kouassi-Ngatakro", "Country Code": "CI", "Population": 1134.0, "Lat": 7.38397, "Lon": -3.99424}], "Kouassi-Perita": [{"Name": "Kouassi-P\u00e9rita", "Country Code": "CI", "Population": 1026.0, "Lat": 6.93597, "Lon": -5.6435}], "Kouassianiaguene": [{"Name": "Kouassianiagu\u00e9n\u00e9", "Country Code": "CI", "Population": 2252.0, "Lat": 7.38889, "Lon": -3.03749}], "Kouassiblekro": [{"Name": "Kouassibl\u00e9kro", "Country Code": "CI", "Population": 1993.0, "Lat": 7.67272, "Lon": -4.94633}], "Kouassidiotekro": [{"Name": "Kouassidiot\u00e9kro", "Country Code": "CI", "Population": 1860.0, "Lat": 7.13351, "Lon": -3.9585}], "Kouassidougou": [{"Name": "Kouassidougou", "Country Code": "CI", "Population": 1559.0, "Lat": 8.02621, "Lon": -3.45736}], "Kouassikro": [{"Name": "Kouassikro", "Country Code": "CI", "Population": 1400.0, "Lat": 7.6, "Lon": -4.35}], "Kouassisserenou": [{"Name": "Kouassiss\u00e9r\u00e9nou", "Country Code": "CI", "Population": 1608.0, "Lat": 7.65266, "Lon": -2.90744}], "Kouata": [{"Name": "Kouata", "Country Code": "CI", "Population": 2413.0, "Lat": 7.8926, "Lon": -5.82809}], "Kouatchienkro": [{"Name": "Kouatchienkro", "Country Code": "CI", "Population": 3030.0, "Lat": 6.89193, "Lon": -3.6123}], "Kouatoutou": [{"Name": "Kouatoutou", "Country Code": "CI", "Population": 1025.0, "Lat": 7.71419, "Lon": -3.07005}], "Kouayaguiepleu": [{"Name": "Kouayagui\u00e9pleu", "Country Code": "CI", "Population": 1652.0, "Lat": 6.94601, "Lon": -8.2982}], "Kouban": [{"Name": "Kouban", "Country Code": "CI", "Population": 1546.0, "Lat": 10.24392, "Lon": -7.41531}], "Koubeba": [{"Name": "Koub\u00e9ba", "Country Code": "CI", "Population": 1409.0, "Lat": 6.26348, "Lon": -4.55497}], "Koubi": [{"Name": "Koubi", "Country Code": "CI", "Population": 1724.0, "Lat": 7.1283, "Lon": -5.18063}], "Koubia": [{"Name": "Koubia", "Country Code": "GN", "Population": 9909.0, "Lat": 11.58632, "Lon": -11.89485}], "Koubri": [{"Name": "Koubri", "Country Code": "BF", "Population": 0.0, "Lat": 12.19785, "Lon": -1.40662}], "Koudebo Dan": [{"Name": "Koud\u00e9bo Dan", "Country Code": "CI", "Population": 1462.0, "Lat": 7.73957, "Lon": -5.52675}], "Koudekerke": [{"Name": "Koudekerke", "Country Code": "NL", "Population": 2880.0, "Lat": 51.48167, "Lon": 3.55417}], "Koudougou": [{"Name": "Koudougou", "Country Code": "BF", "Population": 160239.0, "Lat": 12.25263, "Lon": -2.36272}, {"Name": "Koudougou", "Country Code": "CI", "Population": 6924.0, "Lat": 6.93528, "Lon": -5.6663}], "Koudouyou": [{"Name": "Koudouyou", "Country Code": "CI", "Population": 4556.0, "Lat": 5.76382, "Lon": -6.51191}], "Koudum": [{"Name": "Koudum", "Country Code": "NL", "Population": 2600.0, "Lat": 52.91551, "Lon": 5.44834}], "Kouego": [{"Name": "Kouego", "Country Code": "CI", "Population": 3947.0, "Lat": 8.0425, "Lon": -6.74222}], "Kouenoufla": [{"Name": "Kou\u00e9noufla", "Country Code": "CI", "Population": 1258.0, "Lat": 7.45503, "Lon": -6.33982}], "Kouenoufla Don": [{"Name": "Kou\u00e9noufla Don", "Country Code": "CI", "Population": 5213.0, "Lat": 7.35452, "Lon": -6.75151}], "Kouepleu": [{"Name": "Kou\u00e9pleu", "Country Code": "CI", "Population": 1396.0, "Lat": 7.20336, "Lon": -7.93696}], "Kouetinfla": [{"Name": "Kou\u00e9tinfla", "Country Code": "CI", "Population": 10872.0, "Lat": 6.61223, "Lon": -6.06037}], "Koufalia": [{"Name": "Kouf\u00e1lia", "Country Code": "GR", "Population": 7850.0, "Lat": 40.77778, "Lon": 22.57194}], "Kougbere": [{"Name": "Kougb\u00e8r\u00e9", "Country Code": "CI", "Population": 1554.0, "Lat": 8.41474, "Lon": -5.81493}], "Kouibly": [{"Name": "Kouibly", "Country Code": "CI", "Population": 15335.0, "Lat": 7.25597, "Lon": -7.23508}], "Kouinfla": [{"Name": "Kouinfla", "Country Code": "CI", "Population": 1213.0, "Lat": 7.54141, "Lon": -5.96685}], "Kouisra": [{"Name": "Kouisra", "Country Code": "CI", "Population": 1177.0, "Lat": 7.14215, "Lon": -7.45369}], "Kouitongouine II": [{"Name": "Kouitongouin\u00e9 II", "Country Code": "CI", "Population": 1597.0, "Lat": 7.35833, "Lon": -7.64411}], "Koujiang": [{"Name": "Koujiang", "Country Code": "CN", "Population": 7477.0, "Lat": 26.04333, "Lon": 108.8625}], "Kouka": [{"Name": "Kouka", "Country Code": "BF", "Population": 17286.0, "Lat": 13.4345, "Lon": -1.61361}], "Koukkuniemi": [{"Name": "Koukkuniemi", "Country Code": "FI", "Population": 1038.0, "Lat": 60.15261, "Lon": 24.76467}], "Koukoguhe": [{"Name": "Koukoguh\u00e9", "Country Code": "CI", "Population": 5226.0, "Lat": 6.91063, "Lon": -6.56571}], "Koula": [{"Name": "Koula", "Country Code": "ML", "Population": 0.0, "Lat": 13.11382, "Lon": -7.65231}], "Koulaeoue": [{"Name": "Koula\u00e9ou\u00e9", "Country Code": "CI", "Population": 8651.0, "Lat": 7.04434, "Lon": -7.88591}], "Koulaere": [{"Name": "Koula\u00e9r\u00e9", "Country Code": "CI", "Population": 1879.0, "Lat": 7.38303, "Lon": -7.20568}], "Koulale": [{"Name": "Koulal\u00e9", "Country Code": "CI", "Population": 4736.0, "Lat": 7.95798, "Lon": -8.06857}], "Koulamoutou": [{"Name": "Koulamoutou", "Country Code": "GA", "Population": 30830.0, "Lat": -1.13667, "Lon": 12.46399}], "Koulea": [{"Name": "Koul\u00e9a", "Country Code": "CI", "Population": 1061.0, "Lat": 7.40999, "Lon": -7.399}], "Kouleyo": [{"Name": "Koul\u00e9yo", "Country Code": "CI", "Population": 3672.0, "Lat": 7.16738, "Lon": -6.67211}], "Koulikoro": [{"Name": "Koulikoro", "Country Code": "CI", "Population": 4336.0, "Lat": 7.80819, "Lon": -7.15739}, {"Name": "Koulikoro", "Country Code": "ML", "Population": 64128.0, "Lat": 12.86273, "Lon": -7.55985}], "Koulinle": [{"Name": "Koulinl\u00e9", "Country Code": "CI", "Population": 1196.0, "Lat": 7.15007, "Lon": -7.52069}], "Koulokaha": [{"Name": "Koulokaha", "Country Code": "CI", "Population": 1577.0, "Lat": 8.90446, "Lon": -5.03483}], "Koulokakaha": [{"Name": "Koulokakaha", "Country Code": "CI", "Population": 1200.0, "Lat": 9.4656, "Lon": -5.57383}], "Koulopankaha": [{"Name": "Koulopankaha", "Country Code": "CI", "Population": 1611.0, "Lat": 8.81978, "Lon": -5.7409}], "Koulotyokaha": [{"Name": "Koulotyokaha", "Country Code": "CI", "Population": 1775.0, "Lat": 9.60764, "Lon": -5.41874}], "Koulouan": [{"Name": "Koulouan", "Country Code": "CI", "Population": 7785.0, "Lat": 6.95309, "Lon": -7.69888}], "Kouloukorosso": [{"Name": "Kouloukorosso", "Country Code": "CI", "Population": 1104.0, "Lat": 9.4742, "Lon": -4.97403}], "Kouloura": [{"Name": "Koulo\u00fara", "Country Code": "GR", "Population": 1156.0, "Lat": 40.54652, "Lon": 22.31795}], "Koulousson": [{"Name": "Koulousson", "Country Code": "CI", "Population": 1385.0, "Lat": 10.69374, "Lon": -6.36824}], "Koumac": [{"Name": "Koumac", "Country Code": "NC", "Population": 3060.0, "Lat": -20.56667, "Lon": 164.28333}], "Koumandjanbougou": [{"Name": "Koumandjanbougou", "Country Code": "GN", "Population": 0.0, "Lat": 11.44658, "Lon": -8.97546}], "Koumbala": [{"Name": "Koumbala", "Country Code": "CI", "Population": 2219.0, "Lat": 9.52098, "Lon": -5.1746}], "Koumokro": [{"Name": "Koumokro", "Country Code": "CI", "Population": 1542.0, "Lat": 7.01393, "Lon": -4.46996}], "Koumoudji": [{"Name": "Koumoudji", "Country Code": "CI", "Population": 5773.0, "Lat": 6.64449, "Lon": -5.63742}], "Koumouekro": [{"Name": "Koumou\u00e9kro", "Country Code": "CI", "Population": 1481.0, "Lat": 7.85102, "Lon": -3.69376}], "Koumpentoum": [{"Name": "Koumpentoum", "Country Code": "SN", "Population": 10022.0, "Lat": 13.98333, "Lon": -14.56667}], "Koumra": [{"Name": "Koumra", "Country Code": "TD", "Population": 54109.0, "Lat": 8.91587, "Lon": 17.55046}], "Koun Mom": [{"Name": "Koun Mom", "Country Code": "KH", "Population": 0.0, "Lat": 13.57767, "Lon": 106.77289}], "Koun-Fao": [{"Name": "Koun-Fao", "Country Code": "CI", "Population": 7114.0, "Lat": 7.48764, "Lon": -3.25249}], "Kounahiri": [{"Name": "Kounahiri", "Country Code": "CI", "Population": 7107.0, "Lat": 7.79089, "Lon": -5.83477}], "Koundara": [{"Name": "Koundara", "Country Code": "GN", "Population": 22326.0, "Lat": 12.48333, "Lon": -13.3}], "Kounde": [{"Name": "Kound\u00e9", "Country Code": "CI", "Population": 1497.0, "Lat": 10.01913, "Lon": -6.16312}], "Koundoudougou": [{"Name": "Koundoudougou", "Country Code": "CI", "Population": 2306.0, "Lat": 8.39467, "Lon": -4.66361}], "Koungheul": [{"Name": "Koungheul", "Country Code": "SN", "Population": 20942.0, "Lat": 13.98333, "Lon": -14.8}], "Koungneul Sosse": [{"Name": "Koungneul Soss\u00e9", "Country Code": "SN", "Population": 20942.0, "Lat": 13.96667, "Lon": -14.81667}], "Koungou": [{"Name": "Koungou", "Country Code": "YT", "Population": 18118.0, "Lat": -12.73361, "Lon": 45.20417}], "Kounkane": [{"Name": "Kounkan\u00e9", "Country Code": "SN", "Population": 10798.0, "Lat": 12.93333, "Lon": -14.08333}], "Kountiguisso": [{"Name": "Kountiguisso", "Country Code": "CI", "Population": 1034.0, "Lat": 8.51746, "Lon": -7.37331}], "Kountze": [{"Name": "Kountze", "Country Code": "US", "Population": 2083.0, "Lat": 30.3716, "Lon": -94.31241}], "Kouohara": [{"Name": "Kouohara", "Country Code": "CI", "Population": 1419.0, "Lat": 8.45504, "Lon": -4.66933}], "Koupela": [{"Name": "Koup\u00e9la", "Country Code": "BF", "Population": 49372.0, "Lat": 12.17864, "Lon": -0.35103}, {"Name": "Koup\u00e9la", "Country Code": "CI", "Population": 2145.0, "Lat": 7.06135, "Lon": -5.76106}], "Koupero": [{"Name": "Koup\u00e9ro", "Country Code": "CI", "Population": 4288.0, "Lat": 5.884, "Lon": -6.84575}], "Kouqian": [{"Name": "Kouqian", "Country Code": "CN", "Population": 0.0, "Lat": 43.63914, "Lon": 126.45784}], "Kourefla": [{"Name": "Kour\u00e9fla", "Country Code": "CI", "Population": 1079.0, "Lat": 7.52222, "Lon": -5.97852}], "Kouri": [{"Name": "Kouri", "Country Code": "ML", "Population": 22991.0, "Lat": 12.18396, "Lon": -4.80284}], "Kourim": [{"Name": "Kou\u0159im", "Country Code": "CZ", "Population": 1772.0, "Lat": 50.00306, "Lon": 14.97703}], "Kourou": [{"Name": "Kourou", "Country Code": "CI", "Population": 2330.0, "Lat": 8.83333, "Lon": -4.33333}, {"Name": "Kourou", "Country Code": "GF", "Population": 24029.0, "Lat": 5.16281, "Lon": -52.64265}], "Kouroudoufla": [{"Name": "Kouroudoufla", "Country Code": "CI", "Population": 1231.0, "Lat": 6.60287, "Lon": -6.04457}], "Kouroukono-Dioulasso": [{"Name": "Kouroukono-Dioulasso", "Country Code": "CI", "Population": 1810.0, "Lat": 8.05367, "Lon": -4.44609}], "Kouroukouna": [{"Name": "Kouroukouna", "Country Code": "CI", "Population": 1427.0, "Lat": 9.28897, "Lon": -5.19851}], "Kouroulingue": [{"Name": "Kouroulingu\u00e9", "Country Code": "CI", "Population": 1670.0, "Lat": 10.16938, "Lon": -7.29117}], "Kouroundiala": [{"Name": "Kouroundiala", "Country Code": "CI", "Population": 2324.0, "Lat": 9.09839, "Lon": -4.75927}], "Kouroussa": [{"Name": "Kouroussa", "Country Code": "GN", "Population": 36295.0, "Lat": 10.65, "Lon": -9.88333}], "Kousseri": [{"Name": "Kouss\u00e9ri", "Country Code": "CM", "Population": 139024.0, "Lat": 12.07689, "Lon": 15.03063}], "Koussorokaha": [{"Name": "Koussorokaha", "Country Code": "CI", "Population": 1849.0, "Lat": 9.63747, "Lon": -5.12262}], "Kout na Sumave": [{"Name": "Kout na \u0160umav\u011b", "Country Code": "CZ", "Population": 1140.0, "Lat": 49.40255, "Lon": 13.00208}], "Kouta": [{"Name": "Kouta", "Country Code": "CI", "Population": 10266.0, "Lat": 5.48849, "Lon": -5.23249}], "Koutiala": [{"Name": "Koutiala", "Country Code": "ML", "Population": 218031.0, "Lat": 12.39173, "Lon": -5.46421}], "Koutiourou": [{"Name": "Koutiourou", "Country Code": "CI", "Population": 1790.0, "Lat": 7.43333, "Lon": -7.35}], "Kouto": [{"Name": "Kouto", "Country Code": "CI", "Population": 14245.0, "Lat": 9.89029, "Lon": -6.40921}], "Koutouba": [{"Name": "Koutouba", "Country Code": "CN", "Population": 6808.0, "Lat": 32.93999, "Lon": 104.94224}], "Koutoukounou": [{"Name": "Koutoukounou", "Country Code": "CI", "Population": 1411.0, "Lat": 7.14632, "Lon": -4.0181}], "Koutoukro": [{"Name": "Koutoukro", "Country Code": "CI", "Population": 4636.0, "Lat": 5.61683, "Lon": -3.58292}], "Kouts": [{"Name": "Kouts", "Country Code": "US", "Population": 1967.0, "Lat": 41.31671, "Lon": -87.02586}], "Koutselio": [{"Name": "Koutseli\u00f3", "Country Code": "GR", "Population": 1118.0, "Lat": 39.58808, "Lon": 20.91197}], "Koutsopodi": [{"Name": "Koutsop\u00f3di", "Country Code": "GR", "Population": 1857.0, "Lat": 37.68426, "Lon": 22.71355}], "Kouvaras": [{"Name": "Kouvar\u00e1s", "Country Code": "GR", "Population": 1426.0, "Lat": 37.82711, "Lon": 23.96715}], "Kouvola": [{"Name": "Kouvola", "Country Code": "FI", "Population": 80483.0, "Lat": 60.86667, "Lon": 26.7}], "Kouwovogo": [{"Name": "Kouwovogo", "Country Code": "CI", "Population": 1336.0, "Lat": 9.62879, "Lon": -5.55137}], "Kouyatouo": [{"Name": "Kouyatouo", "Country Code": "CI", "Population": 1200.0, "Lat": 7.05456, "Lon": -8.09347}], "Kovaci": [{"Name": "Kova\u010di", "Country Code": "BA", "Population": 6410.0, "Lat": 44.44874, "Lon": 18.20521}], "Kovacica": [{"Name": "Kova\u010dica", "Country Code": "RS", "Population": 7357.0, "Lat": 45.11167, "Lon": 20.62139}], "Kovacova": [{"Name": "Kov\u00e1\u010dov\u00e1", "Country Code": "SK", "Population": 1552.0, "Lat": 48.60148, "Lon": 19.10252}], "Kovalam": [{"Name": "Kovalam", "Country Code": "IN", "Population": 6000.0, "Lat": 8.36667, "Lon": 76.99667}], "Kovalevskoye": [{"Name": "Kovalevskoye", "Country Code": "RU", "Population": 3139.0, "Lat": 45.19417, "Lon": 40.97611}], "Kovalivka": [{"Name": "Kovalivka", "Country Code": "UA", "Population": 2031.0, "Lat": 47.26759, "Lon": 31.73563}], "Kovancilar": [{"Name": "Kovanc\u0131lar", "Country Code": "TR", "Population": 22976.0, "Lat": 38.71882, "Lon": 39.86268}], "Kovanlik": [{"Name": "Kovanl\u0131k", "Country Code": "TR", "Population": 0.0, "Lat": 40.75484, "Lon": 38.11155}], "Kovarov": [{"Name": "Kov\u00e1\u0159ov", "Country Code": "CZ", "Population": 1465.0, "Lat": 49.5176, "Lon": 14.27809}], "Kovarska": [{"Name": "Kov\u00e1\u0159sk\u00e1", "Country Code": "CZ", "Population": 1320.0, "Lat": 50.43821, "Lon": 13.05388}], "Kovdor": [{"Name": "Kovdor", "Country Code": "RU", "Population": 19518.0, "Lat": 67.56627, "Lon": 30.47765}], "Kovel": [{"Name": "Kovel", "Country Code": "UA", "Population": 67575.0, "Lat": 51.21526, "Lon": 24.70867}], "Kovernino": [{"Name": "Kovernino", "Country Code": "RU", "Population": 6988.0, "Lat": 57.128, "Lon": 43.81462}], "Kovilj": [{"Name": "Kovilj", "Country Code": "RS", "Population": 5279.0, "Lat": 45.23422, "Lon": 20.02327}], "Kovilpatti": [{"Name": "Kovilpatti", "Country Code": "IN", "Population": 90296.0, "Lat": 9.17167, "Lon": 77.86989}], "Kovin": [{"Name": "Kovin", "Country Code": "RS", "Population": 14250.0, "Lat": 44.7475, "Lon": 20.97611}], "Kovrov": [{"Name": "Kovrov", "Country Code": "RU", "Population": 154224.0, "Lat": 56.35752, "Lon": 41.31893}], "Kovur": [{"Name": "Kov\u016br", "Country Code": "IN", "Population": 35600.0, "Lat": 14.5005, "Lon": 79.98518}], "Kovvur": [{"Name": "Kovv\u016br", "Country Code": "IN", "Population": 40379.0, "Lat": 17.0162, "Lon": 81.72934}], "Kovyl'noye": [{"Name": "Kovyl\u2019noye", "Country Code": "UA", "Population": 783.0, "Lat": 45.69028, "Lon": 33.52775}], "Kovylkino": [{"Name": "Kovylkino", "Country Code": "RU", "Population": 21400.0, "Lat": 54.03876, "Lon": 43.91385}], "Kowal": [{"Name": "Kowal", "Country Code": "PL", "Population": 3490.0, "Lat": 52.53019, "Lon": 19.14767}], "Kowala": [{"Name": "Kowala", "Country Code": "PL", "Population": 1023.0, "Lat": 51.32503, "Lon": 21.06972}], "Kowale": [{"Name": "Kowale", "Country Code": "PL", "Population": 1972.0, "Lat": 54.30976, "Lon": 18.56149}], "Kowale Oleckie": [{"Name": "Kowale Oleckie", "Country Code": "PL", "Population": 2209.0, "Lat": 54.16354, "Lon": 22.41666}], "Kowale-Popiele": [{"Name": "Kowale-Popiele", "Country Code": "PL", "Population": 2254.0, "Lat": 51.1309, "Lon": 17.10175}], "Kowalewo Pomorskie": [{"Name": "Kowalewo Pomorskie", "Country Code": "PL", "Population": 4081.0, "Lat": 53.15432, "Lon": 18.89868}], "Kowary": [{"Name": "Kowary", "Country Code": "PL", "Population": 10869.0, "Lat": 50.79313, "Lon": 15.83559}], "Kowiesy": [{"Name": "Kowiesy", "Country Code": "PL", "Population": 185.0, "Lat": 51.88942, "Lon": 20.41929}], "Kowloon": [{"Name": "Kowloon", "Country Code": "HK", "Population": 2303100.0, "Lat": 22.31667, "Lon": 114.18333}], "Kowloon Bay": [{"Name": "Kowloon Bay", "Country Code": "HK", "Population": 13200.0, "Lat": 22.32662, "Lon": 114.20777}], "Kowloon Tong": [{"Name": "Kowloon Tong", "Country Code": "HK", "Population": 18849.0, "Lat": 22.33312, "Lon": 114.17969}], "Kowon-up": [{"Name": "Kow\u014fn-\u016dp", "Country Code": "KP", "Population": 21490.0, "Lat": 39.43806, "Lon": 127.24306}], "Koya": [{"Name": "K\u014dya", "Country Code": "JP", "Population": 3279.0, "Lat": 34.21294, "Lon": 135.62244}], "Koyali": [{"Name": "Koyali", "Country Code": "IN", "Population": 1148.0, "Lat": 20.02945, "Lon": 76.49074}], "Koyekro": [{"Name": "Koy\u00e9kro", "Country Code": "CI", "Population": 7138.0, "Lat": 6.15253, "Lon": -4.74567}], "Koyelga": [{"Name": "Koyelga", "Country Code": "RU", "Population": 4053.0, "Lat": 54.65224, "Lon": 60.9049}], "Koygorodok": [{"Name": "Koygorodok", "Country Code": "RU", "Population": 2924.0, "Lat": 60.44498, "Lon": 50.9968}], "Koyima": [{"Name": "Koyima", "Country Code": "SL", "Population": 2705.0, "Lat": 8.70552, "Lon": -11.02241}], "Koynanagar": [{"Name": "Koynanagar", "Country Code": "IN", "Population": 28091.0, "Lat": 17.4, "Lon": 73.76667}], "Koynare": [{"Name": "Koynare", "Country Code": "BG", "Population": 2926.0, "Lat": 43.35, "Lon": 24.13333}], "Koysinceq": [{"Name": "Koysinceq", "Country Code": "IQ", "Population": 44987.0, "Lat": 36.08289, "Lon": 44.62873}], "Koyulhisar": [{"Name": "Koyulhisar", "Country Code": "TR", "Population": 5495.0, "Lat": 40.30184, "Lon": 37.82336}], "Koyunluca": [{"Name": "Koyunluca", "Country Code": "TR", "Population": 1028.0, "Lat": 36.82278, "Lon": 39.34333}], "Koz'modem'yansk": [{"Name": "Koz\u2019modem\u2019yansk", "Country Code": "RU", "Population": 22700.0, "Lat": 56.33209, "Lon": 46.5606}], "Koza": [{"Name": "Koza", "Country Code": "CM", "Population": 3665.0, "Lat": 10.86846, "Lon": 13.88205}], "Kozachi Laheri": [{"Name": "Kozachi Laheri", "Country Code": "UA", "Population": 3587.0, "Lat": 46.70538, "Lon": 32.98194}], "Kozak": [{"Name": "Kozak", "Country Code": "TR", "Population": 0.0, "Lat": 39.25124, "Lon": 27.09021}], "Kozakai-cho": [{"Name": "Kozakai-ch\u014d", "Country Code": "JP", "Population": 22064.0, "Lat": 34.8, "Lon": 137.35889}], "Kozaki": [{"Name": "K\u014dzaki", "Country Code": "JP", "Population": 5884.0, "Lat": 35.9, "Lon": 140.4}], "Kozakli": [{"Name": "Kozakl\u0131", "Country Code": "TR", "Population": 0.0, "Lat": 39.22139, "Lon": 34.85056}], "Kozan": [{"Name": "Kozan", "Country Code": "TR", "Population": 88115.0, "Lat": 37.45517, "Lon": 35.81573}], "Kozani": [{"Name": "Koz\u00e1ni", "Country Code": "GR", "Population": 36481.0, "Lat": 40.30069, "Lon": 21.78896}], "Kozanow": [{"Name": "Kozan\u00f3w", "Country Code": "PL", "Population": 15901.0, "Lat": 51.14447, "Lon": 16.96937}], "Kozare": [{"Name": "Kozar\u00eb", "Country Code": "AL", "Population": 494.0, "Lat": 40.83083, "Lon": 19.90056}], "Kozarmisleny": [{"Name": "Koz\u00e1rmisleny", "Country Code": "HU", "Population": 4093.0, "Lat": 46.02967, "Lon": 18.2921}], "Kozarska Dubica": [{"Name": "Kozarska Dubica", "Country Code": "BA", "Population": 9959.0, "Lat": 45.17667, "Lon": 16.80944}], "Kozatske": [{"Name": "Kozatske", "Country Code": "UA", "Population": 1550.0, "Lat": 46.34881, "Lon": 30.0452}, {"Name": "Kozatske", "Country Code": "UA", "Population": 3746.0, "Lat": 46.78551, "Lon": 33.35002}], "Kozcagiz": [{"Name": "Kozca\u011f\u0131z", "Country Code": "TR", "Population": 0.0, "Lat": 41.48333, "Lon": 32.33333}], "Kozel'sk": [{"Name": "Kozel\u2019sk", "Country Code": "RU", "Population": 19500.0, "Lat": 54.0366, "Lon": 35.77088}], "Kozelets": [{"Name": "Kozelets", "Country Code": "UA", "Population": 7646.0, "Lat": 50.91334, "Lon": 31.1214}], "Kozelshchyna": [{"Name": "Kozelshchyna", "Country Code": "UA", "Population": 3628.0, "Lat": 49.21731, "Lon": 33.84888}], "Kozen": [{"Name": "Kozen", "Country Code": "BE", "Population": 1633.0, "Lat": 50.8752, "Lon": 5.24005}], "Kozeyevo": [{"Name": "Kozeyevo", "Country Code": "RU", "Population": 50000.0, "Lat": 55.86667, "Lon": 37.61667}], "Kozhanka": [{"Name": "Kozhanka", "Country Code": "UA", "Population": 1778.0, "Lat": 49.97231, "Lon": 29.76424}], "Kozhevnikovo": [{"Name": "Kozhevnikovo", "Country Code": "RU", "Population": 7970.0, "Lat": 56.25889, "Lon": 83.97139}], "Kozhikode": [{"Name": "Kozhikode", "Country Code": "IN", "Population": 550440.0, "Lat": 11.24802, "Lon": 75.7804}], "Kozhukhovo": [{"Name": "Kozhukhovo", "Country Code": "RU", "Population": 50000.0, "Lat": 55.7, "Lon": 37.66667}], "Kozhva": [{"Name": "Kozhva", "Country Code": "RU", "Population": 3374.0, "Lat": 65.10727, "Lon": 57.0459}], "Koziayo II": [{"Name": "Koziayo II", "Country Code": "CI", "Population": 8871.0, "Lat": 5.92426, "Lon": -6.34379}], "Kozieglowy": [{"Name": "Kozieg\u0142owy", "Country Code": "PL", "Population": 2481.0, "Lat": 50.60035, "Lon": 19.16299}], "Kozielice": [{"Name": "Kozielice", "Country Code": "PL", "Population": 0.0, "Lat": 53.10679, "Lon": 14.82237}], "Kozienice": [{"Name": "Kozienice", "Country Code": "PL", "Population": 18677.0, "Lat": 51.58294, "Lon": 21.54779}], "Kozinscak": [{"Name": "Kozin\u0161\u010dak", "Country Code": "HR", "Population": 1330.0, "Lat": 45.81234, "Lon": 16.25755}], "Kozjak": [{"Name": "Kozjak", "Country Code": "RS", "Population": 1201.0, "Lat": 44.58727, "Lon": 19.28412}, {"Name": "Kozjak", "Country Code": "RS", "Population": 1170.0, "Lat": 45.18264, "Lon": 20.86381}], "Kozje": [{"Name": "Kozje", "Country Code": "SI", "Population": 634.0, "Lat": 46.075, "Lon": 15.56028}], "Kozlany": [{"Name": "Ko\u017elany", "Country Code": "CZ", "Population": 1374.0, "Lat": 49.99389, "Lon": 13.54107}], "Kozle": [{"Name": "Ko\u017ale", "Country Code": "PL", "Population": 14780.0, "Lat": 50.3356, "Lon": 18.14332}], "Kozliv": [{"Name": "Kozliv", "Country Code": "UA", "Population": 1778.0, "Lat": 49.55445, "Lon": 25.34566}], "Kozloduy": [{"Name": "Kozloduy", "Country Code": "BG", "Population": 14717.0, "Lat": 43.77691, "Lon": 23.73001}], "Kozlovice": [{"Name": "Kozlovice", "Country Code": "CZ", "Population": 2852.0, "Lat": 49.5904, "Lon": 18.25656}], "Kozlovka": [{"Name": "Kozlovka", "Country Code": "RU", "Population": 11700.0, "Lat": 55.84284, "Lon": 48.2492}, {"Name": "Kozlovka", "Country Code": "RU", "Population": 3343.0, "Lat": 50.86222, "Lon": 40.4519}], "Kozlovo": [{"Name": "Kozlovo", "Country Code": "RU", "Population": 4248.0, "Lat": 56.50977, "Lon": 36.27326}], "Kozlow": [{"Name": "Koz\u0142\u00f3w", "Country Code": "PL", "Population": 1021.0, "Lat": 50.48394, "Lon": 20.02456}], "Kozlowo": [{"Name": "Koz\u0142owo", "Country Code": "PL", "Population": 3000.0, "Lat": 53.30652, "Lon": 20.29098}], "Kozlu": [{"Name": "Kozlu", "Country Code": "TR", "Population": 0.0, "Lat": 41.43194, "Lon": 31.74583}, {"Name": "Kozlu", "Country Code": "TR", "Population": 0.0, "Lat": 40.60878, "Lon": 36.47858}], "Kozluk": [{"Name": "Kozluk", "Country Code": "TR", "Population": 29502.0, "Lat": 38.19118, "Lon": 41.47775}], "Kozmice": [{"Name": "Kozmice", "Country Code": "CZ", "Population": 1808.0, "Lat": 49.9128, "Lon": 18.15584}], "Kozmin Wielkopolski": [{"Name": "Ko\u017amin Wielkopolski", "Country Code": "PL", "Population": 6678.0, "Lat": 51.82712, "Lon": 17.45391}], "Kozminek": [{"Name": "Ko\u017aminek", "Country Code": "PL", "Population": 1800.0, "Lat": 51.79874, "Lon": 18.33893}], "Kozova": [{"Name": "Kozova", "Country Code": "UA", "Population": 8989.0, "Lat": 49.43206, "Lon": 25.14547}], "Kozubszczyzna": [{"Name": "Kozubszczyzna", "Country Code": "PL", "Population": 750.0, "Lat": 51.22323, "Lon": 22.42747}], "Kozuchow": [{"Name": "Ko\u017cuch\u00f3w", "Country Code": "PL", "Population": 9679.0, "Lat": 51.74558, "Lon": 15.59492}], "Kozushima": [{"Name": "K\u014dzushima", "Country Code": "JP", "Population": 1841.0, "Lat": 34.2, "Lon": 139.13333}], "Kozy": [{"Name": "Kozy", "Country Code": "PL", "Population": 11920.0, "Lat": 49.84756, "Lon": 19.14891}], "Kozyatyn": [{"Name": "Kozyatyn", "Country Code": "UA", "Population": 23241.0, "Lat": 49.7164, "Lon": 28.83858}], "Kozyrevsk": [{"Name": "Kozyrevsk", "Country Code": "RU", "Population": 1241.0, "Lat": 56.0486, "Lon": 159.8715}], "Kozyrka": [{"Name": "Kozyrka", "Country Code": "UA", "Population": 1099.0, "Lat": 46.81038, "Lon": 31.88014}], "Kozyryany": [{"Name": "Kozyryany", "Country Code": "UA", "Population": 1005.0, "Lat": 48.36774, "Lon": 26.64639}], "Kpada": [{"Name": "Kpada", "Country Code": "CI", "Population": 8551.0, "Lat": 5.77996, "Lon": -6.48509}], "Kpadagnoa": [{"Name": "Kpadagnoa", "Country Code": "CI", "Population": 4699.0, "Lat": 5.57574, "Lon": -5.90638}], "Kpafonon": [{"Name": "Kpafonon", "Country Code": "CI", "Population": 2206.0, "Lat": 9.68941, "Lon": -6.49939}], "Kpakpanou": [{"Name": "Kpakpanou", "Country Code": "CI", "Population": 1171.0, "Lat": 7.78211, "Lon": -4.45951}], "Kpalime": [{"Name": "Kpalim\u00e9", "Country Code": "TG", "Population": 75084.0, "Lat": 6.9, "Lon": 0.63333}], "Kpan Houye": [{"Name": "Kpan Houy\u00e9", "Country Code": "CI", "Population": 1021.0, "Lat": 7.45366, "Lon": -8.34868}], "Kpana-Ouelasso": [{"Name": "Kpana-Ou\u00e9lasso", "Country Code": "CI", "Population": 1488.0, "Lat": 8.20313, "Lon": -4.33654}], "Kpandae": [{"Name": "Kpandae", "Country Code": "GH", "Population": 8652.0, "Lat": 8.46885, "Lon": -0.01127}], "Kpandu": [{"Name": "Kpandu", "Country Code": "GH", "Population": 28334.0, "Lat": 6.99536, "Lon": 0.29306}], "Kpangban": [{"Name": "Kpangban", "Country Code": "CI", "Population": 5443.0, "Lat": 5.58177, "Lon": -6.75359}], "Kpangouen": [{"Name": "Kpangouen", "Country Code": "CI", "Population": 3146.0, "Lat": 7.42898, "Lon": -7.5193}], "Kpangouine": [{"Name": "Kpangouin\u00e9", "Country Code": "CI", "Population": 1223.0, "Lat": 7.18623, "Lon": -7.87846}], "Kpanpleu-Sin-Houye": [{"Name": "Kpanpleu-Sin-Houy\u00e9", "Country Code": "CI", "Population": 2186.0, "Lat": 7.32853, "Lon": -8.31208}], "Kpantouopleu": [{"Name": "Kpantouopleu", "Country Code": "CI", "Population": 1626.0, "Lat": 6.88626, "Lon": -8.31391}], "Kpanzaopleu": [{"Name": "Kpanzaopleu", "Country Code": "CI", "Population": 2272.0, "Lat": 7.41483, "Lon": -7.85374}], "Kpapekou": [{"Name": "Kpapekou", "Country Code": "CI", "Population": 4000.0, "Lat": 6.25143, "Lon": -5.95054}], "Kparognoua": [{"Name": "Kparognoua", "Country Code": "CI", "Population": 3312.0, "Lat": 5.6744, "Lon": -5.98274}], "Kpata": [{"Name": "Kpata", "Country Code": "CI", "Population": 2048.0, "Lat": 7.71913, "Lon": -7.54581}], "Kpatasso": [{"Name": "Kpatasso", "Country Code": "CI", "Population": 1804.0, "Lat": 5.70234, "Lon": -5.05932}], "Kpefele": [{"Name": "Kp\u00e9f\u00e9l\u00e9", "Country Code": "CI", "Population": 1349.0, "Lat": 8.14317, "Lon": -5.03599}], "Kpekekro": [{"Name": "Kp\u00e9kekro", "Country Code": "CI", "Population": 1152.0, "Lat": 7.74204, "Lon": -4.7842}], "Kpeso": [{"Name": "Kp\u00e9so", "Country Code": "CI", "Population": 3781.0, "Lat": 8.40927, "Lon": -5.88811}], "Kpeungarikaha": [{"Name": "Kpeungarikaha", "Country Code": "CI", "Population": 2011.0, "Lat": 9.3754, "Lon": -5.49836}], "Kplessou": [{"Name": "Kplessou", "Country Code": "CI", "Population": 1562.0, "Lat": 6.55414, "Lon": -5.2047}], "Kpobli": [{"Name": "Kpobli", "Country Code": "CI", "Population": 1214.0, "Lat": 6.54735, "Lon": -8.28109}], "Kpogouin": [{"Name": "Kpogouin", "Country Code": "CI", "Population": 2010.0, "Lat": 7.59861, "Lon": -7.94106}], "Kpogrobouo": [{"Name": "Kpogrobouo", "Country Code": "CI", "Population": 2584.0, "Lat": 6.25331, "Lon": -6.12535}], "Kpolessou": [{"Name": "Kpolessou", "Country Code": "CI", "Population": 1389.0, "Lat": 7.3103, "Lon": -4.95002}], "Kpoleu": [{"Name": "Kpoleu", "Country Code": "CI", "Population": 1855.0, "Lat": 7.5241, "Lon": -8.32641}], "Kpomasse": [{"Name": "Kpomass\u00e8", "Country Code": "BJ", "Population": 0.0, "Lat": 6.46216, "Lon": 1.99362}], "Kpor": [{"Name": "Kpor", "Country Code": "NG", "Population": 0.0, "Lat": 4.65265, "Lon": 7.28397}], "Kpote": [{"Name": "Kpot\u00e8", "Country Code": "CI", "Population": 9122.0, "Lat": 4.87116, "Lon": -6.53403}], "Kpouebo": [{"Name": "Kpou\u00e9bo", "Country Code": "CI", "Population": 6709.0, "Lat": 6.33441, "Lon": -4.85618}], "Kpoussoussou": [{"Name": "Kpoussoussou", "Country Code": "CI", "Population": 2462.0, "Lat": 6.75116, "Lon": -5.23651}], "Kpozoun": [{"Name": "Kpozoun", "Country Code": "BJ", "Population": 26688.0, "Lat": 7.22868, "Lon": 2.21317}], "Kprako": [{"Name": "Kprako", "Country Code": "CI", "Population": 1053.0, "Lat": 6.79475, "Lon": -4.64833}], "Kprogouele": [{"Name": "Kprogou\u00e9l\u00e9", "Country Code": "CI", "Population": 1003.0, "Lat": 7.53194, "Lon": -7.33848}], "Kra Buri": [{"Name": "Kra Buri", "Country Code": "TH", "Population": 0.0, "Lat": 10.40429, "Lon": 98.77266}], "Kraaifontein": [{"Name": "Kraaifontein", "Country Code": "ZA", "Population": 57911.0, "Lat": -33.84808, "Lon": 18.71723}], "Kraainem": [{"Name": "Kraainem", "Country Code": "BE", "Population": 12815.0, "Lat": 50.86155, "Lon": 4.46946}], "Krabalilie": [{"Name": "Krabalili\u00e9", "Country Code": "CI", "Population": 2001.0, "Lat": 5.91465, "Lon": -5.86753}], "Krabi": [{"Name": "Krabi", "Country Code": "TH", "Population": 31219.0, "Lat": 8.07257, "Lon": 98.91052}], "Kraczkowa": [{"Name": "Kraczkowa", "Country Code": "PL", "Population": 3200.0, "Lat": 50.03796, "Lon": 22.16801}], "Kraftsdorf": [{"Name": "Kraftsdorf", "Country Code": "DE", "Population": 4403.0, "Lat": 50.87574, "Lon": 11.92944}], "Kragan": [{"Name": "Kragan", "Country Code": "ID", "Population": 0.0, "Lat": -6.6897, "Lon": 111.6125}], "Kragero": [{"Name": "Krager\u00f8", "Country Code": "NO", "Population": 5158.0, "Lat": 58.8693, "Lon": 9.41494}], "Kragujevac": [{"Name": "Kragujevac", "Country Code": "RS", "Population": 147473.0, "Lat": 44.01667, "Lon": 20.91667}], "Krahes": [{"Name": "Krah\u00ebs", "Country Code": "AL", "Population": 0.0, "Lat": 40.43861, "Lon": 19.84444}], "Kraiburg am Inn": [{"Name": "Kraiburg am Inn", "Country Code": "DE", "Population": 4127.0, "Lat": 48.18191, "Lon": 12.43073}], "Kraichtal": [{"Name": "Kraichtal", "Country Code": "DE", "Population": 14416.0, "Lat": 49.14623, "Lon": 8.73276}], "Krailling": [{"Name": "Krailling", "Country Code": "DE", "Population": 7528.0, "Lat": 48.1, "Lon": 11.4}], "Krajan A Wonorejo": [{"Name": "Krajan A Wonorejo", "Country Code": "ID", "Population": 0.0, "Lat": -8.2864, "Lon": 113.3819}], "Krajenka": [{"Name": "Krajenka", "Country Code": "PL", "Population": 3609.0, "Lat": 53.29759, "Lon": 16.99079}], "Krajisnik": [{"Name": "Kraji\u0161nik", "Country Code": "RS", "Population": 2495.0, "Lat": 45.45283, "Lon": 20.72976}], "Krakaudorf": [{"Name": "Krakaudorf", "Country Code": "AT", "Population": 609.0, "Lat": 47.18131, "Lon": 14.02061}], "Krakauhintermuehlen": [{"Name": "Krakauhinterm\u00fchlen", "Country Code": "AT", "Population": 517.0, "Lat": 47.18333, "Lon": 13.98333}], "Krakauschatten": [{"Name": "Krakauschatten", "Country Code": "AT", "Population": 293.0, "Lat": 47.18333, "Lon": 13.96667}], "Krakeel": [{"Name": "Krakeel", "Country Code": "NL", "Population": 5105.0, "Lat": 52.72339, "Lon": 6.51146}], "Krakeelrivier": [{"Name": "Krakeelrivier", "Country Code": "ZA", "Population": 2313.0, "Lat": -33.81706, "Lon": 23.73596}], "Krakow": [{"Name": "Krak\u00f3w", "Country Code": "PL", "Population": 755050.0, "Lat": 50.06143, "Lon": 19.93658}], "Krakow am See": [{"Name": "Krakow am See", "Country Code": "DE", "Population": 3450.0, "Lat": 53.65163, "Lon": 12.27034}], "Krakro": [{"Name": "Krakro", "Country Code": "CI", "Population": 1120.0, "Lat": 7.53064, "Lon": -3.14795}], "Kraksaan": [{"Name": "Kraksaan", "Country Code": "ID", "Population": 28248.0, "Lat": -7.75845, "Lon": 113.39624}], "Kralanh": [{"Name": "Kralanh", "Country Code": "KH", "Population": 0.0, "Lat": 13.60535, "Lon": 103.41903}], "Kralendijk": [{"Name": "Kralendijk", "Country Code": "BQ", "Population": 3081.0, "Lat": 12.15, "Lon": -68.26667}], "Kralenriede": [{"Name": "Kralenriede", "Country Code": "DE", "Population": 3600.0, "Lat": 52.30701, "Lon": 10.52834}], "Kralice na Hane": [{"Name": "Kralice na Han\u00e9", "Country Code": "CZ", "Population": 1427.0, "Lat": 49.46296, "Lon": 17.18048}], "Kraliky": [{"Name": "Kr\u00e1l\u00edky", "Country Code": "CZ", "Population": 4723.0, "Lat": 50.08384, "Lon": 16.76054}], "Kraljevec Kupinecki": [{"Name": "Kraljevec Kupine\u010dki", "Country Code": "HR", "Population": 2015.0, "Lat": 45.68333, "Lon": 15.85}], "Kraljevec na Sutli": [{"Name": "Kraljevec na Sutli", "Country Code": "HR", "Population": 318.0, "Lat": 45.99106, "Lon": 15.7247}], "Kraljevica": [{"Name": "Kraljevica", "Country Code": "HR", "Population": 2415.0, "Lat": 45.27395, "Lon": 14.5683}], "Kraljevo": [{"Name": "Kraljevo", "Country Code": "RS", "Population": 82846.0, "Lat": 43.72583, "Lon": 20.68944}], "Kralovice": [{"Name": "Kralovice", "Country Code": "CZ", "Population": 3526.0, "Lat": 49.98192, "Lon": 13.48747}], "Kralupy nad Vltavou": [{"Name": "Kralupy nad Vltavou", "Country Code": "CZ", "Population": 17373.0, "Lat": 50.24107, "Lon": 14.31149}], "Kraluv Dvur": [{"Name": "Kr\u00e1l\u016fv Dv\u016fr", "Country Code": "CZ", "Population": 5805.0, "Lat": 49.94981, "Lon": 14.03445}], "Kramarzowka": [{"Name": "Kramarz\u00f3wka", "Country Code": "PL", "Population": 1500.0, "Lat": 49.86034, "Lon": 22.50137}], "Kramatorsk": [{"Name": "Kramatorsk", "Country Code": "UA", "Population": 147145.0, "Lat": 48.73049, "Lon": 37.58793}], "Kramerhof": [{"Name": "Kramerhof", "Country Code": "DE", "Population": 1747.0, "Lat": 54.35366, "Lon": 13.05412}], "Kramfors": [{"Name": "Kramfors", "Country Code": "SE", "Population": 6582.0, "Lat": 62.93161, "Lon": 17.77646}], "Kramongmongga": [{"Name": "Kramongmongga", "Country Code": "ID", "Population": 0.0, "Lat": -2.75985, "Lon": 132.38052}], "Kramsach": [{"Name": "Kramsach", "Country Code": "AT", "Population": 0.0, "Lat": 47.44312, "Lon": 11.87545}], "Kramsk": [{"Name": "Kramsk", "Country Code": "PL", "Population": 1700.0, "Lat": 52.26469, "Lon": 18.42407}], "Kranenburg": [{"Name": "Kranenburg", "Country Code": "DE", "Population": 9797.0, "Lat": 51.78333, "Lon": 6.01667}], "Krani": [{"Name": "Krani", "Country Code": "MK", "Population": 1087.0, "Lat": 40.93934, "Lon": 21.10911}], "Krania Elassonas": [{"Name": "Krani\u00e1 Elass\u00f3nas", "Country Code": "GR", "Population": 2936.0, "Lat": 39.95094, "Lon": 21.97078}], "Kranichfeld": [{"Name": "Kranichfeld", "Country Code": "DE", "Population": 3779.0, "Lat": 50.85446, "Lon": 11.20057}], "Kranichstein": [{"Name": "Kranichstein", "Country Code": "DE", "Population": 12043.0, "Lat": 49.90474, "Lon": 8.68084}], "Kranidi": [{"Name": "Kran\u00eddi", "Country Code": "GR", "Population": 4006.0, "Lat": 37.37974, "Lon": 23.15969}], "Kranj": [{"Name": "Kranj", "Country Code": "SI", "Population": 37941.0, "Lat": 46.23887, "Lon": 14.35561}], "Kranjska Gora": [{"Name": "Kranjska Gora", "Country Code": "SI", "Population": 1439.0, "Lat": 46.45689, "Lon": 13.77824}], "Kranshoek": [{"Name": "Kranshoek", "Country Code": "ZA", "Population": 6705.0, "Lat": -34.0878, "Lon": 23.28333}], "Kranuan": [{"Name": "Kranuan", "Country Code": "TH", "Population": 13475.0, "Lat": 16.70672, "Lon": 103.07878}], "Kranzadougou": [{"Name": "Kranzadougou", "Country Code": "CI", "Population": 16614.0, "Lat": 6.48496, "Lon": -7.20101}], "Krapina": [{"Name": "Krapina", "Country Code": "HR", "Population": 4201.0, "Lat": 46.16083, "Lon": 15.87889}], "Krapinske Toplice": [{"Name": "Krapinske Toplice", "Country Code": "HR", "Population": 1257.0, "Lat": 46.09333, "Lon": 15.84333}], "Krapivinskiy": [{"Name": "Krapivinskiy", "Country Code": "RU", "Population": 7909.0, "Lat": 54.9992, "Lon": 86.8133}], "Krapivna": [{"Name": "Krapivna", "Country Code": "RU", "Population": 1367.0, "Lat": 53.94235, "Lon": 37.15744}], "Krapkowice": [{"Name": "Krapkowice", "Country Code": "PL", "Population": 18275.0, "Lat": 50.47515, "Lon": 17.96539}], "Krasae Sin": [{"Name": "Krasae Sin", "Country Code": "TH", "Population": 0.0, "Lat": 7.61548, "Lon": 100.32842}], "Krasang": [{"Name": "Krasang", "Country Code": "TH", "Population": 0.0, "Lat": 14.92375, "Lon": 103.30369}], "Krasavino": [{"Name": "Krasavino", "Country Code": "RU", "Population": 7912.0, "Lat": 60.96225, "Lon": 46.48321}], "Krasic": [{"Name": "Kra\u0161i\u0107", "Country Code": "HR", "Population": 542.0, "Lat": 45.65583, "Lon": 15.51778}], "Krasica": [{"Name": "Krasica", "Country Code": "HR", "Population": 1325.0, "Lat": 45.30972, "Lon": 14.55556}], "Krasiczyn": [{"Name": "Krasiczyn", "Country Code": "PL", "Population": 440.0, "Lat": 49.77644, "Lon": 22.65252}], "Kraskino": [{"Name": "Kraskino", "Country Code": "RU", "Population": 3369.0, "Lat": 42.71071, "Lon": 130.78126}], "Kraskovo": [{"Name": "Kraskovo", "Country Code": "RU", "Population": 11832.0, "Lat": 55.64972, "Lon": 37.98778}], "Kraslava": [{"Name": "Kr\u0101slava", "Country Code": "LV", "Population": 11088.0, "Lat": 55.89514, "Lon": 27.16799}], "Kraslice": [{"Name": "Kraslice", "Country Code": "CZ", "Population": 7159.0, "Lat": 50.32372, "Lon": 12.51747}], "Krasna": [{"Name": "Krasna", "Country Code": "UA", "Population": 3096.0, "Lat": 48.57459, "Lon": 24.69601}], "Krasna Hora nad Vltavou": [{"Name": "Kr\u00e1sn\u00e1 Hora nad Vltavou", "Country Code": "CZ", "Population": 1091.0, "Lat": 49.60461, "Lon": 14.27742}], "Krasna Kosa": [{"Name": "Krasna Kosa", "Country Code": "UA", "Population": 1013.0, "Lat": 46.3329, "Lon": 30.10016}], "Krasna Lipa": [{"Name": "Kr\u00e1sn\u00e1 L\u00edpa", "Country Code": "CZ", "Population": 3666.0, "Lat": 50.91303, "Lon": 14.50999}, {"Name": "Kr\u00e1sn\u00e1 L\u00edpa", "Country Code": "CZ", "Population": 3677.0, "Lat": 50.48378, "Lon": 13.3575}], "Krasna Zor'ka": [{"Name": "Krasna Zor'ka", "Country Code": "UA", "Population": 2777.0, "Lat": 45.13432, "Lon": 34.04015}], "Krasnany": [{"Name": "Kras\u0148any", "Country Code": "SK", "Population": 1231.0, "Lat": 49.21491, "Lon": 18.88718}], "Krasnapollye": [{"Name": "Krasnapollye", "Country Code": "BY", "Population": 6100.0, "Lat": 53.33578, "Lon": 31.40065}], "Krasnaya Glinka": [{"Name": "Krasnaya Glinka", "Country Code": "RU", "Population": 85566.0, "Lat": 53.7383, "Lon": 52.9392}], "Krasnaya Gora": [{"Name": "Krasnaya Gora", "Country Code": "RU", "Population": 6468.0, "Lat": 52.9995, "Lon": 31.6023}], "Krasnaya Gorbatka": [{"Name": "Krasnaya Gorbatka", "Country Code": "RU", "Population": 9225.0, "Lat": 55.87701, "Lon": 41.75508}], "Krasnaya Gorka": [{"Name": "Krasnaya Gorka", "Country Code": "RU", "Population": 2500.0, "Lat": 55.38666, "Lon": 46.10925}, {"Name": "Krasnaya Gorka", "Country Code": "RU", "Population": 4079.0, "Lat": 55.19617, "Lon": 56.66727}], "Krasnaya Pahra": [{"Name": "Krasnaya Pahra", "Country Code": "RU", "Population": 2434.0, "Lat": 55.43223, "Lon": 37.26966}], "Krasnaya Polyana": [{"Name": "Krasnaya Polyana", "Country Code": "RU", "Population": 4020.0, "Lat": 43.67952, "Lon": 40.20403}, {"Name": "Krasnaya Polyana", "Country Code": "RU", "Population": 3090.0, "Lat": 45.0548, "Lon": 41.1031}, {"Name": "Krasnaya Polyana", "Country Code": "RU", "Population": 7828.0, "Lat": 56.24204, "Lon": 51.14425}, {"Name": "Krasnaya Polyana", "Country Code": "RU", "Population": 3728.0, "Lat": 46.11293, "Lon": 41.50157}, {"Name": "Krasnaya Polyana", "Country Code": "UA", "Population": 1048.0, "Lat": 45.48241, "Lon": 32.9379}], "Krasnaya Poyma": [{"Name": "Krasnaya Poyma", "Country Code": "RU", "Population": 3113.0, "Lat": 55.00138, "Lon": 39.07997}], "Krasnaya Yaruga": [{"Name": "Krasnaya Yaruga", "Country Code": "RU", "Population": 7924.0, "Lat": 50.80083, "Lon": 35.65833}], "Krasnaya Zarya": [{"Name": "Krasnaya Zarya", "Country Code": "RU", "Population": 1802.0, "Lat": 52.78471, "Lon": 37.68702}], "Krasnaye": [{"Name": "Krasnaye", "Country Code": "BY", "Population": 2900.0, "Lat": 54.2438, "Lon": 27.0758}], "Krasne": [{"Name": "Krasne", "Country Code": "PL", "Population": 1000.0, "Lat": 52.92401, "Lon": 20.96732}, {"Name": "Krasne", "Country Code": "PL", "Population": 3500.0, "Lat": 50.05626, "Lon": 22.08638}, {"Name": "Krasne", "Country Code": "UA", "Population": 1198.0, "Lat": 46.82297, "Lon": 31.39593}, {"Name": "Krasne", "Country Code": "UA", "Population": 1376.0, "Lat": 46.11809, "Lon": 29.24581}, {"Name": "Krasne", "Country Code": "UA", "Population": 6250.0, "Lat": 49.91447, "Lon": 24.6134}, {"Name": "Krasne", "Country Code": "UA", "Population": 2898.0, "Lat": 46.13153, "Lon": 32.7715}], "Krasnen'koye": [{"Name": "Krasnen\u2019koye", "Country Code": "UA", "Population": 1002.0, "Lat": 48.13384, "Lon": 30.32703}], "Krasniczyn": [{"Name": "Kra\u015bniczyn", "Country Code": "PL", "Population": 447.0, "Lat": 50.93171, "Lon": 23.34929}], "Krasnik": [{"Name": "Kra\u015bnik", "Country Code": "PL", "Population": 35834.0, "Lat": 50.9236, "Lon": 22.22706}], "Krasno nad Kysucou": [{"Name": "Kr\u00e1sno nad Kysucou", "Country Code": "SK", "Population": 6676.0, "Lat": 49.39572, "Lon": 18.83431}], "Krasnoarmeysk": [{"Name": "Krasnoarmeysk", "Country Code": "RU", "Population": 25688.0, "Lat": 56.1, "Lon": 38.13333}, {"Name": "Krasnoarmeysk", "Country Code": "RU", "Population": 25841.0, "Lat": 51.02389, "Lon": 45.69694}], "Krasnoarmeyskaya": [{"Name": "Krasnoarmeyskaya", "Country Code": "RU", "Population": 29009.0, "Lat": 45.36614, "Lon": 38.21171}], "Krasnoarmeyskiy": [{"Name": "Krasnoarmeyskiy", "Country Code": "RU", "Population": 3716.0, "Lat": 47.0114, "Lon": 42.2072}], "Krasnoarmeyskoye": [{"Name": "Krasnoarmeyskoye", "Country Code": "RU", "Population": 5403.0, "Lat": 52.71994, "Lon": 50.03122}, {"Name": "Krasnoarmeyskoye", "Country Code": "RU", "Population": 4296.0, "Lat": 55.76813, "Lon": 47.17244}, {"Name": "Krasnoarmeyskoye", "Country Code": "UA", "Population": 765.0, "Lat": 45.99103, "Lon": 34.03037}], "Krasnoborsk": [{"Name": "Krasnoborsk", "Country Code": "RU", "Population": 4838.0, "Lat": 61.55802, "Lon": 45.934}], "Krasnobrod": [{"Name": "Krasnobr\u00f3d", "Country Code": "PL", "Population": 3075.0, "Lat": 50.54551, "Lon": 23.21308}], "Krasnobrodskiy": [{"Name": "Krasnobrodskiy", "Country Code": "RU", "Population": 11565.0, "Lat": 54.1581, "Lon": 86.4486}], "Krasnodar": [{"Name": "Krasnodar", "Country Code": "RU", "Population": 899541.0, "Lat": 45.04484, "Lon": 38.97603}], "Krasnofarfornyy": [{"Name": "Krasnofarfornyy", "Country Code": "RU", "Population": 1613.0, "Lat": 59.1364, "Lon": 31.85023}], "Krasnoflotskoye": [{"Name": "Krasnoflotskoye", "Country Code": "UA", "Population": 1143.0, "Lat": 45.31572, "Lon": 34.94756}], "Krasnogorka": [{"Name": "Krasnogorka", "Country Code": "UA", "Population": 827.0, "Lat": 45.24513, "Lon": 35.80739}], "Krasnogorodsk": [{"Name": "Krasnogorodsk", "Country Code": "RU", "Population": 4563.0, "Lat": 56.83388, "Lon": 28.29873}], "Krasnogorsk": [{"Name": "Krasnogorsk", "Country Code": "RU", "Population": 3304.0, "Lat": 48.41728, "Lon": 142.08686}, {"Name": "Krasnogorsk", "Country Code": "RU", "Population": 92932.0, "Lat": 55.81904, "Lon": 37.32984}], "Krasnogorskiy": [{"Name": "Krasnogorskiy", "Country Code": "KZ", "Population": 3646.0, "Lat": 52.2456, "Lon": 66.52081}, {"Name": "Krasnogorskiy", "Country Code": "RU", "Population": 7065.0, "Lat": 56.1525, "Lon": 48.32583}, {"Name": "Krasnogorskiy", "Country Code": "RU", "Population": 13603.0, "Lat": 54.6025, "Lon": 61.231}, {"Name": "Krasnogorskiy", "Country Code": "RU", "Population": 2994.0, "Lat": 54.5471, "Lon": 86.281}], "Krasnogorskoye": [{"Name": "Krasnogorskoye", "Country Code": "RU", "Population": 6703.0, "Lat": 52.2953, "Lon": 86.1979}, {"Name": "Krasnogorskoye", "Country Code": "RU", "Population": 4508.0, "Lat": 57.7047, "Lon": 52.4999}], "Krasnogvardeyets": [{"Name": "Krasnogvardeyets", "Country Code": "RU", "Population": 3836.0, "Lat": 52.6804, "Lon": 52.3635}], "Krasnogvardeyskiy": [{"Name": "Krasnogvardeyskiy", "Country Code": "RU", "Population": 4746.0, "Lat": 57.37928, "Lon": 62.31952}], "Krasnogvardeyskoye": [{"Name": "Krasnogvardeyskoye", "Country Code": "RU", "Population": 9071.0, "Lat": 45.13235, "Lon": 39.57438}, {"Name": "Krasnogvardeyskoye", "Country Code": "RU", "Population": 16169.0, "Lat": 45.84493, "Lon": 41.51745}, {"Name": "Krasnogvardeyskoye", "Country Code": "RU", "Population": 8183.0, "Lat": 50.64922, "Lon": 38.4036}, {"Name": "Krasnogvardeyskoye", "Country Code": "UA", "Population": 11134.0, "Lat": 45.50271, "Lon": 34.30134}, {"Name": "Krasnogvardeyskoye", "Country Code": "UA", "Population": 1441.0, "Lat": 45.18348, "Lon": 34.95066}], "Krasnogvargeisky": [{"Name": "Krasnogvargeisky", "Country Code": "RU", "Population": 337091.0, "Lat": 59.97305, "Lon": 30.47607}], "Krasnohorivka": [{"Name": "Krasnohorivka", "Country Code": "UA", "Population": 14666.0, "Lat": 48.00603, "Lon": 37.50968}], "Krasnohrad": [{"Name": "Krasnohrad", "Country Code": "UA", "Population": 21426.0, "Lat": 49.37511, "Lon": 35.45493}], "Krasnokamenka": [{"Name": "Krasnokamenka", "Country Code": "UA", "Population": 1051.0, "Lat": 44.56383, "Lon": 34.28877}, {"Name": "Krasnokamenka", "Country Code": "UA", "Population": 1150.0, "Lat": 44.92446, "Lon": 35.0754}], "Krasnokamensk": [{"Name": "Krasnokamensk", "Country Code": "RU", "Population": 4773.0, "Lat": 54.33389, "Lon": 93.25944}, {"Name": "Krasnokamensk", "Country Code": "RU", "Population": 54316.0, "Lat": 50.0979, "Lon": 118.0369}], "Krasnokamsk": [{"Name": "Krasnokamsk", "Country Code": "RU", "Population": 52689.0, "Lat": 58.0796, "Lon": 55.7552}], "Krasnokholm": [{"Name": "Krasnokholm", "Country Code": "RU", "Population": 6041.0, "Lat": 51.59787, "Lon": 54.1567}], "Krasnokholmskiy": [{"Name": "Krasnokholmskiy", "Country Code": "RU", "Population": 8117.0, "Lat": 55.98729, "Lon": 55.04659}], "Krasnokumskoye": [{"Name": "Krasnokumskoye", "Country Code": "RU", "Population": 13630.0, "Lat": 44.17806, "Lon": 43.50194}], "Krasnokutsk": [{"Name": "Krasnokutsk", "Country Code": "UA", "Population": 8008.0, "Lat": 50.06602, "Lon": 35.16275}], "Krasnolesnyy": [{"Name": "Krasnolesnyy", "Country Code": "RU", "Population": 5305.0, "Lat": 51.8829, "Lon": 39.5771}], "Krasnolesye": [{"Name": "Krasnolesye", "Country Code": "UA", "Population": 1061.0, "Lat": 44.83259, "Lon": 34.23086}], "Krasnomayskiy": [{"Name": "Krasnomayskiy", "Country Code": "RU", "Population": 5611.0, "Lat": 57.61941, "Lon": 34.40987}], "Krasnoobsk": [{"Name": "Krasnoobsk", "Country Code": "RU", "Population": 16894.0, "Lat": 54.9198, "Lon": 82.9909}], "Krasnopavlivka": [{"Name": "Krasnopavlivka", "Country Code": "UA", "Population": 7495.0, "Lat": 49.13699, "Lon": 36.3201}], "Krasnopillia": [{"Name": "Krasnopillia", "Country Code": "UA", "Population": 7849.0, "Lat": 50.77458, "Lon": 35.25965}], "Krasnopillya": [{"Name": "Krasnopillya", "Country Code": "UA", "Population": 1083.0, "Lat": 46.86308, "Lon": 31.24903}], "Krasnopol": [{"Name": "Krasnopol", "Country Code": "PL", "Population": 1300.0, "Lat": 54.11613, "Lon": 23.20476}], "Krasnorechenskiy": [{"Name": "Krasnorechenskiy", "Country Code": "RU", "Population": 3833.0, "Lat": 44.62807, "Lon": 135.35262}], "Krasnosel'skiy": [{"Name": "Krasnosel\u2019skiy", "Country Code": "BY", "Population": 7300.0, "Lat": 53.26494, "Lon": 24.42398}], "Krasnoshchekovo": [{"Name": "Krasnoshchekovo", "Country Code": "RU", "Population": 5463.0, "Lat": 51.67083, "Lon": 82.72889}], "Krasnosielc": [{"Name": "Krasnosielc", "Country Code": "PL", "Population": 1300.0, "Lat": 53.03378, "Lon": 21.15735}], "Krasnosilka": [{"Name": "Krasnosilka", "Country Code": "UA", "Population": 5187.0, "Lat": 46.62273, "Lon": 30.77148}], "Krasnoslobodsk": [{"Name": "Krasnoslobodsk", "Country Code": "RU", "Population": 14334.0, "Lat": 48.70708, "Lon": 44.57702}, {"Name": "Krasnoslobodsk", "Country Code": "RU", "Population": 10748.0, "Lat": 54.4253, "Lon": 43.78963}], "Krasnotorka": [{"Name": "Krasnotorka", "Country Code": "UA", "Population": 3061.0, "Lat": 48.68542, "Lon": 37.5303}], "Krasnoturansk": [{"Name": "Krasnoturansk", "Country Code": "RU", "Population": 5845.0, "Lat": 54.31861, "Lon": 91.56389}], "Krasnoturinsk": [{"Name": "Krasnoturinsk", "Country Code": "RU", "Population": 62600.0, "Lat": 59.7666, "Lon": 60.2086}], "Krasnoufimsk": [{"Name": "Krasnoufimsk", "Country Code": "RU", "Population": 43121.0, "Lat": 56.60585, "Lon": 57.76686}], "Krasnoural'sk": [{"Name": "Krasnoural\u2019sk", "Country Code": "RU", "Population": 27257.0, "Lat": 58.3638, "Lon": 60.0407}], "Krasnovishersk": [{"Name": "Krasnovishersk", "Country Code": "RU", "Population": 18185.0, "Lat": 60.40783, "Lon": 57.08199}], "Krasnovka": [{"Name": "Krasnovka", "Country Code": "RU", "Population": 3966.0, "Lat": 48.81769, "Lon": 40.09226}], "Krasnoyarka": [{"Name": "Krasnoyarka", "Country Code": "RU", "Population": 4006.0, "Lat": 55.33333, "Lon": 73.11667}], "Krasnoyarsk": [{"Name": "Krasnoyarsk", "Country Code": "RU", "Population": 1090811.0, "Lat": 56.01839, "Lon": 92.86717}], "Krasnoyarskaya": [{"Name": "Krasnoyarskaya", "Country Code": "RU", "Population": 3889.0, "Lat": 47.4955, "Lon": 42.1856}, {"Name": "Krasnoyarskaya", "Country Code": "RU", "Population": 5198.0, "Lat": 47.6501, "Lon": 42.0443}], "Krasnoyarskiy": [{"Name": "Krasnoyarskiy", "Country Code": "RU", "Population": 3218.0, "Lat": 51.965, "Lon": 59.89667}], "Krasnoyarskoye": [{"Name": "Krasnoyarskoye", "Country Code": "UA", "Population": 626.0, "Lat": 45.50661, "Lon": 33.26641}], "Krasnoye": [{"Name": "Krasnoye", "Country Code": "RU", "Population": 3426.0, "Lat": 54.6068, "Lon": 85.3899}, {"Name": "Krasnoye", "Country Code": "RU", "Population": 2352.0, "Lat": 50.9297, "Lon": 38.6817}, {"Name": "Krasnoye", "Country Code": "RU", "Population": 4021.0, "Lat": 52.86331, "Lon": 38.78455}, {"Name": "Krasnoye", "Country Code": "RU", "Population": 3504.0, "Lat": 46.7373, "Lon": 39.5645}, {"Name": "Krasnoye", "Country Code": "UA", "Population": 1034.0, "Lat": 45.13999, "Lon": 34.09452}], "Krasnoye Selo": [{"Name": "Krasnoye Selo", "Country Code": "RU", "Population": 44323.0, "Lat": 59.73833, "Lon": 30.08944}], "Krasnoye-na-Volge": [{"Name": "Krasnoye-na-Volge", "Country Code": "RU", "Population": 7953.0, "Lat": 57.51483, "Lon": 41.239}], "Krasnoyilsk": [{"Name": "Krasnoyilsk", "Country Code": "UA", "Population": 10428.0, "Lat": 48.01865, "Lon": 25.56004}], "Krasnozavodsk": [{"Name": "Krasnozavodsk", "Country Code": "RU", "Population": 11694.0, "Lat": 56.45, "Lon": 38.21667}], "Krasnozerskoye": [{"Name": "Krasnoz\u00ebrskoye", "Country Code": "RU", "Population": 10339.0, "Lat": 53.98277, "Lon": 79.23735}], "Krasnoznamenka": [{"Name": "Krasnoznamenka", "Country Code": "UA", "Population": 1201.0, "Lat": 45.28676, "Lon": 34.00036}], "Krasnoznamensk": [{"Name": "Krasnoznamensk", "Country Code": "RU", "Population": 3724.0, "Lat": 54.94222, "Lon": 22.48972}, {"Name": "Krasnoznamensk", "Country Code": "RU", "Population": 33700.0, "Lat": 55.59525, "Lon": 37.05235}], "Krasnye Baki": [{"Name": "Krasnye Baki", "Country Code": "RU", "Population": 7312.0, "Lat": 57.131, "Lon": 45.15992}], "Krasnyi Kut": [{"Name": "Krasnyi Kut", "Country Code": "UA", "Population": 2983.0, "Lat": 48.20138, "Lon": 38.79765}], "Krasnyi Mak": [{"Name": "Krasnyi Mak", "Country Code": "UA", "Population": 1663.0, "Lat": 44.64218, "Lon": 33.7813}], "Krasnystaw": [{"Name": "Krasnystaw", "Country Code": "PL", "Population": 19532.0, "Lat": 50.98464, "Lon": 23.1742}], "Krasnyy": [{"Name": "Krasnyy", "Country Code": "RU", "Population": 0.0, "Lat": 54.56632, "Lon": 31.43158}], "Krasnyy Bereg": [{"Name": "Krasnyy Bereg", "Country Code": "BY", "Population": 2359.0, "Lat": 53.3291, "Lon": 30.1929}], "Krasnyy Bogatyr'": [{"Name": "Krasnyy Bogatyr\u2019", "Country Code": "RU", "Population": 1019.0, "Lat": 56.01453, "Lon": 41.12958}], "Krasnyy Bor": [{"Name": "Krasnyy Bor", "Country Code": "RU", "Population": 4852.0, "Lat": 59.68194, "Lon": 30.66806}], "Krasnyy Chikoy": [{"Name": "Krasnyy Chikoy", "Country Code": "RU", "Population": 6824.0, "Lat": 50.36321, "Lon": 108.75445}], "Krasnyy Gulyay": [{"Name": "Krasnyy Gulyay", "Country Code": "RU", "Population": 3080.0, "Lat": 54.02821, "Lon": 48.33327}], "Krasnyy Kholm": [{"Name": "Krasnyy Kholm", "Country Code": "RU", "Population": 6120.0, "Lat": 58.06166, "Lon": 37.11975}], "Krasnyy Klyuch": [{"Name": "Krasnyy Klyuch", "Country Code": "RU", "Population": 2348.0, "Lat": 55.38625, "Lon": 56.65287}], "Krasnyy Kommunar": [{"Name": "Krasnyy Kommunar", "Country Code": "RU", "Population": 4167.0, "Lat": 51.96436, "Lon": 55.3668}], "Krasnyy Kurgan": [{"Name": "Krasnyy Kurgan", "Country Code": "RU", "Population": 3243.0, "Lat": 43.94222, "Lon": 42.61083}], "Krasnyy Kut": [{"Name": "Krasnyy Kut", "Country Code": "RU", "Population": 14956.0, "Lat": 50.95, "Lon": 46.96667}], "Krasnyy Luch": [{"Name": "Krasnyy Luch", "Country Code": "RU", "Population": 1452.0, "Lat": 57.06676, "Lon": 30.09032}], "Krasnyy Oktyabr'": [{"Name": "Krasnyy Oktyabr\u2019", "Country Code": "RU", "Population": 1189.0, "Lat": 56.10347, "Lon": 41.38395}, {"Name": "Krasnyy Oktyabr\u2019", "Country Code": "RU", "Population": 9999.0, "Lat": 56.11667, "Lon": 38.88333}, {"Name": "Krasnyy Oktyabr\u2019", "Country Code": "RU", "Population": 4084.0, "Lat": 55.65667, "Lon": 64.81333}, {"Name": "Krasnyy Oktyabr\u2019", "Country Code": "RU", "Population": 3303.0, "Lat": 51.54018, "Lon": 45.70382}], "Krasnyy Profintern": [{"Name": "Krasnyy Profintern", "Country Code": "RU", "Population": 1468.0, "Lat": 57.74459, "Lon": 40.43501}], "Krasnyy Sulin": [{"Name": "Krasnyy Sulin", "Country Code": "RU", "Population": 44133.0, "Lat": 47.89221, "Lon": 40.07037}], "Krasnyy Tkach": [{"Name": "Krasnyy Tkach", "Country Code": "RU", "Population": 3166.0, "Lat": 55.4721, "Lon": 39.08017}], "Krasnyy Yar": [{"Name": "Krasnyy Yar", "Country Code": "RU", "Population": 5322.0, "Lat": 55.24242, "Lon": 72.92635}, {"Name": "Krasnyy Yar", "Country Code": "RU", "Population": 1227.0, "Lat": 52.3575, "Lon": 85.33806}, {"Name": "Krasnyy Yar", "Country Code": "RU", "Population": 7727.0, "Lat": 50.69652, "Lon": 44.72792}, {"Name": "Krasnyy Yar", "Country Code": "RU", "Population": 3128.0, "Lat": 57.1275, "Lon": 84.53028}, {"Name": "Krasnyy Yar", "Country Code": "RU", "Population": 7664.0, "Lat": 53.49988, "Lon": 50.39312}, {"Name": "Krasnyy Yar", "Country Code": "RU", "Population": 10876.0, "Lat": 46.53241, "Lon": 48.34476}, {"Name": "Krasnyy Yar", "Country Code": "RU", "Population": 3095.0, "Lat": 51.62917, "Lon": 46.42167}], "Krasnyye Barrikady": [{"Name": "Krasnyye Barrikady", "Country Code": "RU", "Population": 6275.0, "Lat": 46.2045, "Lon": 47.8535}], "Krasnyye Chetai": [{"Name": "Krasnyye Chetai", "Country Code": "RU", "Population": 2954.0, "Lat": 55.68871, "Lon": 46.13865}], "Krasnyye Tkachi": [{"Name": "Krasnyye Tkachi", "Country Code": "RU", "Population": 4054.0, "Lat": 57.49259, "Lon": 39.75629}], "Krasocin": [{"Name": "Krasocin", "Country Code": "PL", "Population": 1123.0, "Lat": 50.88874, "Lon": 20.11863}], "Krasyliv": [{"Name": "Krasyliv", "Country Code": "UA", "Population": 18868.0, "Lat": 49.65376, "Lon": 26.97211}], "Krasyukovskaya": [{"Name": "Krasyukovskaya", "Country Code": "RU", "Population": 4316.0, "Lat": 47.55222, "Lon": 40.10885}], "Kraszewice": [{"Name": "Kraszewice", "Country Code": "PL", "Population": 1600.0, "Lat": 51.51868, "Lon": 18.21997}], "Krathum Baen": [{"Name": "Krathum Baen", "Country Code": "TH", "Population": 72819.0, "Lat": 13.6533, "Lon": 100.25972}], "Kratie": [{"Name": "Krati\u00e9", "Country Code": "KH", "Population": 19975.0, "Lat": 12.48811, "Lon": 106.01879}], "Kratovo": [{"Name": "Kratovo", "Country Code": "MK", "Population": 10288.0, "Lat": 42.07838, "Lon": 22.1807}, {"Name": "Kratovo", "Country Code": "RU", "Population": 6799.0, "Lat": 55.59728, "Lon": 38.17743}], "Kraubath an der Mur": [{"Name": "Kraubath an der Mur", "Country Code": "AT", "Population": 995.0, "Lat": 47.3, "Lon": 14.93333}], "Krauchenwies": [{"Name": "Krauchenwies", "Country Code": "DE", "Population": 5020.0, "Lat": 48.01651, "Lon": 9.24757}], "Krauchthal": [{"Name": "Krauchthal", "Country Code": "CH", "Population": 2339.0, "Lat": 47.00964, "Lon": 7.5664}], "Krauschwitz": [{"Name": "Krauschwitz", "Country Code": "DE", "Population": 3998.0, "Lat": 51.52153, "Lon": 14.71211}], "Krautergersheim": [{"Name": "Krautergersheim", "Country Code": "FR", "Population": 1586.0, "Lat": 48.47634, "Lon": 7.56718}], "Krauthausen": [{"Name": "Krauthausen", "Country Code": "DE", "Population": 1667.0, "Lat": 51.01667, "Lon": 10.26667}], "Krautheim": [{"Name": "Krautheim", "Country Code": "DE", "Population": 4884.0, "Lat": 49.38789, "Lon": 9.63553}], "Kravare": [{"Name": "Krava\u0159e", "Country Code": "CZ", "Population": 6787.0, "Lat": 49.93203, "Lon": 18.00472}], "Kravarsko": [{"Name": "Kravarsko", "Country Code": "HR", "Population": 510.0, "Lat": 45.58333, "Lon": 16.05}], "Kravassou": [{"Name": "Kravassou", "Country Code": "CI", "Population": 2220.0, "Lat": 6.26072, "Lon": -4.71457}], "Krayneye": [{"Name": "Krayneye", "Country Code": "UA", "Population": 875.0, "Lat": 45.22993, "Lon": 33.83239}], "Krc Bosiljevski": [{"Name": "Kr\u010d Bosiljevski", "Country Code": "HR", "Population": 22.0, "Lat": 45.40583, "Lon": 15.2756}], "Krcedin": [{"Name": "Kr\u010dedin", "Country Code": "RS", "Population": 2877.0, "Lat": 45.13871, "Lon": 20.13308}], "Krebeck": [{"Name": "Krebeck", "Country Code": "DE", "Population": 1135.0, "Lat": 51.58333, "Lon": 10.11667}], "Krebio-Adoumkrom": [{"Name": "Kr\u00e9bio-Adoumkrom", "Country Code": "CI", "Population": 1008.0, "Lat": 7.80336, "Lon": -2.86386}], "Krebs": [{"Name": "Krebs", "Country Code": "US", "Population": 1973.0, "Lat": 34.92787, "Lon": -95.71582}], "Krechevitsy": [{"Name": "Krechevitsy", "Country Code": "RU", "Population": 3287.0, "Lat": 58.61703, "Lon": 31.40101}], "Krefeld": [{"Name": "Krefeld", "Country Code": "DE", "Population": 237984.0, "Lat": 51.33645, "Lon": 6.55381}], "Kregbe": [{"Name": "Kregb\u00e9", "Country Code": "CI", "Population": 8138.0, "Lat": 6.97249, "Lon": -3.98416}], "Kreiensen": [{"Name": "Kreiensen", "Country Code": "DE", "Population": 7359.0, "Lat": 51.85363, "Lon": 9.96481}], "Kreischa": [{"Name": "Kreischa", "Country Code": "DE", "Population": 4537.0, "Lat": 50.94534, "Lon": 13.75514}], "Kremasti": [{"Name": "Kremast\u00ed", "Country Code": "GR", "Population": 4700.0, "Lat": 36.40981, "Lon": 28.1192}], "Kremenchuk": [{"Name": "Kremenchuk", "Country Code": "UA", "Population": 217710.0, "Lat": 49.06253, "Lon": 33.40484}], "Kremenets": [{"Name": "Kremenets", "Country Code": "UA", "Population": 21063.0, "Lat": 50.09864, "Lon": 25.72787}], "Kremenki": [{"Name": "Kremenki", "Country Code": "RU", "Population": 11994.0, "Lat": 54.88626, "Lon": 37.11955}], "Kremidivka": [{"Name": "Kremidivka", "Country Code": "UA", "Population": 2533.0, "Lat": 46.73351, "Lon": 30.78472}], "Kreminna": [{"Name": "Kreminna", "Country Code": "UA", "Population": 18116.0, "Lat": 49.0495, "Lon": 38.21893}], "Kremmen": [{"Name": "Kremmen", "Country Code": "DE", "Population": 7567.0, "Lat": 52.76216, "Lon": 13.02515}], "Kremmling": [{"Name": "Kremmling", "Country Code": "US", "Population": 1457.0, "Lat": 40.05887, "Lon": -106.38892}], "Kremnica": [{"Name": "Kremnica", "Country Code": "SK", "Population": 5356.0, "Lat": 48.70519, "Lon": 18.91834}], "Kremouye": [{"Name": "Kr\u00e9mouy\u00e9", "Country Code": "CI", "Population": 2057.0, "Lat": 4.87593, "Lon": -6.72105}], "Krempe": [{"Name": "Krempe", "Country Code": "DE", "Population": 2441.0, "Lat": 53.83694, "Lon": 9.48831}], "Kremperheide": [{"Name": "Kremperheide", "Country Code": "DE", "Population": 2625.0, "Lat": 53.88721, "Lon": 9.47809}], "Krempna": [{"Name": "Krempna", "Country Code": "PL", "Population": 500.0, "Lat": 49.51128, "Lon": 21.50042}], "Krems an der Donau": [{"Name": "Krems an der Donau", "Country Code": "AT", "Population": 14473.0, "Lat": 48.40921, "Lon": 15.61415}], "Kremsdorf": [{"Name": "Kremsdorf", "Country Code": "AT", "Population": 1364.0, "Lat": 48.20031, "Lon": 14.26249}], "Kremsmuenster": [{"Name": "Kremsm\u00fcnster", "Country Code": "AT", "Population": 6585.0, "Lat": 48.0529, "Lon": 14.12919}], "Kremze": [{"Name": "K\u0159em\u017ee", "Country Code": "CZ", "Population": 2516.0, "Lat": 48.90497, "Lon": 14.30568}], "Krenovice": [{"Name": "K\u0159enovice", "Country Code": "CZ", "Population": 1738.0, "Lat": 49.14216, "Lon": 16.82932}], "Krensdorf": [{"Name": "Krensdorf", "Country Code": "AT", "Population": 642.0, "Lat": 47.78552, "Lon": 16.41495}], "Krepice": [{"Name": "K\u0159epice", "Country Code": "CZ", "Population": 1305.0, "Lat": 48.99986, "Lon": 16.71989}], "Kresek": [{"Name": "Kresek", "Country Code": "ID", "Population": 110182.0, "Lat": -6.13139, "Lon": 106.37972}], "Kresevo": [{"Name": "Kre\u0161evo", "Country Code": "BA", "Population": 0.0, "Lat": 43.86556, "Lon": 18.04333}], "Kresice": [{"Name": "K\u0159e\u0161ice", "Country Code": "CZ", "Population": 1371.0, "Lat": 50.52259, "Lon": 14.2145}], "Kresna": [{"Name": "Kresna", "Country Code": "BG", "Population": 4117.0, "Lat": 41.73333, "Lon": 23.15}], "Kressbronn am Bodensee": [{"Name": "Kressbronn am Bodensee", "Country Code": "DE", "Population": 7834.0, "Lat": 47.5976, "Lon": 9.59707}], "Krest'yanovka": [{"Name": "Krest\u2019yanovka", "Country Code": "UA", "Population": 1450.0, "Lat": 45.72268, "Lon": 33.93938}], "Krestena": [{"Name": "Kr\u00e9stena", "Country Code": "GR", "Population": 1864.0, "Lat": 37.59193, "Lon": 21.62034}], "Krestovskiy ostrov": [{"Name": "Krestovskiy ostrov", "Country Code": "RU", "Population": 20000.0, "Lat": 59.97091, "Lon": 30.25789}], "Kresttsy": [{"Name": "Kresttsy", "Country Code": "RU", "Population": 9737.0, "Lat": 58.24782, "Lon": 32.51796}], "Kresty": [{"Name": "Kresty", "Country Code": "RU", "Population": 0.0, "Lat": 56.77595, "Lon": 28.09083}], "Kretinga": [{"Name": "Kretinga", "Country Code": "LT", "Population": 17249.0, "Lat": 55.8888, "Lon": 21.24448}], "Kretzschau": [{"Name": "Kretzschau", "Country Code": "DE", "Population": 1335.0, "Lat": 51.05, "Lon": 12.06667}], "Kreuth": [{"Name": "Kreuth", "Country Code": "DE", "Population": 3715.0, "Lat": 47.64085, "Lon": 11.74485}], "Kreuzau": [{"Name": "Kreuzau", "Country Code": "DE", "Population": 18400.0, "Lat": 50.74699, "Lon": 6.49069}], "Kreuzberg": [{"Name": "Kreuzberg", "Country Code": "DE", "Population": 153135.0, "Lat": 52.49973, "Lon": 13.40338}], "Kreuzlingen": [{"Name": "Kreuzlingen", "Country Code": "CH", "Population": 17655.0, "Lat": 47.65051, "Lon": 9.17504}], "Kreuzokoue": [{"Name": "Kreuzokou\u00e9", "Country Code": "CI", "Population": 5654.0, "Lat": 6.07216, "Lon": -5.44359}], "Kreuzstetten": [{"Name": "Kreuzstetten", "Country Code": "AT", "Population": 0.0, "Lat": 48.48046, "Lon": 16.47323}], "Kreuztal": [{"Name": "Kreuztal", "Country Code": "DE", "Population": 31772.0, "Lat": 50.96775, "Lon": 7.98848}], "Kreuzwertheim": [{"Name": "Kreuzwertheim", "Country Code": "DE", "Population": 3862.0, "Lat": 49.76818, "Lon": 9.51819}], "Kreva": [{"Name": "Kreva", "Country Code": "BY", "Population": 3100.0, "Lat": 54.3118, "Lon": 26.2916}], "Krian": [{"Name": "Krian", "Country Code": "ID", "Population": 38603.0, "Lat": -7.4104, "Lon": 112.5792}], "Kribi": [{"Name": "Kribi", "Country Code": "CM", "Population": 93482.0, "Lat": 2.93725, "Lon": 9.90765}], "Kribleguhe": [{"Name": "Kribl\u00e9guh\u00e9", "Country Code": "CI", "Population": 3245.0, "Lat": 6.79354, "Lon": -6.2409}], "Krichim": [{"Name": "Krichim", "Country Code": "BG", "Population": 8580.0, "Lat": 42.05, "Lon": 24.46667}], "Krickenbach": [{"Name": "Krickenbach", "Country Code": "DE", "Population": 1188.0, "Lat": 49.36667, "Lon": 7.66667}], "Kridakozahio": [{"Name": "Kridakozahio", "Country Code": "CI", "Population": 1650.0, "Lat": 6.35405, "Lon": -6.21608}], "Kriebitzsch": [{"Name": "Kriebitzsch", "Country Code": "DE", "Population": 1199.0, "Lat": 51.02347, "Lon": 12.33318}], "Kriebstein": [{"Name": "Kriebstein", "Country Code": "DE", "Population": 2710.0, "Lat": 51.05, "Lon": 13.01667}], "Krieglach": [{"Name": "Krieglach", "Country Code": "AT", "Population": 3062.0, "Lat": 47.54728, "Lon": 15.56248}], "Kriegsfeld": [{"Name": "Kriegsfeld", "Country Code": "DE", "Population": 1111.0, "Lat": 49.70992, "Lon": 7.91687}], "Kriegstetten": [{"Name": "Kriegstetten", "Country Code": "CH", "Population": 1116.0, "Lat": 47.17449, "Lon": 7.59799}], "Kriel": [{"Name": "Kriel", "Country Code": "ZA", "Population": 15055.0, "Lat": -26.27391, "Lon": 29.2253}], "Kriel Power Station": [{"Name": "Kriel Power Station", "Country Code": "ZA", "Population": 1939.0, "Lat": -26.27466, "Lon": 29.1715}], "Kriens": [{"Name": "Kriens", "Country Code": "CH", "Population": 25010.0, "Lat": 47.0311, "Lon": 8.28547}], "Kriftel": [{"Name": "Kriftel", "Country Code": "DE", "Population": 10633.0, "Lat": 50.08408, "Lon": 8.46977}], "Krigambo": [{"Name": "Krigambo", "Country Code": "CI", "Population": 1547.0, "Lat": 7.13475, "Lon": -5.80586}], "Krikellos": [{"Name": "Kr\u00edkellos", "Country Code": "GR", "Population": 1312.0, "Lat": 38.94532, "Lon": 21.1791}], "Krikorea I": [{"Name": "Krikor\u00e9a I", "Country Code": "CI", "Population": 2770.0, "Lat": 6.72381, "Lon": -6.63063}], "Krikouma": [{"Name": "Krikouma", "Country Code": "CI", "Population": 1562.0, "Lat": 7.4074, "Lon": -7.49732}], "Krim Krim": [{"Name": "Krim Krim", "Country Code": "TD", "Population": 11294.0, "Lat": 8.97225, "Lon": 15.80359}], "Krimml": [{"Name": "Krimml", "Country Code": "AT", "Population": 876.0, "Lat": 47.21799, "Lon": 12.17487}], "Krimpen aan den IJssel": [{"Name": "Krimpen aan den IJssel", "Country Code": "NL", "Population": 29017.0, "Lat": 51.91667, "Lon": 4.60278}], "Krinec": [{"Name": "K\u0159inec", "Country Code": "CZ", "Population": 1351.0, "Lat": 50.26449, "Lon": 15.13782}], "Krinichnaya": [{"Name": "Krinichnaya", "Country Code": "UA", "Population": 4530.0, "Lat": 48.12899, "Lon": 38.02597}], "Krinichnoye": [{"Name": "Krinichnoye", "Country Code": "UA", "Population": 898.0, "Lat": 45.02428, "Lon": 34.61202}], "Krinides": [{"Name": "Krin\u00eddes", "Country Code": "GR", "Population": 3365.0, "Lat": 41.01396, "Lon": 24.29647}], "Krinjabo": [{"Name": "Krinjabo", "Country Code": "CI", "Population": 7780.0, "Lat": 5.39733, "Lon": -3.21357}, {"Name": "Krinjabo", "Country Code": "CI", "Population": 1310.0, "Lat": 7.25055, "Lon": -3.97467}], "Kripayo": [{"Name": "Kripayo", "Country Code": "CI", "Population": 1913.0, "Lat": 6.10971, "Lon": -6.10649}], "Kripenskyi": [{"Name": "Kripenskyi", "Country Code": "UA", "Population": 7487.0, "Lat": 48.07709, "Lon": 39.058}], "Krishnagiri": [{"Name": "Krishnagiri", "Country Code": "IN", "Population": 66419.0, "Lat": 12.51921, "Lon": 78.21382}], "Krishnanagar": [{"Name": "Krishnanagar", "Country Code": "IN", "Population": 145926.0, "Lat": 23.40576, "Lon": 88.49073}], "Krishnapur": [{"Name": "Krishnapur", "Country Code": "IN", "Population": 7325.0, "Lat": 22.67028, "Lon": 88.26944}], "Krishnarajpet": [{"Name": "Krishnar\u0101jpet", "Country Code": "IN", "Population": 24289.0, "Lat": 12.66621, "Lon": 76.4877}], "Krispl": [{"Name": "Krispl", "Country Code": "AT", "Population": 110.0, "Lat": 47.71667, "Lon": 13.18333}], "Krisserahio": [{"Name": "Kriss\u00e9rahio", "Country Code": "CI", "Population": 1178.0, "Lat": 6.22714, "Lon": -6.15447}], "Kristdala": [{"Name": "Kristdala", "Country Code": "SE", "Population": 1016.0, "Lat": 57.4007, "Lon": 16.20496}], "Kristiansand": [{"Name": "Kristiansand", "Country Code": "NO", "Population": 93205.0, "Lat": 58.14671, "Lon": 7.9956}], "Kristianstad": [{"Name": "Kristianstad", "Country Code": "SE", "Population": 39762.0, "Lat": 56.03129, "Lon": 14.15242}], "Kristiansund": [{"Name": "Kristiansund", "Country Code": "NO", "Population": 24013.0, "Lat": 63.11045, "Lon": 7.72795}], "Kristinehamn": [{"Name": "Kristinehamn", "Country Code": "SE", "Population": 18557.0, "Lat": 59.30978, "Lon": 14.10808}], "Kristinestad": [{"Name": "Kristinestad", "Country Code": "FI", "Population": 7712.0, "Lat": 62.27429, "Lon": 21.37596}], "Krithia": [{"Name": "Krithi\u00e1", "Country Code": "GR", "Population": 1374.0, "Lat": 40.84184, "Lon": 22.98292}], "Kritsa": [{"Name": "Krits\u00e1", "Country Code": "GR", "Population": 1296.0, "Lat": 35.15821, "Lon": 25.64459}], "Kritzendorf": [{"Name": "Kritzendorf", "Country Code": "AT", "Population": 2457.0, "Lat": 48.32932, "Lon": 16.30011}], "Kritzmow": [{"Name": "Kritzmow", "Country Code": "DE", "Population": 3132.0, "Lat": 54.05237, "Lon": 12.05311}], "Kriukivschina": [{"Name": "Kriukivschina", "Country Code": "UA", "Population": 3509.0, "Lat": 50.37153, "Lon": 30.36861}], "Kriva Palanka": [{"Name": "Kriva Palanka", "Country Code": "MK", "Population": 20820.0, "Lat": 42.20088, "Lon": 22.33244}], "Krivaja": [{"Name": "Krivaja", "Country Code": "RS", "Population": 1296.0, "Lat": 44.55021, "Lon": 19.59153}], "Krivodanovka": [{"Name": "Krivodanovka", "Country Code": "RU", "Population": 9006.0, "Lat": 55.0881, "Lon": 82.6551}], "Krivodol": [{"Name": "Krivodol", "Country Code": "BG", "Population": 3651.0, "Lat": 43.37444, "Lon": 23.48444}], "Krivogashtani": [{"Name": "Krivogashtani", "Country Code": "MK", "Population": 5899.0, "Lat": 41.33611, "Lon": 21.33306}], "Krivosheino": [{"Name": "Krivosheino", "Country Code": "RU", "Population": 6010.0, "Lat": 57.34306, "Lon": 83.92611}], "Krivtsovo": [{"Name": "Krivtsovo", "Country Code": "RU", "Population": 2063.0, "Lat": 56.15, "Lon": 36.88333}], "Krivyanskaya": [{"Name": "Krivyanskaya", "Country Code": "RU", "Population": 10203.0, "Lat": 47.39689, "Lon": 40.1668}], "Kriz": [{"Name": "Kri\u017e", "Country Code": "HR", "Population": 1604.0, "Lat": 45.665, "Lon": 16.52333}], "Krizabayo": [{"Name": "Krizabayo", "Country Code": "CI", "Population": 2011.0, "Lat": 6.40504, "Lon": -6.37179}], "Krizanov": [{"Name": "K\u0159i\u017eanov", "Country Code": "CZ", "Population": 1832.0, "Lat": 49.38858, "Lon": 16.1096}], "Krizevci": [{"Name": "Kri\u017eevci", "Country Code": "HR", "Population": 10522.0, "Lat": 46.02194, "Lon": 16.5425}], "Krizevci pri Ljutomeru": [{"Name": "Kri\u017eevci pri Ljutomeru", "Country Code": "SI", "Population": 490.0, "Lat": 46.56833, "Lon": 16.13861}], "Krk": [{"Name": "Krk", "Country Code": "HR", "Population": 3935.0, "Lat": 45.02744, "Lon": 14.57542}], "Krmelin": [{"Name": "Krmel\u00edn", "Country Code": "CZ", "Population": 1853.0, "Lat": 49.72914, "Lon": 18.23541}], "Krnjak": [{"Name": "Krnjak", "Country Code": "HR", "Population": 258.0, "Lat": 45.33333, "Lon": 15.6}], "Krnov": [{"Name": "Krnov", "Country Code": "CZ", "Population": 25547.0, "Lat": 50.08967, "Lon": 17.70385}], "Krobia": [{"Name": "Krobia", "Country Code": "PL", "Population": 4060.0, "Lat": 51.77405, "Lon": 16.98237}], "Krobopa": [{"Name": "Krobopa", "Country Code": "CI", "Population": 2027.0, "Lat": 6.33305, "Lon": -5.96148}], "Kroczyce": [{"Name": "Kroczyce", "Country Code": "PL", "Population": 1699.0, "Lat": 50.56176, "Lon": 19.57}], "Kroepelin": [{"Name": "Kr\u00f6pelin", "Country Code": "DE", "Population": 4044.0, "Lat": 54.06963, "Lon": 11.79473}], "Kroepeliner-Tor-Vorstadt": [{"Name": "Kr\u00f6peliner-Tor-Vorstadt", "Country Code": "DE", "Population": 19542.0, "Lat": 54.08849, "Lon": 12.11539}], "Kroeppelshagen-Fahrendorf": [{"Name": "Kr\u00f6ppelshagen-Fahrendorf", "Country Code": "DE", "Population": 1128.0, "Lat": 53.48979, "Lon": 10.31697}], "Kroeslin": [{"Name": "Kr\u00f6slin", "Country Code": "DE", "Population": 1873.0, "Lat": 54.11662, "Lon": 13.75067}], "Krofensou": [{"Name": "Krofensou", "Country Code": "CI", "Population": 2632.0, "Lat": 7.94269, "Lon": -5.24307}], "Krog": [{"Name": "Krog", "Country Code": "SI", "Population": 1132.0, "Lat": 46.63806, "Lon": 16.14139}], "Krohon": [{"Name": "Krohon", "Country Code": "CI", "Population": 3427.0, "Lat": 5.39141, "Lon": -6.46335}], "Krok Phra": [{"Name": "Krok Phra", "Country Code": "TH", "Population": 0.0, "Lat": 15.55589, "Lon": 100.07153}], "Krokees": [{"Name": "Kroke\u00e9s", "Country Code": "GR", "Population": 1329.0, "Lat": 36.88297, "Lon": 22.54683}], "Krokek": [{"Name": "Krokek", "Country Code": "SE", "Population": 5053.0, "Lat": 58.67231, "Lon": 16.36741}], "Krokom": [{"Name": "Krokom", "Country Code": "SE", "Population": 1953.0, "Lat": 63.32589, "Lon": 14.44883}], "Krokos": [{"Name": "Kr\u00f3kos", "Country Code": "GR", "Population": 3004.0, "Lat": 40.26349, "Lon": 21.8176}], "Krokowa": [{"Name": "Krokowa", "Country Code": "PL", "Population": 782.0, "Lat": 54.77921, "Lon": 18.1616}], "Krokroum": [{"Name": "Krokroum", "Country Code": "CI", "Population": 5410.0, "Lat": 5.2111, "Lon": -5.40944}], "Krokstadora": [{"Name": "Krokstad\u00f8ra", "Country Code": "NO", "Population": 0.0, "Lat": 63.40099, "Lon": 9.50062}], "Krolevets": [{"Name": "Krolevets", "Country Code": "UA", "Population": 24115.0, "Lat": 51.54775, "Lon": 33.38475}], "Krolpa": [{"Name": "Kr\u00f6lpa", "Country Code": "DE", "Population": 3174.0, "Lat": 50.67743, "Lon": 11.53848}], "Krombach": [{"Name": "Krombach", "Country Code": "DE", "Population": 2172.0, "Lat": 50.08319, "Lon": 9.20609}], "Kromberk": [{"Name": "Kromberk", "Country Code": "SI", "Population": 2081.0, "Lat": 45.96083, "Lon": 13.66556}], "Kromengan": [{"Name": "Kromengan", "Country Code": "ID", "Population": 0.0, "Lat": -8.1296, "Lon": 112.4911}], "Kromeriz": [{"Name": "Krom\u011b\u0159\u00ed\u017e", "Country Code": "CZ", "Population": 29126.0, "Lat": 49.29785, "Lon": 17.39312}], "Krompachy": [{"Name": "Krompachy", "Country Code": "SK", "Population": 8763.0, "Lat": 48.91447, "Lon": 20.87514}], "Kromsdorf": [{"Name": "Kromsdorf", "Country Code": "DE", "Population": 1577.0, "Lat": 51.0, "Lon": 11.36667}], "Kromy": [{"Name": "Kromy", "Country Code": "RU", "Population": 7098.0, "Lat": 52.68762, "Lon": 35.76665}], "Kronach": [{"Name": "Kronach", "Country Code": "DE", "Population": 18248.0, "Lat": 50.23963, "Lon": 11.33308}], "Kronau": [{"Name": "Kronau", "Country Code": "DE", "Population": 5585.0, "Lat": 49.2225, "Lon": 8.63111}], "Kronberg": [{"Name": "Kronberg", "Country Code": "DE", "Population": 17730.0, "Lat": 50.18424, "Lon": 8.5232}], "Kronberg Tal": [{"Name": "Kronberg Tal", "Country Code": "DE", "Population": 17550.0, "Lat": 50.17929, "Lon": 8.5037}], "Kronburg": [{"Name": "Kronburg", "Country Code": "DE", "Population": 1736.0, "Lat": 47.90432, "Lon": 10.1572}], "Kronenwetter": [{"Name": "Kronenwetter", "Country Code": "US", "Population": 7630.0, "Lat": 44.82219, "Lon": -89.5904}], "Krong Kep": [{"Name": "Krong Kep", "Country Code": "KH", "Population": 11658.0, "Lat": 10.48291, "Lon": 104.31672}], "Krong Klang": [{"Name": "Kr\u00f4ng Klang", "Country Code": "VN", "Population": 0.0, "Lat": 16.68906, "Lon": 106.8874}], "Krong Kmar": [{"Name": "Kr\u00f4ng Kmar", "Country Code": "VN", "Population": 0.0, "Lat": 12.5045, "Lon": 108.33288}], "Krong Nang": [{"Name": "Kr\u00f4ng N\u0103ng", "Country Code": "VN", "Population": 0.0, "Lat": 12.9517, "Lon": 108.34425}], "Krong Pi Nang": [{"Name": "Krong Pi Nang", "Country Code": "TH", "Population": 0.0, "Lat": 6.4112, "Lon": 101.27394}], "Kronoby": [{"Name": "Kronoby", "Country Code": "FI", "Population": 6813.0, "Lat": 63.72859, "Lon": 23.03387}], "Kronshagen": [{"Name": "Kronshagen", "Country Code": "DE", "Population": 11856.0, "Lat": 54.33333, "Lon": 10.08333}], "Kronstadt": [{"Name": "Kronstadt", "Country Code": "RU", "Population": 43005.0, "Lat": 59.992, "Lon": 29.77616}], "Kronstorf": [{"Name": "Kronstorf", "Country Code": "AT", "Population": 1617.0, "Lat": 48.14324, "Lon": 14.46307}], "Kroonstad": [{"Name": "Kroonstad", "Country Code": "ZA", "Population": 103992.0, "Lat": -27.65036, "Lon": 27.23488}], "Krooswijk": [{"Name": "Krooswijk", "Country Code": "NL", "Population": 4130.0, "Lat": 51.64665, "Lon": 4.59203}], "Kropachevo": [{"Name": "Kropach\u00ebvo", "Country Code": "RU", "Population": 5252.0, "Lat": 55.0112, "Lon": 57.9896}], "Kropotkin": [{"Name": "Kropotkin", "Country Code": "RU", "Population": 79599.0, "Lat": 45.4375, "Lon": 40.57556}, {"Name": "Kropotkin", "Country Code": "RU", "Population": 1765.0, "Lat": 58.50944, "Lon": 115.32167}], "Kropp": [{"Name": "Kropp", "Country Code": "DE", "Population": 6320.0, "Lat": 54.41667, "Lon": 9.51667}], "Kroppenstedt": [{"Name": "Kroppenstedt", "Country Code": "DE", "Population": 1681.0, "Lat": 51.94211, "Lon": 11.30841}], "Kropstaedt": [{"Name": "Kropst\u00e4dt", "Country Code": "DE", "Population": 1364.0, "Lat": 51.96307, "Lon": 12.7455}], "Kropyvnytskyy": [{"Name": "Kropyvnytskyy", "Country Code": "UA", "Population": 219676.0, "Lat": 48.50834, "Lon": 32.26618}], "Kroscienko Wyzne": [{"Name": "Kro\u015bcienko Wy\u017cne", "Country Code": "PL", "Population": 3700.0, "Lat": 49.67946, "Lon": 21.82898}], "Kroscienko nad Dunajcem": [{"Name": "Kro\u015bcienko nad Dunajcem", "Country Code": "PL", "Population": 3500.0, "Lat": 49.44081, "Lon": 20.42624}], "Krosnica": [{"Name": "Kro\u015bnica", "Country Code": "PL", "Population": 1400.0, "Lat": 49.44787, "Lon": 20.33956}], "Krosnice": [{"Name": "Kro\u015bnice", "Country Code": "PL", "Population": 1800.0, "Lat": 51.47641, "Lon": 17.35917}], "Krosniewice": [{"Name": "Kro\u015bniewice", "Country Code": "PL", "Population": 4610.0, "Lat": 52.25592, "Lon": 19.17037}], "Krosno": [{"Name": "Krosno", "Country Code": "PL", "Population": 47784.0, "Lat": 49.68866, "Lon": 21.77058}, {"Name": "Krosno", "Country Code": "PL", "Population": 1724.0, "Lat": 52.22357, "Lon": 16.83251}], "Krosno Odrzanskie": [{"Name": "Krosno Odrza\u0144skie", "Country Code": "PL", "Population": 12178.0, "Lat": 52.05492, "Lon": 15.09882}], "Krostitz": [{"Name": "Krostitz", "Country Code": "DE", "Population": 4033.0, "Lat": 51.46208, "Lon": 12.4536}], "Krotoszyn": [{"Name": "Krotoszyn", "Country Code": "PL", "Population": 29231.0, "Lat": 51.69868, "Lon": 17.43738}], "Krotovka": [{"Name": "Krotovka", "Country Code": "RU", "Population": 5398.0, "Lat": 53.2858, "Lon": 51.1686}], "Krottendorf": [{"Name": "Krottendorf", "Country Code": "AT", "Population": 871.0, "Lat": 47.2, "Lon": 15.63333}], "Krottendorf bei Ligist": [{"Name": "Krottendorf bei Ligist", "Country Code": "AT", "Population": 1211.0, "Lat": 47.01667, "Lon": 15.21667}], "Krotz Springs": [{"Name": "Krotz Springs", "Country Code": "US", "Population": 1203.0, "Lat": 30.53686, "Lon": -91.75289}], "Krou Okoukro": [{"Name": "Krou Okoukro", "Country Code": "CI", "Population": 1078.0, "Lat": 7.3578, "Lon": -5.02521}], "Kroufian": [{"Name": "Kroufian", "Country Code": "CI", "Population": 1529.0, "Lat": 5.51812, "Lon": -4.52824}], "Kroukroubo": [{"Name": "Kroukroubo", "Country Code": "CI", "Population": 3892.0, "Lat": 6.61521, "Lon": -5.29033}], "Krouna": [{"Name": "Krouna", "Country Code": "CZ", "Population": 1352.0, "Lat": 49.7724, "Lon": 16.02674}], "Krouson": [{"Name": "Krous\u00f3n", "Country Code": "GR", "Population": 2811.0, "Lat": 35.23062, "Lon": 24.98291}], "Krov": [{"Name": "Kr\u00f6v", "Country Code": "DE", "Population": 2318.0, "Lat": 49.98333, "Lon": 7.08333}], "Kroya": [{"Name": "Kroya", "Country Code": "ID", "Population": 23255.0, "Lat": -7.63306, "Lon": 109.24611}], "Krozalie": [{"Name": "Krozali\u00e9", "Country Code": "CI", "Population": 2754.0, "Lat": 6.85345, "Lon": -8.14513}], "Krrabe": [{"Name": "Krrab\u00eb", "Country Code": "AL", "Population": 1177.0, "Lat": 41.21556, "Lon": 19.97139}], "Krsan": [{"Name": "Kr\u0161an", "Country Code": "HR", "Population": 227.0, "Lat": 45.17333, "Lon": 14.13861}], "Krsko": [{"Name": "Kr\u0161ko", "Country Code": "SI", "Population": 7217.0, "Lat": 45.95915, "Lon": 15.49167}], "Krucemburk": [{"Name": "Krucemburk", "Country Code": "CZ", "Population": 1630.0, "Lat": 49.68841, "Lon": 15.85207}], "Krucil Timur": [{"Name": "Krucil Timur", "Country Code": "ID", "Population": 0.0, "Lat": -7.94315, "Lon": 113.47494}], "Kruen": [{"Name": "Kr\u00fcn", "Country Code": "DE", "Population": 2032.0, "Lat": 47.50515, "Lon": 11.27924}], "Krueng Luak": [{"Name": "Krueng Luak", "Country Code": "ID", "Population": 0.0, "Lat": 2.8583, "Lon": 97.7578}], "Kruengraya": [{"Name": "Kruengraya", "Country Code": "ID", "Population": 0.0, "Lat": 5.5895, "Lon": 95.5145}], "Kruft": [{"Name": "Kruft", "Country Code": "DE", "Population": 3854.0, "Lat": 50.38333, "Lon": 7.33333}], "Krugersdorp": [{"Name": "Krugersdorp", "Country Code": "ZA", "Population": 378821.0, "Lat": -26.08577, "Lon": 27.77515}], "Krugerville": [{"Name": "Krugerville", "Country Code": "US", "Population": 1669.0, "Lat": 33.28151, "Lon": -96.99056}], "Kruglolesskoye": [{"Name": "Kruglolesskoye", "Country Code": "RU", "Population": 3249.0, "Lat": 44.65889, "Lon": 42.81417}], "Krugloozernoye": [{"Name": "Kruglooz\u00ebrnoye", "Country Code": "KZ", "Population": 2977.0, "Lat": 51.08167, "Lon": 51.29052}], "Kruhlaye": [{"Name": "Kruhlaye", "Country Code": "BY", "Population": 7300.0, "Lat": 54.2497, "Lon": 29.7968}], "Kruhlyk": [{"Name": "Kruhlyk", "Country Code": "UA", "Population": 1879.0, "Lat": 48.3707, "Lon": 26.44878}], "Krui": [{"Name": "Krui", "Country Code": "ID", "Population": 0.0, "Lat": -5.19131, "Lon": 103.932}], "Kruibeke": [{"Name": "Kruibeke", "Country Code": "BE", "Population": 14815.0, "Lat": 51.17048, "Lon": 4.31444}], "Kruisberg": [{"Name": "Kruisberg", "Country Code": "NL", "Population": 1150.0, "Lat": 50.94234, "Lon": 5.96519}], "Kruisfontein": [{"Name": "Kruisfontein", "Country Code": "ZA", "Population": 18991.0, "Lat": -34.00333, "Lon": 24.73142}], "Kruishoutem": [{"Name": "Kruishoutem", "Country Code": "BE", "Population": 8179.0, "Lat": 50.90168, "Lon": 3.52588}], "Kruisland": [{"Name": "Kruisland", "Country Code": "NL", "Population": 1785.0, "Lat": 51.56917, "Lon": 4.40972}], "Kruje": [{"Name": "Kruj\u00eb", "Country Code": "AL", "Population": 21286.0, "Lat": 41.50917, "Lon": 19.79278}], "Kruklanki": [{"Name": "Kruklanki", "Country Code": "PL", "Population": 1100.0, "Lat": 54.08855, "Lon": 21.92227}], "Krum": [{"Name": "Krum", "Country Code": "US", "Population": 4990.0, "Lat": 33.26151, "Lon": -97.23807}], "Krumau am Kamp": [{"Name": "Krumau am Kamp", "Country Code": "AT", "Population": 256.0, "Lat": 48.58879, "Lon": 15.44914}], "Krumbach": [{"Name": "Krumbach", "Country Code": "AT", "Population": 1042.0, "Lat": 47.48306, "Lon": 9.93583},