{"Ozernyy": [{"Name": "Ozernyy", "Country Code": "KZ", "Population": 3563.0, "Lat": 46.80714, "Lon": 75.036}, {"Name": "Oz\u00ebrnyy", "Country Code": "RU", "Population": 5921.0, "Lat": 55.5802, "Lon": 32.4127}], "Ozersk": [{"Name": "Ozersk", "Country Code": "RU", "Population": 81023.0, "Lat": 55.75556, "Lon": 60.70278}, {"Name": "Oz\u00ebrsk", "Country Code": "RU", "Population": 5705.0, "Lat": 54.41056, "Lon": 22.01167}], "Ozery": [{"Name": "Oz\u00ebry", "Country Code": "RU", "Population": 25900.0, "Lat": 54.85998, "Lon": 38.55062}], "Ozherel'ye": [{"Name": "Ozherel\u2019ye", "Country Code": "RU", "Population": 10618.0, "Lat": 54.79197, "Lon": 38.26559}], "Ozheve": [{"Name": "Ozheve", "Country Code": "UA", "Population": 1118.0, "Lat": 48.55786, "Lon": 27.4641}], "Ozieri": [{"Name": "Ozieri", "Country Code": "IT", "Population": 7764.0, "Lat": 40.5863, "Lon": 9.0034}], "Ozimek": [{"Name": "Ozimek", "Country Code": "PL", "Population": 9963.0, "Lat": 50.67944, "Lon": 18.2137}], "Ozoir-la-Ferriere": [{"Name": "Ozoir-la-Ferri\u00e8re", "Country Code": "FR", "Population": 22530.0, "Lat": 48.76699, "Lon": 2.66871}], "Ozolnieki": [{"Name": "Ozolnieki", "Country Code": "LV", "Population": 3400.0, "Lat": 56.68986, "Lon": 23.7761}], "Ozona": [{"Name": "Ozona", "Country Code": "US", "Population": 3225.0, "Lat": 30.71017, "Lon": -101.20067}], "Ozonak": [{"Name": "\u00d6zonak", "Country Code": "TR", "Population": 0.0, "Lat": 38.81213, "Lon": 34.84096}], "Ozone Park": [{"Name": "Ozone Park", "Country Code": "US", "Population": 53985.0, "Lat": 40.67677, "Lon": -73.84375}], "Ozora": [{"Name": "Ozora", "Country Code": "HU", "Population": 1742.0, "Lat": 46.75133, "Lon": 18.4001}, {"Name": "Ozora", "Country Code": "JP", "Population": 7430.0, "Lat": 43.91298, "Lon": 144.16852}], "Ozorkow": [{"Name": "Ozork\u00f3w", "Country Code": "PL", "Population": 20608.0, "Lat": 51.96336, "Lon": 19.29139}], "Ozoro": [{"Name": "Ozoro", "Country Code": "NG", "Population": 0.0, "Lat": 5.54692, "Lon": 6.22649}], "Ozouer-le-Voulgis": [{"Name": "Ozouer-le-Voulgis", "Country Code": "FR", "Population": 1617.0, "Lat": 48.66012, "Lon": 2.77409}], "Ozpinar": [{"Name": "\u00d6zp\u0131nar", "Country Code": "TR", "Population": 0.0, "Lat": 38.00478, "Lon": 42.24386}], "Oztotitlan": [{"Name": "Oztotitl\u00e1n", "Country Code": "MX", "Population": 1265.0, "Lat": 17.67232, "Lon": -99.02464}], "Ozu": [{"Name": "\u014czu", "Country Code": "JP", "Population": 33793.0, "Lat": 32.8804, "Lon": 130.87161}, {"Name": "\u014czu", "Country Code": "JP", "Population": 38833.0, "Lat": 33.5, "Lon": 132.55}], "Ozubulu": [{"Name": "Ozubulu", "Country Code": "NG", "Population": 73812.0, "Lat": 5.95753, "Lon": 6.85305}], "Ozuluama de Mascarenas": [{"Name": "Ozuluama de Mascare\u00f1as", "Country Code": "MX", "Population": 4225.0, "Lat": 21.6604, "Lon": -97.85049}], "Ozumba de Alzate": [{"Name": "Ozumba de Alzate", "Country Code": "MX", "Population": 16700.0, "Lat": 19.03689, "Lon": -98.79516}], "Ozun": [{"Name": "Ozun", "Country Code": "RO", "Population": 4493.0, "Lat": 45.8, "Lon": 25.85}], "Ozurgeti": [{"Name": "Ozurgeti", "Country Code": "GE", "Population": 14672.0, "Lat": 41.92442, "Lon": 42.00682}], "Ozvatan": [{"Name": "\u00d6zvatan", "Country Code": "TR", "Population": 0.0, "Lat": 39.1069, "Lon": 35.69994}], "Ozzano Monferrato": [{"Name": "Ozzano Monferrato", "Country Code": "IT", "Population": 1129.0, "Lat": 45.10592, "Lon": 8.37238}], "Ozzano Taro": [{"Name": "Ozzano Taro", "Country Code": "IT", "Population": 1130.0, "Lat": 44.70969, "Lon": 10.14086}], "Ozzano dell'Emilia": [{"Name": "Ozzano dell'Emilia", "Country Code": "IT", "Population": 8825.0, "Lat": 44.44427, "Lon": 11.47552}], "Ozzero": [{"Name": "Ozzero", "Country Code": "IT", "Population": 1216.0, "Lat": 45.36775, "Lon": 8.9244}], "P'ok'r Mant'ash": [{"Name": "P\u2019ok\u2019r Mant\u2019ash", "Country Code": "AM", "Population": 1838.0, "Lat": 40.64026, "Lon": 44.04666}], "P'ot'i": [{"Name": "P\u2019ot\u2019i", "Country Code": "GE", "Population": 41498.0, "Lat": 42.14272, "Lon": 41.67384}], "P'rimorsk'oe": [{"Name": "P\u2019rimorsk\u2019oe", "Country Code": "GE", "Population": 2573.0, "Lat": 43.09236, "Lon": 40.6965}], "P'shatavan": [{"Name": "P\u2019shatavan", "Country Code": "AM", "Population": 2159.0, "Lat": 40.03888, "Lon": 44.06671}], "P'ungin": [{"Name": "P\u2019ungin", "Country Code": "KP", "Population": 0.0, "Lat": 42.93067, "Lon": 130.04994}], "P'yatypill'ya": [{"Name": "P'yatypill'ya", "Country Code": "UA", "Population": 3158.0, "Lat": 48.0159, "Lon": 38.09979}], "P'yongsong": [{"Name": "P\u2019y\u014fngs\u014fng", "Country Code": "KP", "Population": 100000.0, "Lat": 39.24639, "Lon": 125.87194}], "PRI Chacon": [{"Name": "PRI Chac\u00f3n", "Country Code": "MX", "Population": 3431.0, "Lat": 20.08139, "Lon": -98.73694}], "Pa": [{"Name": "Pa", "Country Code": "BF", "Population": 15170.0, "Lat": 12.66667, "Lon": -3.95}], "Pa Bon": [{"Name": "Pa Bon", "Country Code": "TH", "Population": 0.0, "Lat": 7.26942, "Lon": 100.17036}], "Pa Daet": [{"Name": "Pa Daet", "Country Code": "TH", "Population": 13624.0, "Lat": 19.50489, "Lon": 99.99241}], "Pa Kham": [{"Name": "Pa Kham", "Country Code": "TH", "Population": 0.0, "Lat": 14.43817, "Lon": 102.72558}], "Pa Mok": [{"Name": "Pa Mok", "Country Code": "TH", "Population": 0.0, "Lat": 14.48989, "Lon": 100.44847}], "Pa Phayom": [{"Name": "Pa Phayom", "Country Code": "TH", "Population": 0.0, "Lat": 7.84031, "Lon": 99.91773}], "Pa Sang": [{"Name": "Pa Sang", "Country Code": "TH", "Population": 15607.0, "Lat": 18.52617, "Lon": 98.93936}], "Pa Tio": [{"Name": "Pa Tio", "Country Code": "TH", "Population": 0.0, "Lat": 15.83281, "Lon": 104.38673}], "Pa'in-e Bazar-e Rudbar": [{"Name": "P\u0101\u2019\u012bn-e B\u0101z\u0101r-e R\u016bdb\u0101r", "Country Code": "IR", "Population": 0.0, "Lat": 36.8211, "Lon": 49.4264}], "Paagahan": [{"Name": "Paagahan", "Country Code": "PH", "Population": 3621.0, "Lat": 14.4447, "Lon": 121.401}], "Paal": [{"Name": "Paal", "Country Code": "BE", "Population": 11935.0, "Lat": 51.03988, "Lon": 5.17233}], "Paamiut": [{"Name": "Paamiut", "Country Code": "GL", "Population": 1308.0, "Lat": 61.99402, "Lon": -49.66776}], "Paarl": [{"Name": "Paarl", "Country Code": "ZA", "Population": 190000.0, "Lat": -33.73378, "Lon": 18.97523}], "Paarp": [{"Name": "P\u00e5arp", "Country Code": "SE", "Population": 2932.0, "Lat": 56.03333, "Lon": 12.81667}], "Paatan": [{"Name": "Paatan", "Country Code": "PH", "Population": 4526.0, "Lat": 7.11972, "Lon": 124.92389}], "Paatogo": [{"Name": "Paatogo", "Country Code": "CI", "Population": 2425.0, "Lat": 9.09343, "Lon": -6.59482}], "Pabbi": [{"Name": "Pabbi", "Country Code": "PK", "Population": 37307.0, "Lat": 34.00968, "Lon": 71.79445}], "Pabellon de Arteaga": [{"Name": "Pabell\u00f3n de Arteaga", "Country Code": "MX", "Population": 28633.0, "Lat": 22.14642, "Lon": -102.2769}], "Pabellon de Hidalgo": [{"Name": "Pabell\u00f3n de Hidalgo", "Country Code": "MX", "Population": 4316.0, "Lat": 22.17871, "Lon": -102.34014}], "Pabianice": [{"Name": "Pabianice", "Country Code": "PL", "Population": 70542.0, "Lat": 51.66446, "Lon": 19.35473}], "Pabillonis": [{"Name": "Pabillonis", "Country Code": "IT", "Population": 2806.0, "Lat": 39.59228, "Lon": 8.72143}], "Pablo": [{"Name": "Pablo", "Country Code": "US", "Population": 2254.0, "Lat": 47.60021, "Lon": -114.119}], "Pablo L. Sidar": [{"Name": "Pablo L. Sidar", "Country Code": "MX", "Population": 3070.0, "Lat": 15.83053, "Lon": -92.27977}, {"Name": "Pablo L. Sidar", "Country Code": "MX", "Population": 1251.0, "Lat": 17.90028, "Lon": -93.02917}], "Pabna": [{"Name": "P\u0101bna", "Country Code": "BD", "Population": 186781.0, "Lat": 24.00644, "Lon": 89.2372}], "Pabneukirchen": [{"Name": "Pabneukirchen", "Country Code": "AT", "Population": 497.0, "Lat": 48.32367, "Lon": 14.81747}], "Pabrade": [{"Name": "Pabrad\u0117", "Country Code": "LT", "Population": 6375.0, "Lat": 54.981, "Lon": 25.761}], "Pabre": [{"Name": "Pabr\u00e9", "Country Code": "BF", "Population": 0.0, "Lat": 12.52147, "Lon": -1.58631}], "Pabu": [{"Name": "Pabu", "Country Code": "FR", "Population": 2829.0, "Lat": 48.58722, "Lon": -3.13685}], "Pabuaran": [{"Name": "Pabuaran", "Country Code": "ID", "Population": 0.0, "Lat": -6.2043, "Lon": 106.0711}], "Pac Miau": [{"Name": "P\u00e1c Mi\u1ea7u", "Country Code": "VN", "Population": 0.0, "Lat": 22.82968, "Lon": 105.49334}], "Paca": [{"Name": "Paca", "Country Code": "PE", "Population": 769.0, "Lat": -11.71189, "Lon": -75.51889}], "Pacaembu": [{"Name": "Pacaembu", "Country Code": "BR", "Population": 10101.0, "Lat": -21.56222, "Lon": -51.26056}], "Pacaipampa": [{"Name": "Pacaipampa", "Country Code": "PE", "Population": 0.0, "Lat": -4.99502, "Lon": -79.66773}], "Pacajus": [{"Name": "Pacajus", "Country Code": "BR", "Population": 41558.0, "Lat": -4.1725, "Lon": -38.46056}], "Pacanga": [{"Name": "Pacanga", "Country Code": "PE", "Population": 8750.0, "Lat": -7.16667, "Lon": -79.5}], "Pacanow": [{"Name": "Pacan\u00f3w", "Country Code": "PL", "Population": 1137.0, "Lat": 50.40031, "Lon": 21.04148}], "Pacapausa": [{"Name": "Pacapausa", "Country Code": "PE", "Population": 520.0, "Lat": -14.94924, "Lon": -73.36805}], "Pacaraos": [{"Name": "Pacaraos", "Country Code": "PE", "Population": 404.0, "Lat": -11.18611, "Lon": -76.6475}], "Pacarkeling": [{"Name": "Pacarkeling", "Country Code": "ID", "Population": 0.0, "Lat": -7.258, "Lon": 112.7581}], "Pacasmayo": [{"Name": "Pacasmayo", "Country Code": "PE", "Population": 29165.0, "Lat": -7.40056, "Lon": -79.57139}], "Pacatuba": [{"Name": "Pacatuba", "Country Code": "BR", "Population": 2616.0, "Lat": -10.45333, "Lon": -36.65139}, {"Name": "Pacatuba", "Country Code": "BR", "Population": 55291.0, "Lat": -3.98417, "Lon": -38.62028}], "Pacayas": [{"Name": "Pacayas", "Country Code": "CR", "Population": 1556.0, "Lat": 9.80737, "Lon": -84.04817}], "Pacaycasa": [{"Name": "Pacaycasa", "Country Code": "PE", "Population": 466.0, "Lat": -13.05694, "Lon": -74.21361}], "Paccaritambo": [{"Name": "Paccaritambo", "Country Code": "PE", "Population": 734.0, "Lat": -13.75594, "Lon": -71.95639}], "Paccha": [{"Name": "Paccha", "Country Code": "PE", "Population": 0.0, "Lat": -11.47389, "Lon": -75.96}, {"Name": "Paccha", "Country Code": "PE", "Population": 0.0, "Lat": -6.49778, "Lon": -78.41833}, {"Name": "Paccha", "Country Code": "PE", "Population": 665.0, "Lat": -11.85555, "Lon": -75.51133}], "Paccho": [{"Name": "Paccho", "Country Code": "PE", "Population": 393.0, "Lat": -10.95722, "Lon": -76.93222}], "Pace": [{"Name": "Pac\u00e9", "Country Code": "FR", "Population": 8608.0, "Lat": 48.14854, "Lon": -1.77435}, {"Name": "Pace", "Country Code": "US", "Population": 20039.0, "Lat": 30.59936, "Lon": -87.16108}], "Pace del Mela": [{"Name": "Pace del Mela", "Country Code": "IT", "Population": 3376.0, "Lat": 38.17997, "Lon": 15.30629}], "Paceco": [{"Name": "Paceco", "Country Code": "IT", "Population": 9358.0, "Lat": 37.98026, "Lon": 12.55766}], "Pacentro": [{"Name": "Pacentro", "Country Code": "IT", "Population": 1149.0, "Lat": 42.05043, "Lon": 13.99151}], "Pachaconas": [{"Name": "Pachaconas", "Country Code": "PE", "Population": 723.0, "Lat": -14.22334, "Lon": -73.01635}], "Pachalum": [{"Name": "Pachalum", "Country Code": "GT", "Population": 2344.0, "Lat": 14.92472, "Lon": -90.66278}], "Pachas": [{"Name": "Pachas", "Country Code": "PE", "Population": 0.0, "Lat": -9.70651, "Lon": -76.77113}], "Pachavita": [{"Name": "Pachavita", "Country Code": "CO", "Population": 959.0, "Lat": 5.13969, "Lon": -73.39739}], "Pacheco": [{"Name": "Pacheco", "Country Code": "US", "Population": 3685.0, "Lat": 37.98353, "Lon": -122.07524}], "Pachelma": [{"Name": "Pachelma", "Country Code": "RU", "Population": 8620.0, "Lat": 53.24426, "Lon": 43.35205}], "Pachino": [{"Name": "Pachino", "Country Code": "IT", "Population": 20493.0, "Lat": 36.71522, "Lon": 15.09019}], "Pachiquita": [{"Name": "Pachiquita", "Country Code": "MX", "Population": 1158.0, "Lat": 20.84608, "Lon": -98.33478}], "Pachir wa Agam": [{"Name": "Pach\u012br wa \u0100g\u0101m", "Country Code": "AF", "Population": 0.0, "Lat": 34.20011, "Lon": 70.27806}], "Pachmarhi": [{"Name": "Pachmarhi", "Country Code": "IN", "Population": 3228.0, "Lat": 22.46791, "Lon": 78.43312}], "Pachna": [{"Name": "P\u00e1chna", "Country Code": "CY", "Population": 1008.0, "Lat": 34.77874, "Lon": 32.79355}], "Pachni": [{"Name": "P\u00e1chni", "Country Code": "GR", "Population": 1110.0, "Lat": 41.30506, "Lon": 24.89438}], "Pacho": [{"Name": "Pacho", "Country Code": "CO", "Population": 16698.0, "Lat": 5.13278, "Lon": -74.15977}], "Pacho Nuevo": [{"Name": "Pacho Nuevo", "Country Code": "MX", "Population": 2673.0, "Lat": 19.47717, "Lon": -96.87842}], "Pacho Viejo": [{"Name": "Pacho Viejo", "Country Code": "MX", "Population": 4965.0, "Lat": 19.48239, "Lon": -96.91659}], "Pachora": [{"Name": "P\u0101chora", "Country Code": "IN", "Population": 46823.0, "Lat": 20.66727, "Lon": 75.35305}], "Pachperwa": [{"Name": "Pachperwa", "Country Code": "IN", "Population": 15056.0, "Lat": 27.51234, "Lon": 82.64297}], "Pachuca de Soto": [{"Name": "Pachuca de Soto", "Country Code": "MX", "Population": 256584.0, "Lat": 20.11697, "Lon": -98.73329}], "Pachuquilla": [{"Name": "Pachuquilla", "Country Code": "MX", "Population": 6139.0, "Lat": 20.07099, "Lon": -98.69572}], "Paciano": [{"Name": "Paciano", "Country Code": "IT", "Population": 529.0, "Lat": 43.02288, "Lon": 12.06788}], "Pacific": [{"Name": "Pacific", "Country Code": "US", "Population": 7161.0, "Lat": 38.482, "Lon": -90.74152}, {"Name": "Pacific", "Country Code": "US", "Population": 7123.0, "Lat": 47.26455, "Lon": -122.25012}], "Pacific City": [{"Name": "Pacific City", "Country Code": "US", "Population": 1035.0, "Lat": 45.20233, "Lon": -123.96289}], "Pacific Grove": [{"Name": "Pacific Grove", "Country Code": "US", "Population": 15674.0, "Lat": 36.61774, "Lon": -121.91662}], "Pacific Paradise": [{"Name": "Pacific Paradise", "Country Code": "AU", "Population": 2168.0, "Lat": -26.61807, "Lon": 153.07781}], "Pacific Pines": [{"Name": "Pacific Pines", "Country Code": "AU", "Population": 16605.0, "Lat": -27.93994, "Lon": 153.31436}], "Pacifica": [{"Name": "Pacifica", "Country Code": "US", "Population": 39260.0, "Lat": 37.61383, "Lon": -122.48692}], "Paciran": [{"Name": "Paciran", "Country Code": "ID", "Population": 27072.0, "Lat": -6.87666, "Lon": 112.37606}], "Pacitan": [{"Name": "Pacitan", "Country Code": "ID", "Population": 0.0, "Lat": -8.19389, "Lon": 111.10333}], "Pack": [{"Name": "Pack", "Country Code": "AT", "Population": 410.0, "Lat": 46.97917, "Lon": 14.98417}], "Paclas": [{"Name": "Paclas", "Country Code": "PE", "Population": 365.0, "Lat": -6.06222, "Lon": -77.97667}], "Paclolo": [{"Name": "Paclolo", "Country Code": "PH", "Population": 2346.0, "Lat": 12.37675, "Lon": 121.17351}], "Paco": [{"Name": "Paco", "Country Code": "PH", "Population": 79839.0, "Lat": 14.58333, "Lon": 120.98333}], "Paco Roman": [{"Name": "Paco Roman", "Country Code": "PH", "Population": 2770.0, "Lat": 15.6597, "Lon": 121.0877}], "Paco de Arcos": [{"Name": "Pa\u00e7o de Arcos", "Country Code": "PT", "Population": 25974.0, "Lat": 38.69569, "Lon": -9.29143}], "Pacobamba": [{"Name": "Pacobamba", "Country Code": "PE", "Population": 373.0, "Lat": -13.61639, "Lon": -73.08611}], "Pacobo": [{"Name": "Pacobo", "Country Code": "CI", "Population": 2216.0, "Lat": 6.16742, "Lon": -4.93723}], "Pacocha": [{"Name": "Pacocha", "Country Code": "PE", "Population": 7588.0, "Lat": -17.64604, "Lon": -71.34481}], "Pacol": [{"Name": "Pacol", "Country Code": "PH", "Population": 19839.0, "Lat": 10.45, "Lon": 122.81667}], "Pacolet": [{"Name": "Pacolet", "Country Code": "US", "Population": 2352.0, "Lat": 34.89902, "Lon": -81.76177}], "Pacora": [{"Name": "P\u00e1cora", "Country Code": "CO", "Population": 13214.0, "Lat": 5.52708, "Lon": -75.4593}, {"Name": "Pacora", "Country Code": "PA", "Population": 6856.0, "Lat": 9.08252, "Lon": -79.28957}, {"Name": "Pacora", "Country Code": "PE", "Population": 0.0, "Lat": -6.42889, "Lon": -79.83889}], "Pacos de Brandao": [{"Name": "Pa\u00e7os de Brand\u00e3o", "Country Code": "PT", "Population": 4637.0, "Lat": 40.97541, "Lon": -8.5835}], "Pacos de Ferreira": [{"Name": "Pa\u00e7os de Ferreira", "Country Code": "PT", "Population": 6782.0, "Lat": 41.27657, "Lon": -8.37617}], "Pacov": [{"Name": "Pacov", "Country Code": "CZ", "Population": 5145.0, "Lat": 49.47076, "Lon": 15.00168}], "Pacsa": [{"Name": "Pacsa", "Country Code": "HU", "Population": 1878.0, "Lat": 46.71981, "Lon": 17.01401}], "Pacu": [{"Name": "Pac\u00fa", "Country Code": "MX", "Population": 2440.0, "Lat": 16.63584, "Lon": -93.13437}], "Pacucha": [{"Name": "Pacucha", "Country Code": "PE", "Population": 0.0, "Lat": -13.60889, "Lon": -73.34361}], "Pacureti": [{"Name": "P\u0103cure\u0163i", "Country Code": "RO", "Population": 2252.0, "Lat": 45.15, "Lon": 26.13333}], "Pacy-sur-Eure": [{"Name": "Pacy-sur-Eure", "Country Code": "FR", "Population": 5201.0, "Lat": 49.01667, "Lon": 1.38333}], "Pacyna": [{"Name": "Pacyna", "Country Code": "PL", "Population": 219.0, "Lat": 52.30281, "Lon": 19.70982}], "Paczkow": [{"Name": "Paczk\u00f3w", "Country Code": "PL", "Population": 8081.0, "Lat": 50.46395, "Lon": 17.00658}], "Pad Idan": [{"Name": "Pad Idan", "Country Code": "PK", "Population": 20919.0, "Lat": 26.77455, "Lon": 68.30094}], "Pad' Mel'nichnaya": [{"Name": "Pad\u2019 Mel\u2019nichnaya", "Country Code": "RU", "Population": 1185.0, "Lat": 52.161, "Lon": 104.38}], "Padada": [{"Name": "Padada", "Country Code": "PH", "Population": 11439.0, "Lat": 6.64111, "Lon": 125.345}], "Padaherang": [{"Name": "Padaherang", "Country Code": "ID", "Population": 0.0, "Lat": -7.5499, "Lon": 108.6956}], "Padalarang": [{"Name": "Padalarang", "Country Code": "ID", "Population": 184182.0, "Lat": -6.83778, "Lon": 107.47278}], "Padam": [{"Name": "Padam", "Country Code": "IN", "Population": 25000.0, "Lat": 33.46659, "Lon": 76.88488}], "Padampur": [{"Name": "Padampur", "Country Code": "IN", "Population": 16387.0, "Lat": 20.99932, "Lon": 83.06325}, {"Name": "Padampur", "Country Code": "IN", "Population": 18454.0, "Lat": 29.70885, "Lon": 73.62539}], "Padang": [{"Name": "Padang", "Country Code": "ID", "Population": 909040.0, "Lat": -0.94924, "Lon": 100.35427}, {"Name": "Padang", "Country Code": "PH", "Population": 2187.0, "Lat": 13.2196, "Lon": 123.7655}], "Padang Aro": [{"Name": "Padang Aro", "Country Code": "ID", "Population": 0.0, "Lat": -1.52722, "Lon": 101.26361}], "Padang Mat Sirat": [{"Name": "Padang Mat Sirat", "Country Code": "MY", "Population": 10000.0, "Lat": 6.35423, "Lon": 99.73404}], "Padangbatung": [{"Name": "Padangbatung", "Country Code": "ID", "Population": 0.0, "Lat": -2.838, "Lon": 115.2912}], "Padangcermin": [{"Name": "Padangcermin", "Country Code": "ID", "Population": 0.0, "Lat": -5.60075, "Lon": 105.1387}], "Padangguci": [{"Name": "Padangguci", "Country Code": "ID", "Population": 0.0, "Lat": -4.58891, "Lon": 103.14425}], "Padangsappa": [{"Name": "Padangsappa", "Country Code": "ID", "Population": 0.0, "Lat": -3.2347, "Lon": 120.3005}], "Padangsidempuan": [{"Name": "Padangsidempuan", "Country Code": "ID", "Population": 225105.0, "Lat": 1.37952, "Lon": 99.27146}], "Padangtepung": [{"Name": "Padangtepung", "Country Code": "ID", "Population": 0.0, "Lat": -3.7538, "Lon": 102.7945}], "Padangtiji": [{"Name": "Padangtiji", "Country Code": "ID", "Population": 0.0, "Lat": 5.3742, "Lon": 95.8445}], "Padangtikar": [{"Name": "Padangtikar", "Country Code": "ID", "Population": 0.0, "Lat": -0.6913, "Lon": 109.26327}], "Padangulaktanding": [{"Name": "Padangulaktanding", "Country Code": "ID", "Population": 0.0, "Lat": -3.3749, "Lon": 102.7996}], "Padapada": [{"Name": "Padapada", "Country Code": "PH", "Population": 3016.0, "Lat": 15.5517, "Lon": 120.5163}], "Padarincang": [{"Name": "Padarincang", "Country Code": "ID", "Population": 0.0, "Lat": -6.214, "Lon": 105.9512}], "Padasjoki": [{"Name": "Padasjoki", "Country Code": "FI", "Population": 3473.0, "Lat": 61.35, "Lon": 25.28333}], "Padaviya Divisional Secretariat": [{"Name": "Padaviya Divisional Secretariat", "Country Code": "LK", "Population": 0.0, "Lat": 8.845, "Lon": 80.7625}], "Padborg": [{"Name": "Padborg", "Country Code": "DK", "Population": 4311.0, "Lat": 54.82657, "Lon": 9.36247}], "Padbury": [{"Name": "Padbury", "Country Code": "AU", "Population": 7937.0, "Lat": -31.80645, "Lon": 115.7688}], "Paddaya": [{"Name": "Paddaya", "Country Code": "PH", "Population": 3228.0, "Lat": 18.31279, "Lon": 121.7677}, {"Name": "Paddaya", "Country Code": "PH", "Population": 4435.0, "Lat": 18.32361, "Lon": 121.73866}], "Paddhari": [{"Name": "Paddhari", "Country Code": "IN", "Population": 9701.0, "Lat": 22.43654, "Lon": 70.60162}], "Paddington": [{"Name": "Paddington", "Country Code": "AU", "Population": 12686.0, "Lat": -33.88419, "Lon": 151.23151}, {"Name": "Paddington", "Country Code": "AU", "Population": 8315.0, "Lat": -27.45939, "Lon": 152.99509}], "Paddock Lake": [{"Name": "Paddock Lake", "Country Code": "US", "Population": 3014.0, "Lat": 42.57752, "Lon": -88.10509}], "Paddock Wood": [{"Name": "Paddock Wood", "Country Code": "GB", "Population": 7840.0, "Lat": 51.18187, "Lon": 0.38229}], "Padea": [{"Name": "Padea", "Country Code": "RO", "Population": 1151.0, "Lat": 44.02128, "Lon": 23.86827}], "Padegan-e Manjil": [{"Name": "P\u0101deg\u0101n-e Manj\u012bl", "Country Code": "IR", "Population": 17396.0, "Lat": 36.7415, "Lon": 49.4161}], "Padej": [{"Name": "Padej", "Country Code": "RS", "Population": 3465.0, "Lat": 45.82756, "Lon": 20.16279}], "Pademawu": [{"Name": "Pademawu", "Country Code": "ID", "Population": 0.0, "Lat": -7.1862, "Lon": 113.52571}], "Paden City": [{"Name": "Paden City", "Country Code": "US", "Population": 2506.0, "Lat": 39.60285, "Lon": -80.93677}], "Padenghe sul Garda": [{"Name": "Padenghe sul Garda", "Country Code": "IT", "Population": 3801.0, "Lat": 45.50787, "Lon": 10.51857}], "Padenstedt": [{"Name": "Padenstedt", "Country Code": "DE", "Population": 1326.0, "Lat": 54.05, "Lon": 9.91667}], "Pader": [{"Name": "Pader", "Country Code": "UG", "Population": 11600.0, "Lat": 3.05, "Lon": 33.21667}], "Pader Palwo": [{"Name": "Pader Palwo", "Country Code": "UG", "Population": 11152.0, "Lat": 2.80056, "Lon": 33.135}], "Paderborn": [{"Name": "Paderborn", "Country Code": "DE", "Population": 142161.0, "Lat": 51.71905, "Lon": 8.75439}], "Padergnone": [{"Name": "Padergnone", "Country Code": "IT", "Population": 714.0, "Lat": 46.05982, "Lon": 10.98478}], "Paderna": [{"Name": "Paderna", "Country Code": "IT", "Population": 228.0, "Lat": 44.82148, "Lon": 8.89088}], "Paderne": [{"Name": "Paderne", "Country Code": "ES", "Population": 0.0, "Lat": 43.28567, "Lon": -8.17415}, {"Name": "Paderne", "Country Code": "PT", "Population": 3304.0, "Lat": 37.17935, "Lon": -8.2015}], "Padernello": [{"Name": "Padernello", "Country Code": "IT", "Population": 2448.0, "Lat": 45.68152, "Lon": 12.12685}], "Paderno": [{"Name": "Paderno", "Country Code": "IT", "Population": 765.0, "Lat": 45.82791, "Lon": 11.85605}], "Paderno Dugnano": [{"Name": "Paderno Dugnano", "Country Code": "IT", "Population": 46235.0, "Lat": 45.56899, "Lon": 9.16483}], "Paderno Franciacorta": [{"Name": "Paderno Franciacorta", "Country Code": "IT", "Population": 3423.0, "Lat": 45.58687, "Lon": 10.07975}], "Paderno Ponchielli": [{"Name": "Paderno Ponchielli", "Country Code": "IT", "Population": 886.0, "Lat": 45.23797, "Lon": 9.92876}], "Paderno d'Adda": [{"Name": "Paderno d'Adda", "Country Code": "IT", "Population": 3791.0, "Lat": 45.67879, "Lon": 9.44491}], "Paderno del Grappa": [{"Name": "Paderno del Grappa", "Country Code": "IT", "Population": 2002.0, "Lat": 45.8286, "Lon": 11.8577}], "Pades": [{"Name": "Pade\u015f", "Country Code": "RO", "Population": 5071.0, "Lat": 45.01667, "Lon": 22.85}], "Padew Narodowa": [{"Name": "Padew Narodowa", "Country Code": "PL", "Population": 2300.0, "Lat": 50.43947, "Lon": 21.50059}], "Padiegnan": [{"Name": "Padi\u00e9gnan", "Country Code": "CI", "Population": 4395.0, "Lat": 6.97847, "Lon": -3.42304}], "Padiernos": [{"Name": "Padiernos", "Country Code": "ES", "Population": 220.0, "Lat": 40.62168, "Lon": -4.84523}], "Padiglione": [{"Name": "Padiglione", "Country Code": "IT", "Population": 1106.0, "Lat": 43.469, "Lon": 13.46261}, {"Name": "Padiglione", "Country Code": "IT", "Population": 1826.0, "Lat": 43.8518, "Lon": 12.72129}], "Padiham": [{"Name": "Padiham", "Country Code": "GB", "Population": 11338.0, "Lat": 53.80187, "Lon": -2.31511}], "Padilla": [{"Name": "Padilla", "Country Code": "BO", "Population": 2920.0, "Lat": -19.30878, "Lon": -64.30273}, {"Name": "Padilla", "Country Code": "CO", "Population": 4472.0, "Lat": 3.22038, "Lon": -76.31385}], "Padilla de Abajo": [{"Name": "Padilla de Abajo", "Country Code": "ES", "Population": 102.0, "Lat": 42.40774, "Lon": -4.17652}], "Padilla de Arriba": [{"Name": "Padilla de Arriba", "Country Code": "ES", "Population": 102.0, "Lat": 42.43803, "Lon": -4.19094}], "Padina": [{"Name": "Padina", "Country Code": "RO", "Population": 4774.0, "Lat": 44.83333, "Lon": 27.11667}, {"Name": "Padina", "Country Code": "RS", "Population": 6367.0, "Lat": 45.11988, "Lon": 20.7286}], "Padina Matei": [{"Name": "Padina Matei", "Country Code": "RO", "Population": 1022.0, "Lat": 44.75843, "Lon": 21.75067}], "Padina Mica": [{"Name": "Padina Mic\u0103", "Country Code": "RO", "Population": 1924.0, "Lat": 44.42722, "Lon": 22.9925}], "Padivarma": [{"Name": "Padivarma", "Country Code": "IT", "Population": 217.0, "Lat": 44.19648, "Lon": 9.76753}], "Padmanabhapuram": [{"Name": "Padman\u0101bhapuram", "Country Code": "IN", "Population": 20212.0, "Lat": 8.24462, "Lon": 77.32581}], "Padong": [{"Name": "Padong", "Country Code": "PH", "Population": 3361.0, "Lat": 18.05435, "Lon": 120.75427}], "Padova": [{"Name": "Padova", "Country Code": "IT", "Population": 203725.0, "Lat": 45.40797, "Lon": 11.88586}], "Padra": [{"Name": "Padra", "Country Code": "IN", "Population": 36499.0, "Lat": 22.2398, "Lon": 73.08451}], "Padrauna": [{"Name": "Padrauna", "Country Code": "IN", "Population": 47181.0, "Lat": 26.90403, "Lon": 83.98087}], "Padre Bernardo": [{"Name": "Padre Bernardo", "Country Code": "BR", "Population": 16118.0, "Lat": -15.16595, "Lon": -48.28281}], "Padre Burgos": [{"Name": "Padre Burgos", "Country Code": "PH", "Population": 3080.0, "Lat": 13.9226, "Lon": 121.81163}, {"Name": "Padre Burgos", "Country Code": "PH", "Population": 0.0, "Lat": 10.03694, "Lon": 125.01917}], "Padre Garcia": [{"Name": "Padre Garcia", "Country Code": "PH", "Population": 4304.0, "Lat": 13.8791, "Lon": 121.2139}], "Padre Las Casas": [{"Name": "Padre Las Casas", "Country Code": "DO", "Population": 8485.0, "Lat": 18.73172, "Lon": -70.93917}], "Padre Paraiso": [{"Name": "Padre Para\u00edso", "Country Code": "BR", "Population": 10608.0, "Lat": -17.07417, "Lon": -41.48444}], "Padre Zamora": [{"Name": "Padre Zamora", "Country Code": "PH", "Population": 2271.0, "Lat": 10.06667, "Lon": 123.25}], "Padrenda": [{"Name": "Padrenda", "Country Code": "ES", "Population": 2433.0, "Lat": 42.13333, "Lon": -8.15}], "Padria": [{"Name": "Padria", "Country Code": "IT", "Population": 692.0, "Lat": 40.39635, "Lon": 8.62992}], "Padron": [{"Name": "Padr\u00f3n", "Country Code": "ES", "Population": 9039.0, "Lat": 42.73875, "Lon": -8.66057}], "Padrones de Bureba": [{"Name": "Padrones de Bureba", "Country Code": "ES", "Population": 58.0, "Lat": 42.70582, "Lon": -3.53296}], "Padru": [{"Name": "Padru", "Country Code": "IT", "Population": 1083.0, "Lat": 40.76619, "Lon": 9.521}], "Padstow": [{"Name": "Padstow", "Country Code": "AU", "Population": 13226.0, "Lat": -33.95687, "Lon": 151.03191}, {"Name": "Padstow", "Country Code": "GB", "Population": 2296.0, "Lat": 50.53885, "Lon": -4.93664}], "Padstow Heights": [{"Name": "Padstow Heights", "Country Code": "AU", "Population": 3494.0, "Lat": -33.9674, "Lon": 151.03991}], "Padua": [{"Name": "Padua", "Country Code": "CO", "Population": 19311.0, "Lat": 5.13429, "Lon": -75.14001}], "Paducah": [{"Name": "Paducah", "Country Code": "US", "Population": 24864.0, "Lat": 37.08339, "Lon": -88.60005}, {"Name": "Paducah", "Country Code": "US", "Population": 1122.0, "Lat": 34.0123, "Lon": -100.30206}], "Padul": [{"Name": "Padul", "Country Code": "ES", "Population": 7266.0, "Lat": 37.02462, "Lon": -3.62678}], "Padula": [{"Name": "Padula", "Country Code": "IT", "Population": 2688.0, "Lat": 40.33901, "Lon": 15.65634}], "Padule-San Marco": [{"Name": "Padule-San Marco", "Country Code": "IT", "Population": 2413.0, "Lat": 43.3288, "Lon": 12.60942}], "Padules": [{"Name": "Padules", "Country Code": "ES", "Population": 458.0, "Lat": 36.99813, "Lon": -2.77367}], "Paduli": [{"Name": "Paduli", "Country Code": "IT", "Population": 1870.0, "Lat": 41.16793, "Lon": 14.88688}], "Padulle": [{"Name": "Padulle", "Country Code": "IT", "Population": 2350.0, "Lat": 44.62945, "Lon": 11.27738}], "Padurea Neagra": [{"Name": "P\u0103durea Neagr\u0103", "Country Code": "RO", "Population": 1040.0, "Lat": 47.16554, "Lon": 22.41323}], "Padureni": [{"Name": "P\u0103dureni", "Country Code": "RO", "Population": 1566.0, "Lat": 45.60039, "Lon": 21.21773}, {"Name": "P\u0103dureni", "Country Code": "RO", "Population": 1428.0, "Lat": 46.59316, "Lon": 24.027}, {"Name": "P\u0103dureni", "Country Code": "RO", "Population": 1334.0, "Lat": 46.62192, "Lon": 28.08258}, {"Name": "P\u0103dureni", "Country Code": "RO", "Population": 1125.0, "Lat": 47.97434, "Lon": 26.31672}, {"Name": "P\u0103dureni", "Country Code": "RO", "Population": 1597.0, "Lat": 44.34576, "Lon": 25.80469}], "Paea": [{"Name": "Paea", "Country Code": "PF", "Population": 12084.0, "Lat": -17.68333, "Lon": -149.58333}], "Paekakariki": [{"Name": "Paekakariki", "Country Code": "NZ", "Population": 1830.0, "Lat": -40.98544, "Lon": 174.95449}], "Paelkaene": [{"Name": "P\u00e4lk\u00e4ne", "Country Code": "FI", "Population": 4262.0, "Lat": 61.33424, "Lon": 24.27197}], "Paernu": [{"Name": "P\u00e4rnu", "Country Code": "EE", "Population": 40228.0, "Lat": 58.38588, "Lon": 24.49711}], "Paernu-Jaagupi": [{"Name": "P\u00e4rnu-Jaagupi", "Country Code": "EE", "Population": 1341.0, "Lat": 58.61052, "Lon": 24.50689}], "Paeroa": [{"Name": "Paeroa", "Country Code": "NZ", "Population": 3994.0, "Lat": -37.36667, "Lon": 175.66667}], "Paesana": [{"Name": "Paesana", "Country Code": "IT", "Population": 1895.0, "Lat": 44.68332, "Lon": 7.27571}], "Paese": [{"Name": "Paese", "Country Code": "IT", "Population": 9395.0, "Lat": 45.67417, "Lon": 12.16389}], "Paete": [{"Name": "Paete", "Country Code": "PH", "Population": 26855.0, "Lat": 14.3647, "Lon": 121.4829}], "Paez": [{"Name": "P\u00e1ez", "Country Code": "CO", "Population": 1220.0, "Lat": 5.10112, "Lon": -73.05123}], "Pag": [{"Name": "Pag", "Country Code": "HR", "Population": 2322.0, "Lat": 44.445, "Lon": 15.0575}], "Pag-asa": [{"Name": "Pag-asa", "Country Code": "PH", "Population": 3507.0, "Lat": 7.57556, "Lon": 125.68389}], "Paga": [{"Name": "Paga", "Country Code": "ID", "Population": 0.0, "Lat": -8.7766, "Lon": 122.0455}], "Pagadian": [{"Name": "Pagadian", "Country Code": "PH", "Population": 186852.0, "Lat": 7.8257, "Lon": 123.437}], "Pagak": [{"Name": "Pagak", "Country Code": "ID", "Population": 0.0, "Lat": -8.2258, "Lon": 112.5276}], "Pagalungan": [{"Name": "Pagalu\u00f1gan", "Country Code": "PH", "Population": 31052.0, "Lat": 7.14167, "Lon": 124.38056}, {"Name": "Pagalungan", "Country Code": "PH", "Population": 2936.0, "Lat": 6.26556, "Lon": 125.01333}, {"Name": "Pagalungan", "Country Code": "PH", "Population": 5932.0, "Lat": 7.05667, "Lon": 124.70083}], "Pagangan": [{"Name": "Pagangan", "Country Code": "PH", "Population": 2560.0, "Lat": 7.11444, "Lon": 124.59528}], "Pagani": [{"Name": "Pagani", "Country Code": "IT", "Population": 32835.0, "Lat": 40.74199, "Lon": 14.61448}], "Paganica-Tempera": [{"Name": "Paganica-Tempera", "Country Code": "IT", "Population": 4205.0, "Lat": 42.35715, "Lon": 13.47138}], "Paganico Sabino": [{"Name": "Paganico Sabino", "Country Code": "IT", "Population": 180.0, "Lat": 42.18963, "Lon": 12.99689}], "Pagar Alam": [{"Name": "Pagar Alam", "Country Code": "ID", "Population": 70386.0, "Lat": -4.02506, "Lon": 103.24694}], "Pagarusa": [{"Name": "Pagaru\u0161a", "Country Code": "XK", "Population": 1374.0, "Lat": 42.42, "Lon": 20.74222}], "Pagat": [{"Name": "Pagat", "Country Code": "ID", "Population": 0.0, "Lat": -2.6243, "Lon": 115.4338}], "Pagatan": [{"Name": "Pagatan", "Country Code": "ID", "Population": 0.0, "Lat": -3.1701, "Lon": 113.2881}, {"Name": "Pagatan", "Country Code": "ID", "Population": 0.0, "Lat": -3.6075, "Lon": 115.9381}], "Pagatin": [{"Name": "Pagatin", "Country Code": "PH", "Population": 3079.0, "Lat": 6.97306, "Lon": 124.47528}], "Pagazzano": [{"Name": "Pagazzano", "Country Code": "IT", "Population": 1951.0, "Lat": 45.53428, "Lon": 9.67116}], "Pagbilao": [{"Name": "Pagbilao", "Country Code": "PH", "Population": 40818.0, "Lat": 13.96689, "Lon": 121.69835}], "Page": [{"Name": "Page", "Country Code": "AU", "Population": 2970.0, "Lat": -35.23864, "Lon": 149.04988}, {"Name": "Page", "Country Code": "US", "Population": 7490.0, "Lat": 36.91472, "Lon": -111.45583}], "Pagedale": [{"Name": "Pagedale", "Country Code": "US", "Population": 3312.0, "Lat": 38.68338, "Lon": -90.30761}], "Pagegiai": [{"Name": "Pag\u0117giai", "Country Code": "LT", "Population": 1576.0, "Lat": 55.13793, "Lon": 21.91378}], "Pageland": [{"Name": "Pageland", "Country Code": "US", "Population": 2746.0, "Lat": 34.77321, "Lon": -80.39173}], "Pagelaran": [{"Name": "Pagelaran", "Country Code": "ID", "Population": 0.0, "Lat": -6.433, "Lon": 105.8572}], "Pagerageung": [{"Name": "Pagerageung", "Country Code": "ID", "Population": 0.0, "Lat": -7.1124, "Lon": 108.1668}], "Pagewood": [{"Name": "Pagewood", "Country Code": "AU", "Population": 3768.0, "Lat": -33.94137, "Lon": 151.21093}], "Paghman": [{"Name": "Paghm\u0101n", "Country Code": "AF", "Population": 49157.0, "Lat": 34.58787, "Lon": 68.95091}], "Pagimana": [{"Name": "Pagimana", "Country Code": "ID", "Population": 0.0, "Lat": -0.79599, "Lon": 122.65132}], "Pagliara": [{"Name": "Pagliara", "Country Code": "IT", "Population": 462.0, "Lat": 37.98546, "Lon": 15.35969}], "Pagliare": [{"Name": "Pagliare", "Country Code": "IT", "Population": 1649.0, "Lat": 42.64372, "Lon": 13.95171}, {"Name": "Pagliare", "Country Code": "IT", "Population": 4847.0, "Lat": 42.86906, "Lon": 13.76906}], "Pagliarelle": [{"Name": "Pagliarelle", "Country Code": "IT", "Population": 1277.0, "Lat": 39.14017, "Lon": 16.75101}], "Pagliarone": [{"Name": "Pagliarone", "Country Code": "IT", "Population": 1736.0, "Lat": 40.63006, "Lon": 14.91325}], "Paglieta": [{"Name": "Paglieta", "Country Code": "IT", "Population": 2758.0, "Lat": 42.16139, "Lon": 14.50306}], "Pagnacco": [{"Name": "Pagnacco", "Country Code": "IT", "Population": 4537.0, "Lat": 46.11462, "Lon": 13.18377}], "Pagnag": [{"Name": "Pagnag", "Country Code": "CN", "Population": 0.0, "Lat": 32.26986, "Lon": 91.68101}], "Pagnebly": [{"Name": "Pagn\u00e9bly", "Country Code": "CI", "Population": 5190.0, "Lat": 7.24845, "Lon": -7.13249}], "Pagno": [{"Name": "Pagno", "Country Code": "IT", "Population": 392.0, "Lat": 44.61173, "Lon": 7.42572}], "Pagnona": [{"Name": "Pagnona", "Country Code": "IT", "Population": 402.0, "Lat": 46.05969, "Lon": 9.40274}], "Pagny-sur-Moselle": [{"Name": "Pagny-sur-Moselle", "Country Code": "FR", "Population": 4149.0, "Lat": 48.98365, "Lon": 6.02069}], "Pago Pago": [{"Name": "Pago Pago", "Country Code": "AS", "Population": 11500.0, "Lat": -14.27806, "Lon": -170.7025}], "Pago Veiano": [{"Name": "Pago Veiano", "Country Code": "IT", "Population": 1231.0, "Lat": 41.24243, "Lon": 14.86497}], "Pago del Vallo di Lauro": [{"Name": "Pago del Vallo di Lauro", "Country Code": "IT", "Population": 1525.0, "Lat": 40.89721, "Lon": 14.60764}], "Pagosa Springs": [{"Name": "Pagosa Springs", "Country Code": "US", "Population": 1756.0, "Lat": 37.26945, "Lon": -107.00976}], "Pagouda": [{"Name": "Pagouda", "Country Code": "TG", "Population": 7686.0, "Lat": 9.7525, "Lon": 1.32778}], "Pagsabangan": [{"Name": "Pagsabangan", "Country Code": "PH", "Population": 4284.0, "Lat": 7.48111, "Lon": 125.74944}], "Pagsanahan Norte": [{"Name": "Pagsanahan Norte", "Country Code": "PH", "Population": 2089.0, "Lat": 17.9193, "Lon": 120.4458}], "Pagsangahan": [{"Name": "Pagsa\u00f1gahan", "Country Code": "PH", "Population": 13573.0, "Lat": 13.21583, "Lon": 122.54306}], "Pagsanghan": [{"Name": "Pagsanghan", "Country Code": "PH", "Population": 8024.0, "Lat": 11.9657, "Lon": 124.7212}], "Pagsanjan": [{"Name": "Pagsanjan", "Country Code": "PH", "Population": 4279.0, "Lat": 14.2732, "Lon": 121.4552}], "Pagudpud": [{"Name": "Pagudpud", "Country Code": "PH", "Population": 4945.0, "Lat": 18.5616, "Lon": 120.7868}], "Pahactla": [{"Name": "Pahactla", "Country Code": "MX", "Population": 1561.0, "Lat": 20.9744, "Lon": -98.35634}], "Pahala": [{"Name": "P\u0101hala", "Country Code": "US", "Population": 1356.0, "Lat": 19.20297, "Lon": -155.4786}], "Paharpur": [{"Name": "Paharpur", "Country Code": "PK", "Population": 17294.0, "Lat": 32.10502, "Lon": 70.97055}], "Pahasu": [{"Name": "Pah\u0101su", "Country Code": "IN", "Population": 18854.0, "Lat": 28.1722, "Lon": 78.06376}], "Pahiatua": [{"Name": "Pahiatua", "Country Code": "NZ", "Population": 2810.0, "Lat": -40.45345, "Lon": 175.8406}], "Pahl": [{"Name": "P\u00e4hl", "Country Code": "DE", "Population": 2377.0, "Lat": 47.9, "Lon": 11.18333}], "Pahlen": [{"Name": "Pahlen", "Country Code": "DE", "Population": 1206.0, "Lat": 54.26667, "Lon": 9.3}], "Pahlgam": [{"Name": "Pahlg\u0101m", "Country Code": "IN", "Population": 7750.0, "Lat": 34.01592, "Lon": 75.31899}], "Pahokee": [{"Name": "Pahokee", "Country Code": "US", "Population": 6071.0, "Lat": 26.82006, "Lon": -80.66534}], "Pahou": [{"Name": "Pahou", "Country Code": "BJ", "Population": 0.0, "Lat": 6.38774, "Lon": 2.21423}], "Pahoubigrofla": [{"Name": "Pahoubigrofla", "Country Code": "CI", "Population": 2203.0, "Lat": 7.53829, "Lon": -5.96845}], "Pahoubli": [{"Name": "Pahoubli", "Country Code": "CI", "Population": 4727.0, "Lat": 6.39667, "Lon": -8.37527}], "Pahoufla": [{"Name": "Pahoufla", "Country Code": "CI", "Population": 3733.0, "Lat": 7.52977, "Lon": -5.9741}], "Pahrump": [{"Name": "Pahrump", "Country Code": "US", "Population": 36441.0, "Lat": 36.20829, "Lon": -115.98391}], "Pahua Hueca": [{"Name": "Pahua Hueca", "Country Code": "MX", "Population": 1202.0, "Lat": 19.96139, "Lon": -97.05511}], "Pahuatlan": [{"Name": "Pahuatl\u00e1n", "Country Code": "MX", "Population": 2039.0, "Lat": 21.0694, "Lon": -98.47667}], "Pahuatlan de Valle": [{"Name": "Pahuatl\u00e1n de Valle", "Country Code": "MX", "Population": 3490.0, "Lat": 20.278, "Lon": -98.14997}], "Pai": [{"Name": "Pai", "Country Code": "TH", "Population": 2284.0, "Lat": 19.36168, "Lon": 98.43973}], "Paia": [{"Name": "Paia", "Country Code": "US", "Population": 2668.0, "Lat": 20.90333, "Lon": -156.36944}], "Paialvo": [{"Name": "Paialvo", "Country Code": "PT", "Population": 2599.0, "Lat": 39.56399, "Lon": -8.46835}], "Paiania": [{"Name": "Paian\u00eda", "Country Code": "GR", "Population": 14595.0, "Lat": 37.95527, "Lon": 23.85443}], "Paicandu": [{"Name": "Pai\u00e7andu", "Country Code": "BR", "Population": 34365.0, "Lat": -23.4575, "Lon": -52.04861}], "Paico": [{"Name": "Paico", "Country Code": "PE", "Population": 472.0, "Lat": -14.03778, "Lon": -73.64361}], "Paicol": [{"Name": "Paicol", "Country Code": "CO", "Population": 1681.0, "Lat": 2.44962, "Lon": -75.775}], "Paide": [{"Name": "Paide", "Country Code": "EE", "Population": 7793.0, "Lat": 58.88556, "Lon": 25.55722}], "Paidha": [{"Name": "Paidha", "Country Code": "UG", "Population": 28348.0, "Lat": 2.41669, "Lon": 30.98551}], "Paignton": [{"Name": "Paignton", "Country Code": "GB", "Population": 49886.0, "Lat": 50.43565, "Lon": -3.56789}], "Paihia": [{"Name": "Paihia", "Country Code": "NZ", "Population": 1710.0, "Lat": -35.28067, "Lon": 174.09103}], "Paiisa": [{"Name": "Paiisa", "Country Code": "PH", "Population": 4275.0, "Lat": 13.92629, "Lon": 121.35415}], "Paijan": [{"Name": "Paij\u00e1n", "Country Code": "PE", "Population": 21128.0, "Lat": -7.73291, "Lon": -79.3015}], "Paikeqi": [{"Name": "Paikeqi", "Country Code": "CN", "Population": 19809.0, "Lat": 38.55011, "Lon": 77.20825}], "Paiko": [{"Name": "Paiko", "Country Code": "NG", "Population": 0.0, "Lat": 9.43685, "Lon": 6.63357}], "Paikpara": [{"Name": "Paikpara", "Country Code": "IN", "Population": 2000.0, "Lat": 24.77121, "Lon": 87.92251}], "Paikuse": [{"Name": "Paikuse", "Country Code": "EE", "Population": 1996.0, "Lat": 58.37917, "Lon": 24.63444}], "Pailin": [{"Name": "Pailin", "Country Code": "KH", "Population": 17850.0, "Lat": 12.84895, "Lon": 102.60928}], "Pailitas": [{"Name": "Pailitas", "Country Code": "CO", "Population": 16800.0, "Lat": 8.95652, "Lon": -73.62548}], "Pailles": [{"Name": "Pailles", "Country Code": "MU", "Population": 10622.0, "Lat": -20.19271, "Lon": 57.48826}], "Paillet": [{"Name": "Paillet", "Country Code": "FR", "Population": 1079.0, "Lat": 44.68558, "Lon": -0.36495}], "Pailly": [{"Name": "Pailly", "Country Code": "CH", "Population": 430.0, "Lat": 46.70123, "Lon": 6.6754}], "Pailon": [{"Name": "Pail\u00f3n", "Country Code": "BO", "Population": 9304.0, "Lat": -17.66395, "Lon": -62.71804}], "Pailou": [{"Name": "Pailou", "Country Code": "CN", "Population": 104351.0, "Lat": 30.79641, "Lon": 108.3858}], "Paimado": [{"Name": "Paimad\u00f3", "Country Code": "CO", "Population": 0.0, "Lat": 5.48309, "Lon": -76.74053}], "Paimas": [{"Name": "Paimas", "Country Code": "PE", "Population": 0.0, "Lat": -4.6269, "Lon": -79.94456}], "Paimboeuf": [{"Name": "Paimboeuf", "Country Code": "FR", "Population": 3015.0, "Lat": 47.28654, "Lon": -2.03048}], "Paime": [{"Name": "Paime", "Country Code": "CO", "Population": 799.0, "Lat": 5.37054, "Lon": -74.15219}], "Paimio": [{"Name": "Paimio", "Country Code": "FI", "Population": 10126.0, "Lat": 60.45671, "Lon": 22.68694}], "Paimpol": [{"Name": "Paimpol", "Country Code": "FR", "Population": 8603.0, "Lat": 48.77831, "Lon": -3.0466}], "Paimpont": [{"Name": "Paimpont", "Country Code": "FR", "Population": 1549.0, "Lat": 48.01835, "Lon": -2.17042}], "Painan": [{"Name": "Painan", "Country Code": "ID", "Population": 0.0, "Lat": -1.35172, "Lon": 100.57383}], "Paine": [{"Name": "Paine", "Country Code": "CL", "Population": 32766.0, "Lat": -33.80796, "Lon": -70.74109}], "Painesville": [{"Name": "Painesville", "Country Code": "US", "Population": 19776.0, "Lat": 41.72449, "Lon": -81.24566}], "Painswick": [{"Name": "Painswick", "Country Code": "GB", "Population": 1762.0, "Lat": 51.78568, "Lon": -2.19555}], "Paint Rock": [{"Name": "Paint Rock", "Country Code": "US", "Population": 266.0, "Lat": 31.50849, "Lon": -99.92008}], "Painted Post": [{"Name": "Painted Post", "Country Code": "US", "Population": 1997.0, "Lat": 42.16202, "Lon": -77.09414}], "Painten": [{"Name": "Painten", "Country Code": "DE", "Population": 2280.0, "Lat": 48.99731, "Lon": 11.81947}], "Paintla": [{"Name": "Paintla", "Country Code": "MX", "Population": 1695.0, "Lat": 18.50333, "Lon": -99.65528}], "Paintsville": [{"Name": "Paintsville", "Country Code": "US", "Population": 4249.0, "Lat": 37.81454, "Lon": -82.80711}], "Paipa": [{"Name": "Paipa", "Country Code": "CO", "Population": 13554.0, "Lat": 5.78013, "Lon": -73.11708}], "Paiporta": [{"Name": "Paiporta", "Country Code": "ES", "Population": 23519.0, "Lat": 39.42814, "Lon": -0.41765}], "Paipu": [{"Name": "Paipu", "Country Code": "CN", "Population": 17577.0, "Lat": 19.63981, "Lon": 109.15861}], "Paisanos": [{"Name": "Paisanos", "Country Code": "MX", "Population": 1444.0, "Lat": 22.20361, "Lon": -101.03583}], "Paisco Loveno": [{"Name": "Paisco Loveno", "Country Code": "IT", "Population": 257.0, "Lat": 46.0791, "Lon": 10.29256}], "Paisley": [{"Name": "Paisley", "Country Code": "CA", "Population": 1045.0, "Lat": 44.30641, "Lon": -81.27265}, {"Name": "Paisley", "Country Code": "GB", "Population": 77270.0, "Lat": 55.83173, "Lon": -4.43254}], "Paispamba": [{"Name": "Paispamba", "Country Code": "CO", "Population": 1390.0, "Lat": 2.25462, "Lon": -76.61086}], "Paita": [{"Name": "Pa\u00efta", "Country Code": "NC", "Population": 12617.0, "Lat": -22.13105, "Lon": 166.35717}, {"Name": "Paita", "Country Code": "PE", "Population": 56151.0, "Lat": -5.08917, "Lon": -81.11444}], "Paitan": [{"Name": "Paitan", "Country Code": "PH", "Population": 3294.0, "Lat": 6.66005, "Lon": 124.87183}], "Paitan Este": [{"Name": "Paitan Este", "Country Code": "PH", "Population": 2826.0, "Lat": 16.08532, "Lon": 120.03164}], "Paitan Norte": [{"Name": "Paitan Norte", "Country Code": "PH", "Population": 2586.0, "Lat": 15.83333, "Lon": 120.74086}], "Paithan": [{"Name": "Paithan", "Country Code": "IN", "Population": 37360.0, "Lat": 19.47506, "Lon": 75.38558}], "Paitone": [{"Name": "Paitone", "Country Code": "IT", "Population": 1875.0, "Lat": 45.55208, "Lon": 10.40227}], "Paja de Sombrero": [{"Name": "Paja de Sombrero", "Country Code": "PA", "Population": 157.0, "Lat": 8.68609, "Lon": -82.32155}], "Pajacuaran": [{"Name": "Pajacuar\u00e1n", "Country Code": "MX", "Population": 10014.0, "Lat": 20.11909, "Lon": -102.56623}], "Pajala": [{"Name": "Pajala", "Country Code": "SE", "Population": 2032.0, "Lat": 67.21284, "Lon": 23.36607}], "Pajan": [{"Name": "Paj\u00e1n", "Country Code": "EC", "Population": 9183.0, "Lat": -1.55238, "Lon": -80.42958}], "Pajapan": [{"Name": "Pajapan", "Country Code": "MX", "Population": 8434.0, "Lat": 18.26267, "Lon": -94.69172}], "Pajapita": [{"Name": "Pajapita", "Country Code": "GT", "Population": 8164.0, "Lat": 14.72152, "Lon": -92.03521}], "Pajara": [{"Name": "P\u00e1jara", "Country Code": "ES", "Population": 20821.0, "Lat": 28.35039, "Lon": -14.1076}], "Pajarejos": [{"Name": "Pajarejos", "Country Code": "ES", "Population": 37.0, "Lat": 41.38994, "Lon": -3.58997}], "Pajares de Adaja": [{"Name": "Pajares de Adaja", "Country Code": "ES", "Population": 185.0, "Lat": 40.92398, "Lon": -4.64048}], "Pajares de la Laguna": [{"Name": "Pajares de la Laguna", "Country Code": "ES", "Population": 146.0, "Lat": 41.08754, "Lon": -5.50888}], "Pajares de la Lampreana": [{"Name": "Pajares de la Lampreana", "Country Code": "ES", "Population": 495.0, "Lat": 41.71551, "Lon": -5.69351}], "Pajares de los Oteros": [{"Name": "Pajares de los Oteros", "Country Code": "ES", "Population": 409.0, "Lat": 42.3301, "Lon": -5.47313}], "Pajarillo": [{"Name": "Pajarillo", "Country Code": "PE", "Population": 912.0, "Lat": -7.179, "Lon": -76.68827}], "Pajarito": [{"Name": "Pajarito", "Country Code": "CO", "Population": 1258.0, "Lat": 5.2929, "Lon": -72.70277}], "Pajaro": [{"Name": "Pajaro", "Country Code": "US", "Population": 3070.0, "Lat": 36.90412, "Lon": -121.74856}], "Pajaron": [{"Name": "Pajar\u00f3n", "Country Code": "ES", "Population": 113.0, "Lat": 39.95, "Lon": -1.78333}], "Pajaroncillo": [{"Name": "Pajaroncillo", "Country Code": "ES", "Population": 96.0, "Lat": 39.95, "Lon": -1.73333}], "Pajaros": [{"Name": "P\u00e1jaros", "Country Code": "PR", "Population": 9466.0, "Lat": 18.36856, "Lon": -66.21683}], "Pajas Blancas": [{"Name": "Pajas Blancas", "Country Code": "UY", "Population": 2000.0, "Lat": -34.80167, "Lon": -56.33417}], "Paje": [{"Name": "Paj\u00e9", "Country Code": "KM", "Population": 1894.0, "Lat": -12.16972, "Lon": 44.38806}], "Pajeczno": [{"Name": "Paj\u0119czno", "Country Code": "PL", "Population": 6731.0, "Lat": 51.14449, "Lon": 18.99612}], "Pajic Polje": [{"Name": "Paji\u0107 Polje", "Country Code": "BA", "Population": 4026.0, "Lat": 43.97583, "Lon": 17.5275}], "Pajo": [{"Name": "Pajo", "Country Code": "BT", "Population": 3032.0, "Lat": 27.53333, "Lon": 89.88333}, {"Name": "Pajo", "Country Code": "PH", "Population": 3051.0, "Lat": 11.24121, "Lon": 124.01067}], "Pajok": [{"Name": "Pajok", "Country Code": "SS", "Population": 49000.0, "Lat": 3.86512, "Lon": 32.48212}], "Pajove": [{"Name": "Pajov\u00eb", "Country Code": "AL", "Population": 0.0, "Lat": 41.05472, "Lon": 19.8375}], "Paju": [{"Name": "Paju", "Country Code": "KR", "Population": 0.0, "Lat": 37.83278, "Lon": 126.81694}], "Pajusti": [{"Name": "Pajusti", "Country Code": "EE", "Population": 756.0, "Lat": 59.27444, "Lon": 26.42333}], "Pak Chom": [{"Name": "Pak Chom", "Country Code": "TH", "Population": 0.0, "Lat": 18.02061, "Lon": 101.89828}], "Pak Chong": [{"Name": "Pak Chong", "Country Code": "TH", "Population": 48999.0, "Lat": 14.70802, "Lon": 101.41614}], "Pak Khat": [{"Name": "Pak Khat", "Country Code": "TH", "Population": 0.0, "Lat": 18.30556, "Lon": 103.30441}], "Pak Kret": [{"Name": "Pak Kret", "Country Code": "TH", "Population": 182926.0, "Lat": 13.91301, "Lon": 100.49883}], "Pak Phanang": [{"Name": "Pak Phanang", "Country Code": "TH", "Population": 25014.0, "Lat": 8.35109, "Lon": 100.20195}], "Pak Phayun": [{"Name": "Pak Phayun", "Country Code": "TH", "Population": 0.0, "Lat": 7.34219, "Lon": 100.31747}], "Pak Phli": [{"Name": "Pak Phli", "Country Code": "TH", "Population": 0.0, "Lat": 14.16308, "Lon": 101.26886}], "Pak Shek Kok": [{"Name": "Pak Shek Kok", "Country Code": "HK", "Population": 12000.0, "Lat": 22.42734, "Lon": 114.20366}], "Pak Tho": [{"Name": "Pak Tho", "Country Code": "TH", "Population": 0.0, "Lat": 13.37263, "Lon": 99.83938}], "Pak Thong Chai": [{"Name": "Pak Thong Chai", "Country Code": "TH", "Population": 0.0, "Lat": 14.7226, "Lon": 102.02512}], "Pak Tin Estate": [{"Name": "Pak Tin Estate", "Country Code": "HK", "Population": 16843.0, "Lat": 22.33713, "Lon": 114.16673}], "Paka": [{"Name": "Paka", "Country Code": "MY", "Population": 21044.0, "Lat": 4.6374, "Lon": 103.4368}], "Pakala": [{"Name": "P\u0101k\u0101la", "Country Code": "IN", "Population": 24680.0, "Lat": 13.44903, "Lon": 79.11493}], "Pakali Nding": [{"Name": "Pakali Nding", "Country Code": "GM", "Population": 2537.0, "Lat": 13.46667, "Lon": -15.55}], "Pakdasht": [{"Name": "P\u0101kdasht", "Country Code": "IR", "Population": 0.0, "Lat": 35.47854, "Lon": 51.6834}], "Pakel": [{"Name": "Pakel", "Country Code": "ID", "Population": 0.0, "Lat": -8.1543, "Lon": 111.8264}, {"Name": "Pakel", "Country Code": "ID", "Population": 0.0, "Lat": -8.0018, "Lon": 111.9063}], "Pakenham": [{"Name": "Pakenham", "Country Code": "AU", "Population": 54118.0, "Lat": -38.07018, "Lon": 145.47411}], "Pakenham Upper": [{"Name": "Pakenham Upper", "Country Code": "AU", "Population": 1139.0, "Lat": -38.01667, "Lon": 145.51667}], "Pakenjeng": [{"Name": "Pakenjeng", "Country Code": "ID", "Population": 0.0, "Lat": -7.41181, "Lon": 107.69049}], "Pakham": [{"Name": "Pakham", "Country Code": "TH", "Population": 0.0, "Lat": 14.43817, "Lon": 102.72558}], "Pakharevka": [{"Name": "Pakharevka", "Country Code": "UA", "Population": 1161.0, "Lat": 45.83472, "Lon": 34.16129}], "Pakhtakoron": [{"Name": "Pakhtakoron", "Country Code": "TJ", "Population": 8220.0, "Lat": 40.15709, "Lon": 68.74659}], "Pakiad": [{"Name": "Pakiad", "Country Code": "PH", "Population": 2689.0, "Lat": 10.71278, "Lon": 122.52417}], "Pakil": [{"Name": "Pakil", "Country Code": "PH", "Population": 10693.0, "Lat": 14.3835, "Lon": 121.4786}], "Pakisaji": [{"Name": "Pakisaji", "Country Code": "ID", "Population": 30213.0, "Lat": -8.0665, "Lon": 112.5981}], "Pakkading": [{"Name": "Pakkading", "Country Code": "LA", "Population": 0.0, "Lat": 18.32459, "Lon": 103.99378}], "Pakkat": [{"Name": "Pakkat", "Country Code": "ID", "Population": 0.0, "Lat": 2.1524, "Lon": 98.4745}], "Pakkhat": [{"Name": "Pakkhat", "Country Code": "TH", "Population": 0.0, "Lat": 18.29789, "Lon": 103.30689}], "Pakogui": [{"Name": "Pakogui", "Country Code": "CI", "Population": 1100.0, "Lat": 6.99909, "Lon": -5.63092}], "Pakokku": [{"Name": "Pakokku", "Country Code": "MM", "Population": 126938.0, "Lat": 21.33489, "Lon": 95.08438}], "Pakong": [{"Name": "Pakong", "Country Code": "ID", "Population": 0.0, "Lat": -7.0311, "Lon": 113.5496}], "Pakosc": [{"Name": "Pako\u015b\u0107", "Country Code": "PL", "Population": 5762.0, "Lat": 52.80178, "Lon": 18.0853}], "Pakoslaw": [{"Name": "Pakos\u0142aw", "Country Code": "PL", "Population": 1061.0, "Lat": 51.61438, "Lon": 17.05793}], "Pakoslawice": [{"Name": "Pakos\u0142awice", "Country Code": "PL", "Population": 500.0, "Lat": 50.54474, "Lon": 17.36578}], "Pakostane": [{"Name": "Pako\u0161tane", "Country Code": "HR", "Population": 2180.0, "Lat": 43.91222, "Lon": 15.50889}], "Pakouabo": [{"Name": "Pakouabo", "Country Code": "CI", "Population": 7443.0, "Lat": 7.15724, "Lon": -5.7925}], "Pakozd": [{"Name": "P\u00e1kozd", "Country Code": "HU", "Population": 2721.0, "Lat": 47.21369, "Lon": 18.53306}], "Pakpattan": [{"Name": "Pakpattan", "Country Code": "PK", "Population": 126706.0, "Lat": 30.34314, "Lon": 73.38944}], "Pakrac": [{"Name": "Pakrac", "Country Code": "HR", "Population": 4151.0, "Lat": 45.43639, "Lon": 17.18889}], "Pakruojis": [{"Name": "Pakruojis", "Country Code": "LT", "Population": 4352.0, "Lat": 55.97889, "Lon": 23.85508}], "Paks": [{"Name": "Paks", "Country Code": "HU", "Population": 20638.0, "Lat": 46.6221, "Lon": 18.85569}], "Pakse": [{"Name": "Pakse", "Country Code": "LA", "Population": 88332.0, "Lat": 15.12022, "Lon": 105.79898}], "Pakuan Agung": [{"Name": "Pakuan Agung", "Country Code": "ID", "Population": 0.0, "Lat": -4.66481, "Lon": 104.96293}], "Pakuniran": [{"Name": "Pakuniran", "Country Code": "ID", "Population": 0.0, "Lat": -7.80854, "Lon": 113.5079}], "Pakur": [{"Name": "Pakur", "Country Code": "IN", "Population": 45840.0, "Lat": 24.63925, "Lon": 87.84239}], "Pakuranga": [{"Name": "Pakuranga", "Country Code": "NZ", "Population": 8140.0, "Lat": -36.88333, "Lon": 174.91667}], "Pakuranga Heights": [{"Name": "Pakuranga Heights", "Country Code": "NZ", "Population": 9840.0, "Lat": -36.9082, "Lon": 174.88019}], "Pakuwon": [{"Name": "Pakuwon", "Country Code": "ID", "Population": 0.0, "Lat": -7.2155, "Lon": 107.9036}], "Pakxan": [{"Name": "Pakxan", "Country Code": "LA", "Population": 21967.0, "Lat": 18.3942, "Lon": 103.6611}], "Pakxong": [{"Name": "Pakxong", "Country Code": "LA", "Population": 5000.0, "Lat": 15.18154, "Lon": 106.23038}], "Pal": [{"Name": "Pal", "Country Code": "SN", "Population": 8133.0, "Lat": 15.9139, "Lon": -16.2599}], "Pal Hal": [{"Name": "Pal Hal", "Country Code": "KH", "Population": 0.0, "Lat": 13.79226, "Lon": 104.97859}], "Pala": [{"Name": "Pala", "Country Code": "CI", "Population": 2140.0, "Lat": 8.1365, "Lon": -3.56008}, {"Name": "Pala", "Country Code": "TD", "Population": 70677.0, "Lat": 9.3646, "Lon": 14.90725}], "Palacaguina": [{"Name": "Palacag\u00fcina", "Country Code": "NI", "Population": 3678.0, "Lat": 13.45566, "Lon": -86.40622}], "Palacios": [{"Name": "Palacios", "Country Code": "US", "Population": 4634.0, "Lat": 28.70805, "Lon": -96.21747}], "Palacios de Goda": [{"Name": "Palacios de Goda", "Country Code": "ES", "Population": 447.0, "Lat": 41.11798, "Lon": -4.78496}], "Palacios de Sanabria": [{"Name": "Palacios de Sanabria", "Country Code": "ES", "Population": 321.0, "Lat": 42.05901, "Lon": -6.52362}], "Palacios de la Sierra": [{"Name": "Palacios de la Sierra", "Country Code": "ES", "Population": 875.0, "Lat": 41.96392, "Lon": -3.12788}], "Palacios de la Valduerna": [{"Name": "Palacios de la Valduerna", "Country Code": "ES", "Population": 485.0, "Lat": 42.32773, "Lon": -5.9383}], "Palacios del Arzobispo": [{"Name": "Palacios del Arzobispo", "Country Code": "ES", "Population": 193.0, "Lat": 41.16655, "Lon": -5.88933}], "Palacios del Pan": [{"Name": "Palacios del Pan", "Country Code": "ES", "Population": 225.0, "Lat": 41.60242, "Lon": -5.87773}], "Palacios del Sil": [{"Name": "Palacios del Sil", "Country Code": "ES", "Population": 1343.0, "Lat": 42.87601, "Lon": -6.4315}], "Palaciosrubios": [{"Name": "Palaciosrubios", "Country Code": "ES", "Population": 491.0, "Lat": 41.05238, "Lon": -5.19507}], "Palackattumala": [{"Name": "Palackattumala", "Country Code": "IN", "Population": 1200.0, "Lat": 9.74356, "Lon": 76.6294}], "Palacpalac": [{"Name": "Palacpalac", "Country Code": "PH", "Population": 2956.0, "Lat": 16.1312, "Lon": 120.5305}], "Paladina": [{"Name": "Paladina", "Country Code": "IT", "Population": 3982.0, "Lat": 45.73068, "Lon": 9.60585}], "Palafolls": [{"Name": "Palafolls", "Country Code": "ES", "Population": 0.0, "Lat": 41.66667, "Lon": 2.75}], "Palafrugell": [{"Name": "Palafrugell", "Country Code": "ES", "Population": 22365.0, "Lat": 41.91738, "Lon": 3.1631}], "Palagano": [{"Name": "Palagano", "Country Code": "IT", "Population": 682.0, "Lat": 44.32152, "Lon": 10.6466}], "Palagao Norte": [{"Name": "Palagao Norte", "Country Code": "PH", "Population": 2953.0, "Lat": 18.04406, "Lon": 121.71871}], "Palagianello": [{"Name": "Palagianello", "Country Code": "IT", "Population": 7195.0, "Lat": 40.60851, "Lon": 16.97802}], "Palagiano": [{"Name": "Palagiano", "Country Code": "IT", "Population": 15388.0, "Lat": 40.57762, "Lon": 17.03812}], "Palagonia": [{"Name": "Palagonia", "Country Code": "IT", "Population": 16227.0, "Lat": 37.32955, "Lon": 14.74474}], "Palahanan Uno": [{"Name": "Palahanan Uno", "Country Code": "PH", "Population": 3404.0, "Lat": 13.83113, "Lon": 121.35639}], "Palaia": [{"Name": "Palaia", "Country Code": "IT", "Population": 727.0, "Lat": 43.60567, "Lon": 10.7702}], "Palaia Epidavros": [{"Name": "Palai\u00e1 Ep\u00eddavros", "Country Code": "GR", "Population": 1618.0, "Lat": 37.63847, "Lon": 23.15609}], "Palaia Fokaia": [{"Name": "Palai\u00e1 F\u00f3kaia", "Country Code": "GR", "Population": 2713.0, "Lat": 37.71998, "Lon": 23.94792}], "Palaifyto": [{"Name": "Pala\u00edfyto", "Country Code": "GR", "Population": 1475.0, "Lat": 40.78283, "Lon": 22.27388}], "Palaio Faliro": [{"Name": "Palai\u00f3 F\u00e1liro", "Country Code": "GR", "Population": 64021.0, "Lat": 37.92812, "Lon": 23.70105}], "Palaio Tsifliki": [{"Name": "Palai\u00f3 Tsifl\u00edki", "Country Code": "GR", "Population": 2195.0, "Lat": 40.90495, "Lon": 24.35083}], "Palaiochora": [{"Name": "Palai\u00f3chora", "Country Code": "GR", "Population": 2372.0, "Lat": 35.23128, "Lon": 23.68185}], "Palaiochori": [{"Name": "Palaioch\u00f3ri", "Country Code": "GR", "Population": 1404.0, "Lat": 40.94338, "Lon": 24.17747}, {"Name": "Palaioch\u00f3ri", "Country Code": "GR", "Population": 1489.0, "Lat": 40.49186, "Lon": 23.64928}], "Palaiokipos": [{"Name": "Palai\u00f3kipos", "Country Code": "GR", "Population": 1184.0, "Lat": 39.05563, "Lon": 26.45053}], "Palaiokomi": [{"Name": "Palaiok\u00f3mi", "Country Code": "GR", "Population": 1274.0, "Lat": 40.87068, "Lon": 23.90121}], "Palaiomonastiro": [{"Name": "Palaiomon\u00e1stiro", "Country Code": "GR", "Population": 1182.0, "Lat": 39.46269, "Lon": 21.65793}], "Palaiopyrgos": [{"Name": "Palai\u00f3pyrgos", "Country Code": "GR", "Population": 1035.0, "Lat": 39.60845, "Lon": 21.8172}], "Palairos": [{"Name": "P\u00e1lairos", "Country Code": "GR", "Population": 2589.0, "Lat": 38.783, "Lon": 20.88183}], "Palais de Justice": [{"Name": "Palais de Justice", "Country Code": "FR", "Population": 5533.0, "Lat": 43.28657, "Lon": 5.37603}], "Palaiseau": [{"Name": "Palaiseau", "Country Code": "FR", "Population": 31987.0, "Lat": 48.71828, "Lon": 2.2498}], "Palaja": [{"Name": "Palaja", "Country Code": "FR", "Population": 2022.0, "Lat": 43.17288, "Lon": 2.38787}], "Palakka": [{"Name": "Palakka", "Country Code": "ID", "Population": 0.0, "Lat": -4.5313, "Lon": 120.2892}], "Palakkad": [{"Name": "Palakkad", "Country Code": "IN", "Population": 132728.0, "Lat": 10.77319, "Lon": 76.65366}], "Palakkodu": [{"Name": "P\u0101lakkodu", "Country Code": "IN", "Population": 19630.0, "Lat": 12.30696, "Lon": 78.07022}], "Palakollu": [{"Name": "P\u0101lakollu", "Country Code": "IN", "Population": 57341.0, "Lat": 16.5167, "Lon": 81.73}], "Palali": [{"Name": "Palali", "Country Code": "PH", "Population": 4703.0, "Lat": 14.30622, "Lon": 122.48571}], "Palama": [{"Name": "Palama", "Country Code": "FR", "Population": 2513.0, "Lat": 43.36566, "Lon": 5.44427}], "Palamas": [{"Name": "Palam\u00e1s", "Country Code": "GR", "Population": 5719.0, "Lat": 39.46667, "Lon": 22.08333}], "Palamedu": [{"Name": "P\u0101lamedu", "Country Code": "IN", "Population": 8435.0, "Lat": 10.10501, "Lon": 78.11336}], "Palamos": [{"Name": "Palam\u00f3s", "Country Code": "ES", "Population": 18161.0, "Lat": 41.84843, "Lon": 3.12912}], "Palampas": [{"Name": "Palampas", "Country Code": "PH", "Population": 9037.0, "Lat": 10.52506, "Lon": 123.4208}], "Palampur": [{"Name": "P\u0101lampur", "Country Code": "IN", "Population": 4131.0, "Lat": 32.11453, "Lon": 76.55681}], "Palamutlu": [{"Name": "Palamutlu", "Country Code": "TR", "Population": 1368.0, "Lat": 37.89764, "Lon": 42.20218}], "Palana": [{"Name": "Palana", "Country Code": "RU", "Population": 3671.0, "Lat": 59.08384, "Lon": 159.9563}], "Palanas": [{"Name": "Palanas", "Country Code": "PH", "Population": 2690.0, "Lat": 12.1458, "Lon": 123.9216}], "Palanca": [{"Name": "Palanca", "Country Code": "RO", "Population": 2760.0, "Lat": 44.47575, "Lon": 25.72565}, {"Name": "Palanca", "Country Code": "RO", "Population": 1189.0, "Lat": 44.81562, "Lon": 26.19995}, {"Name": "Palanca", "Country Code": "RO", "Population": 3733.0, "Lat": 46.53333, "Lon": 26.11667}], "Palandoken": [{"Name": "Paland\u00f6ken", "Country Code": "TR", "Population": 0.0, "Lat": 39.88898, "Lon": 41.28055}], "Palang": [{"Name": "P\u0101lang", "Country Code": "BD", "Population": 67652.0, "Lat": 23.21824, "Lon": 90.35076}], "Palanga": [{"Name": "Palanga", "Country Code": "LT", "Population": 18207.0, "Lat": 55.9175, "Lon": 21.06861}], "Palangkaraya": [{"Name": "Palangkaraya", "Country Code": "ID", "Population": 293500.0, "Lat": -2.20833, "Lon": 113.91667}], "Palangue": [{"Name": "Palangue", "Country Code": "PH", "Population": 9567.0, "Lat": 14.28417, "Lon": 120.81139}], "Palani": [{"Name": "Palani", "Country Code": "IN", "Population": 66085.0, "Lat": 10.45034, "Lon": 77.5209}], "Palanit": [{"Name": "Palanit", "Country Code": "PH", "Population": 3358.0, "Lat": 12.32134, "Lon": 124.34341}], "Palanpur": [{"Name": "P\u0101lanpur", "Country Code": "IN", "Population": 123294.0, "Lat": 24.17128, "Lon": 72.43827}], "Palanques": [{"Name": "Palanques", "Country Code": "ES", "Population": 29.0, "Lat": 40.718, "Lon": -0.17941}], "Palanzano": [{"Name": "Palanzano", "Country Code": "IT", "Population": 289.0, "Lat": 44.43629, "Lon": 10.194}], "Palapag": [{"Name": "Palapag", "Country Code": "PH", "Population": 8342.0, "Lat": 12.5458, "Lon": 125.1147}], "Palapye": [{"Name": "Palapye", "Country Code": "BW", "Population": 52636.0, "Lat": -22.54605, "Lon": 27.12507}], "Palaran": [{"Name": "Palaran", "Country Code": "ID", "Population": 0.0, "Lat": -0.57119, "Lon": 117.19568}], "Palaroo": [{"Name": "Palaroo", "Country Code": "PH", "Population": 2409.0, "Lat": 11.4056, "Lon": 124.483}], "Palas": [{"Name": "Palas", "Country Code": "ID", "Population": 0.0, "Lat": -5.65191, "Lon": 105.68011}], "Palasa": [{"Name": "Pal\u0101sa", "Country Code": "IN", "Population": 65833.0, "Lat": 18.77257, "Lon": 84.41012}], "Palasbari": [{"Name": "Pal\u0101sb\u0101ri", "Country Code": "IN", "Population": 4713.0, "Lat": 26.12388, "Lon": 91.53974}], "Palata": [{"Name": "Palata", "Country Code": "IT", "Population": 1552.0, "Lat": 41.8879, "Lon": 14.78778}], "Palatca": [{"Name": "P\u0103latca", "Country Code": "RO", "Population": 1368.0, "Lat": 46.85, "Lon": 23.98333}], "Palatine": [{"Name": "Palatine", "Country Code": "US", "Population": 69308.0, "Lat": 42.1103, "Lon": -88.03424}], "Palatka": [{"Name": "Palatka", "Country Code": "RU", "Population": 4534.0, "Lat": 60.10183, "Lon": 150.93433}, {"Name": "Palatka", "Country Code": "US", "Population": 10390.0, "Lat": 29.64858, "Lon": -81.63758}], "Palattae": [{"Name": "Palattae", "Country Code": "ID", "Population": 0.0, "Lat": -4.9711, "Lon": 120.1127}], "Palau": [{"Name": "Palau", "Country Code": "IT", "Population": 2885.0, "Lat": 41.17936, "Lon": 9.3819}, {"Name": "Palau", "Country Code": "MX", "Population": 16970.0, "Lat": 27.89232, "Lon": -101.42319}], "Palau-del-Vidre": [{"Name": "Palau-del-Vidre", "Country Code": "FR", "Population": 2324.0, "Lat": 42.57237, "Lon": 2.96106}], "Palau-sator": [{"Name": "Palau-sator", "Country Code": "ES", "Population": 282.0, "Lat": 41.98897, "Lon": 3.11016}], "Palauig": [{"Name": "Palauig", "Country Code": "PH", "Population": 2944.0, "Lat": 15.435, "Lon": 119.9045}], "Palavakkam": [{"Name": "Palavakkam", "Country Code": "IN", "Population": 14369.0, "Lat": 12.9535, "Lon": 80.2572}], "Palavas-les-Flots": [{"Name": "Palavas-les-Flots", "Country Code": "FR", "Population": 6055.0, "Lat": 43.52974, "Lon": 3.93043}], "Palayan City": [{"Name": "Palayan City", "Country Code": "PH", "Population": 23742.0, "Lat": 15.5415, "Lon": 121.0848}], "Palazu Mare": [{"Name": "Palazu Mare", "Country Code": "RO", "Population": 3714.0, "Lat": 44.22902, "Lon": 28.60114}], "Palazuelo de Vedija": [{"Name": "Palazuelo de Vedija", "Country Code": "ES", "Population": 235.0, "Lat": 41.92966, "Lon": -5.14534}], "Palazuelos de Eresma": [{"Name": "Palazuelos de Eresma", "Country Code": "ES", "Population": 2751.0, "Lat": 40.93055, "Lon": -4.06071}], "Palazuelos de Muno": [{"Name": "Palazuelos de Mu\u00f1\u00f3", "Country Code": "ES", "Population": 0.0, "Lat": 42.19692, "Lon": -3.98984}], "Palazuelos de la Sierra": [{"Name": "Palazuelos de la Sierra", "Country Code": "ES", "Population": 72.0, "Lat": 42.21162, "Lon": -3.46014}], "Palazzago": [{"Name": "Palazzago", "Country Code": "IT", "Population": 1930.0, "Lat": 45.75298, "Lon": 9.53365}], "Palazzo": [{"Name": "Palazzo", "Country Code": "IT", "Population": 1817.0, "Lat": 43.09708, "Lon": 12.56436}], "Palazzo Adriano": [{"Name": "Palazzo Adriano", "Country Code": "IT", "Population": 2098.0, "Lat": 37.68066, "Lon": 13.37941}], "Palazzo Canavese": [{"Name": "Palazzo Canavese", "Country Code": "IT", "Population": 709.0, "Lat": 45.45962, "Lon": 7.97776}], "Palazzo Pignano": [{"Name": "Palazzo Pignano", "Country Code": "IT", "Population": 1183.0, "Lat": 45.39007, "Lon": 9.56956}], "Palazzo San Gervasio": [{"Name": "Palazzo San Gervasio", "Country Code": "IT", "Population": 4917.0, "Lat": 40.93156, "Lon": 15.98149}], "Palazzolo": [{"Name": "Palazzolo", "Country Code": "IT", "Population": 1608.0, "Lat": 37.56224, "Lon": 14.92987}], "Palazzolo Acreide": [{"Name": "Palazzolo Acreide", "Country Code": "IT", "Population": 8357.0, "Lat": 37.06261, "Lon": 14.90593}], "Palazzolo Vercellese": [{"Name": "Palazzolo Vercellese", "Country Code": "IT", "Population": 1285.0, "Lat": 45.18554, "Lon": 8.23302}], "Palazzolo dello Stella": [{"Name": "Palazzolo dello Stella", "Country Code": "IT", "Population": 2544.0, "Lat": 45.79823, "Lon": 13.08776}], "Palazzolo sull'Oglio": [{"Name": "Palazzolo sull'Oglio", "Country Code": "IT", "Population": 17973.0, "Lat": 45.59665, "Lon": 9.88688}], "Palazzuolo sul Senio": [{"Name": "Palazzuolo sul Senio", "Country Code": "IT", "Population": 880.0, "Lat": 44.11298, "Lon": 11.5427}], "Palca": [{"Name": "Palca", "Country Code": "PE", "Population": 0.0, "Lat": -11.34611, "Lon": -75.56861}, {"Name": "Palca", "Country Code": "PE", "Population": 189.0, "Lat": -17.77528, "Lon": -69.96028}, {"Name": "Palca", "Country Code": "PE", "Population": 969.0, "Lat": -15.2368, "Lon": -70.59779}], "Palcamayo": [{"Name": "Palcamayo", "Country Code": "PE", "Population": 0.0, "Lat": -11.29472, "Lon": -75.77361}], "Palcza": [{"Name": "Palcza", "Country Code": "PL", "Population": 1100.0, "Lat": 49.80454, "Lon": 19.74389}], "Paldau": [{"Name": "Paldau", "Country Code": "AT", "Population": 897.0, "Lat": 46.94222, "Lon": 15.79583}], "Paldiski": [{"Name": "Paldiski", "Country Code": "EE", "Population": 3542.0, "Lat": 59.35667, "Lon": 24.05306}], "Paldit": [{"Name": "Paldit", "Country Code": "PH", "Population": 3664.0, "Lat": 16.16667, "Lon": 120.53333}], "Pale": [{"Name": "Pale", "Country Code": "BA", "Population": 7458.0, "Lat": 43.81664, "Lon": 18.56949}], "Palekastro": [{"Name": "Palekastro", "Country Code": "GR", "Population": 1094.0, "Lat": 35.19793, "Lon": 26.25429}], "Palekh": [{"Name": "Palekh", "Country Code": "RU", "Population": 5616.0, "Lat": 56.80096, "Lon": 41.85735}], "Palembaian": [{"Name": "Palembaian", "Country Code": "ID", "Population": 0.0, "Lat": -0.18333, "Lon": 100.23333}], "Palembang": [{"Name": "Palembang", "Country Code": "ID", "Population": 1668848.0, "Lat": -2.91673, "Lon": 104.7458}], "Palena": [{"Name": "Palena", "Country Code": "CL", "Population": 1690.0, "Lat": -43.61876, "Lon": -71.80434}, {"Name": "Palena", "Country Code": "IT", "Population": 1308.0, "Lat": 41.98353, "Lon": 14.13696}], "Palencia": [{"Name": "Palencia", "Country Code": "ES", "Population": 82651.0, "Lat": 42.00955, "Lon": -4.52406}, {"Name": "Palencia", "Country Code": "GT", "Population": 18574.0, "Lat": 14.66715, "Lon": -90.35721}], "Palencia de Negrilla": [{"Name": "Palencia de Negrilla", "Country Code": "ES", "Population": 0.0, "Lat": 41.09439, "Lon": -5.60168}], "Palenciana": [{"Name": "Palenciana", "Country Code": "ES", "Population": 1562.0, "Lat": 37.24851, "Lon": -4.58261}], "Palenque": [{"Name": "Palenque", "Country Code": "CU", "Population": 0.0, "Lat": 20.36373, "Lon": -74.9704}, {"Name": "Palenque", "Country Code": "EC", "Population": 9083.0, "Lat": -1.43795, "Lon": -79.75647}, {"Name": "Palenque", "Country Code": "MX", "Population": 42947.0, "Lat": 17.50953, "Lon": -91.98248}, {"Name": "Palenque", "Country Code": "PA", "Population": 355.0, "Lat": 9.57353, "Lon": -79.35761}], "Palenstein": [{"Name": "Palenstein", "Country Code": "NL", "Population": 6000.0, "Lat": 52.05579, "Lon": 4.50869}], "Palenville": [{"Name": "Palenville", "Country Code": "US", "Population": 1037.0, "Lat": 42.17453, "Lon": -74.02014}], "Palenzuela": [{"Name": "Palenzuela", "Country Code": "ES", "Population": 266.0, "Lat": 42.09518, "Lon": -4.13039}], "Palera": [{"Name": "Palera", "Country Code": "IN", "Population": 16554.0, "Lat": 25.02013, "Lon": 79.22818}], "Palermiti": [{"Name": "Palermiti", "Country Code": "IT", "Population": 1246.0, "Lat": 38.74868, "Lon": 16.4522}], "Palermo": [{"Name": "Palermo", "Country Code": "CO", "Population": 9896.0, "Lat": 2.89167, "Lon": -75.4375}, {"Name": "Palermo", "Country Code": "IT", "Population": 648260.0, "Lat": 38.1166, "Lon": 13.3636}, {"Name": "Palermo", "Country Code": "US", "Population": 5382.0, "Lat": 39.43544, "Lon": -121.53802}, {"Name": "Palermo", "Country Code": "US", "Population": 1268.0, "Lat": 44.40785, "Lon": -69.47393}], "Palestina": [{"Name": "Palestina", "Country Code": "CO", "Population": 10454.0, "Lat": 1.72362, "Lon": -76.13403}, {"Name": "Palestina", "Country Code": "CO", "Population": 13560.0, "Lat": 5.0161, "Lon": -75.62854}, {"Name": "Palestina", "Country Code": "EC", "Population": 9364.0, "Lat": -1.93709, "Lon": -79.71396}, {"Name": "Palestina", "Country Code": "PH", "Population": 4418.0, "Lat": 13.6117, "Lon": 123.249}], "Palestina de los Altos": [{"Name": "Palestina de los Altos", "Country Code": "GT", "Population": 1691.0, "Lat": 14.93338, "Lon": -91.69403}], "Palestine": [{"Name": "Palestine", "Country Code": "US", "Population": 1331.0, "Lat": 39.00365, "Lon": -87.6128}, {"Name": "Palestine", "Country Code": "US", "Population": 18288.0, "Lat": 31.76212, "Lon": -95.63079}], "Palestrina": [{"Name": "Palestrina", "Country Code": "IT", "Population": 14925.0, "Lat": 41.83274, "Lon": 12.88178}], "Palestro": [{"Name": "Palestro", "Country Code": "IT", "Population": 1838.0, "Lat": 45.30302, "Lon": 8.5332}], "Paleu": [{"Name": "Paleu", "Country Code": "RO", "Population": 489.0, "Lat": 47.11531, "Lon": 21.95929}], "Palezieux": [{"Name": "Pal\u00e9zieux", "Country Code": "CH", "Population": 1209.0, "Lat": 46.54191, "Lon": 6.83989}], "Palfau": [{"Name": "Palfau", "Country Code": "AT", "Population": 369.0, "Lat": 47.7, "Lon": 14.8}], "Palgeum": [{"Name": "Palgeum", "Country Code": "KR", "Population": 0.0, "Lat": 34.78566, "Lon": 126.14288}], "Palghar": [{"Name": "P\u0101lghar", "Country Code": "IN", "Population": 72335.0, "Lat": 19.69693, "Lon": 72.76543}], "Palguyod": [{"Name": "Palguyod", "Country Code": "PH", "Population": 3230.0, "Lat": 16.1227, "Lon": 120.52}], "Palhi": [{"Name": "Palhi", "Country Code": "PH", "Population": 2185.0, "Lat": 10.6498, "Lon": 124.8062}], "Palhoca": [{"Name": "Palho\u00e7a", "Country Code": "BR", "Population": 175272.0, "Lat": -27.64528, "Lon": -48.66778}], "Pali": [{"Name": "P\u0101li", "Country Code": "IN", "Population": 21287.0, "Lat": 23.36453, "Lon": 81.04374}, {"Name": "P\u0101li", "Country Code": "IN", "Population": 9098.0, "Lat": 24.49188, "Lon": 78.41617}, {"Name": "P\u0101li", "Country Code": "IN", "Population": 210103.0, "Lat": 25.77276, "Lon": 73.32335}], "Palia Kalan": [{"Name": "Pali\u0101 Kal\u0101n", "Country Code": "IN", "Population": 38547.0, "Lat": 28.43205, "Lon": 80.58137}], "Palian": [{"Name": "Palian", "Country Code": "PH", "Population": 2861.0, "Lat": 6.37427, "Lon": 124.91062}, {"Name": "Palian", "Country Code": "TH", "Population": 0.0, "Lat": 7.17237, "Lon": 99.68624}], "Paliannunas": [{"Name": "Palian\u00f1u\u00f1as", "Country Code": "PE", "Population": 4049.0, "Lat": -12.04038, "Lon": -75.19134}], "Paliano": [{"Name": "Paliano", "Country Code": "IT", "Population": 5748.0, "Lat": 41.77975, "Lon": 13.07661}], "Palidano": [{"Name": "Palidano", "Country Code": "IT", "Population": 1032.0, "Lat": 44.97203, "Lon": 10.77943}], "Palikir - National Government Center": [{"Name": "Palikir - National Government Center", "Country Code": "FM", "Population": 0.0, "Lat": 6.92477, "Lon": 158.16109}], "Palilula": [{"Name": "Palilula", "Country Code": "RS", "Population": 0.0, "Lat": 44.81167, "Lon": 20.51611}], "Palima": [{"Name": "Palima", "Country Code": "SL", "Population": 4116.0, "Lat": 8.11996, "Lon": -11.50702}], "Palimanan": [{"Name": "Palimanan", "Country Code": "ID", "Population": 92600.0, "Lat": -6.70694, "Lon": 108.42417}], "Palimbang": [{"Name": "Palimbang", "Country Code": "PH", "Population": 4858.0, "Lat": 6.21002, "Lon": 124.18887}], "Palin": [{"Name": "Pal\u00edn", "Country Code": "GT", "Population": 65873.0, "Lat": 14.40358, "Lon": -90.69659}], "Palinges": [{"Name": "Palinges", "Country Code": "FR", "Population": 1522.0, "Lat": 46.55357, "Lon": 4.21964}], "Palinuro": [{"Name": "Palinuro", "Country Code": "IT", "Population": 1054.0, "Lat": 40.03681, "Lon": 15.28812}], "Palisade": [{"Name": "Palisade", "Country Code": "US", "Population": 2651.0, "Lat": 39.11026, "Lon": -108.35092}], "Palisades Park": [{"Name": "Palisades Park", "Country Code": "US", "Population": 20743.0, "Lat": 40.84816, "Lon": -73.99764}], "Paliseul": [{"Name": "Paliseul", "Country Code": "BE", "Population": 5037.0, "Lat": 49.90395, "Lon": 5.13537}], "Palit": [{"Name": "Palit", "Country Code": "HR", "Population": 1580.0, "Lat": 44.76509, "Lon": 14.75592}], "Palitana": [{"Name": "P\u0101lit\u0101na", "Country Code": "IN", "Population": 55913.0, "Lat": 21.52519, "Lon": 71.82309}], "Paliyad": [{"Name": "P\u0101liy\u0101d", "Country Code": "IN", "Population": 10862.0, "Lat": 22.25757, "Lon": 71.56024}], "Palizada": [{"Name": "Palizada", "Country Code": "MX", "Population": 3089.0, "Lat": 18.25503, "Lon": -92.0911}, {"Name": "Palizada", "Country Code": "MX", "Population": 1141.0, "Lat": 19.50611, "Lon": -100.10033}], "Palizzi": [{"Name": "Palizzi", "Country Code": "IT", "Population": 307.0, "Lat": 37.96667, "Lon": 15.9867}], "Palizzi Marina": [{"Name": "Palizzi Marina", "Country Code": "IT", "Population": 1647.0, "Lat": 37.91995, "Lon": 15.97927}], "Palkan": [{"Name": "Palkan", "Country Code": "PH", "Population": 3591.0, "Lat": 6.29639, "Lon": 125.03167}], "Palkino": [{"Name": "Palkino", "Country Code": "RU", "Population": 3112.0, "Lat": 57.54089, "Lon": 28.01257}], "Palkonda": [{"Name": "P\u0101lkonda", "Country Code": "IN", "Population": 29378.0, "Lat": 18.60374, "Lon": 83.75568}], "Palkovice": [{"Name": "Palkovice", "Country Code": "CZ", "Population": 2751.0, "Lat": 49.63467, "Lon": 18.31508}], "Palladam": [{"Name": "Palladam", "Country Code": "IN", "Population": 31935.0, "Lat": 10.99175, "Lon": 77.28633}], "Pallagorio": [{"Name": "Pallagorio", "Country Code": "IT", "Population": 1326.0, "Lat": 39.30764, "Lon": 16.90816}], "Pallanchacra": [{"Name": "Pallanchacra", "Country Code": "PE", "Population": 0.0, "Lat": -10.41528, "Lon": -76.23556}], "Pallandri": [{"Name": "Pallandri", "Country Code": "PK", "Population": 0.0, "Lat": 33.71527, "Lon": 73.68366}], "Pallanza-Intra-Suna": [{"Name": "Pallanza-Intra-Suna", "Country Code": "IT", "Population": 28911.0, "Lat": 45.93778, "Lon": 8.57088}], "Pallanzeno": [{"Name": "Pallanzeno", "Country Code": "IT", "Population": 1176.0, "Lat": 46.04202, "Lon": 8.25949}], "Pallappatti": [{"Name": "Pallappatti", "Country Code": "IN", "Population": 20281.0, "Lat": 10.72057, "Lon": 77.87951}], "Pallare": [{"Name": "Pallare", "Country Code": "IT", "Population": 693.0, "Lat": 44.3277, "Lon": 8.27864}], "Pallasca": [{"Name": "Pallasca", "Country Code": "PE", "Population": 0.0, "Lat": -8.25, "Lon": -78.01667}], "Pallasovka": [{"Name": "Pallasovka", "Country Code": "RU", "Population": 17139.0, "Lat": 50.05, "Lon": 46.88333}], "Pallattur": [{"Name": "Pallatt\u016br", "Country Code": "IN", "Population": 8186.0, "Lat": 10.14609, "Lon": 78.80309}], "Pallavaram": [{"Name": "Pall\u0101varam", "Country Code": "IN", "Population": 157145.0, "Lat": 12.96796, "Lon": 80.15025}], "Palle": [{"Name": "Palle", "Country Code": "IN", "Population": 5427.0, "Lat": 15.46667, "Lon": 74.08333}], "Palleja": [{"Name": "Pallej\u00e0", "Country Code": "ES", "Population": 11134.0, "Lat": 41.42394, "Lon": 1.99505}], "Pallerone": [{"Name": "Pallerone", "Country Code": "IT", "Population": 1049.0, "Lat": 44.20485, "Lon": 10.00279}], "Pallevada": [{"Name": "Pallev\u0101da", "Country Code": "IN", "Population": 2955.0, "Lat": 16.5779, "Lon": 81.29463}], "Pallikonda": [{"Name": "Pallikonda", "Country Code": "IN", "Population": 21335.0, "Lat": 12.90518, "Lon": 78.9427}], "Palling": [{"Name": "Palling", "Country Code": "DE", "Population": 3416.0, "Lat": 48.00204, "Lon": 12.63702}], "Pallini": [{"Name": "Pall\u00edni", "Country Code": "GR", "Population": 14808.0, "Lat": 38.00514, "Lon": 23.88302}], "Pallipattu": [{"Name": "Pallipattu", "Country Code": "IN", "Population": 8912.0, "Lat": 13.3386, "Lon": 79.44489}], "Pallippatti": [{"Name": "Pallippatti", "Country Code": "IN", "Population": 26492.0, "Lat": 11.9399, "Lon": 78.40161}], "Pallisa": [{"Name": "Pallisa", "Country Code": "UG", "Population": 30745.0, "Lat": 1.145, "Lon": 33.70944}], "Palm Aire": [{"Name": "Palm Aire", "Country Code": "US", "Population": 1702.0, "Lat": 26.20619, "Lon": -80.19171}], "Palm Bay": [{"Name": "Palm Bay", "Country Code": "US", "Population": 119760.0, "Lat": 28.03446, "Lon": -80.58866}], "Palm Beach": [{"Name": "Palm Beach", "Country Code": "AU", "Population": 15205.0, "Lat": -28.11694, "Lon": 153.46584}, {"Name": "Palm Beach", "Country Code": "AU", "Population": 1450.0, "Lat": -33.59664, "Lon": 151.32384}, {"Name": "Palm Beach", "Country Code": "US", "Population": 8612.0, "Lat": 26.70562, "Lon": -80.03643}], "Palm Beach Gardens": [{"Name": "Palm Beach Gardens", "Country Code": "US", "Population": 52923.0, "Lat": 26.82339, "Lon": -80.13865}], "Palm Beach Shores": [{"Name": "Palm Beach Shores", "Country Code": "US", "Population": 1208.0, "Lat": 26.77812, "Lon": -80.0356}], "Palm City": [{"Name": "Palm City", "Country Code": "US", "Population": 23120.0, "Lat": 27.16783, "Lon": -80.26616}], "Palm Coast": [{"Name": "Palm Coast", "Country Code": "US", "Population": 82893.0, "Lat": 29.58497, "Lon": -81.20784}], "Palm Cove": [{"Name": "Palm Cove", "Country Code": "AU", "Population": 3713.0, "Lat": -16.75, "Lon": 145.66667}], "Palm Desert": [{"Name": "Palm Desert", "Country Code": "US", "Population": 51869.0, "Lat": 33.72255, "Lon": -116.37697}], "Palm Harbor": [{"Name": "Palm Harbor", "Country Code": "US", "Population": 57439.0, "Lat": 28.07807, "Lon": -82.76371}], "Palm Island": [{"Name": "Palm Island", "Country Code": "AU", "Population": 2516.0, "Lat": -18.73565, "Lon": 146.57788}], "Palm River-Clair Mel": [{"Name": "Palm River-Clair Mel", "Country Code": "US", "Population": 21024.0, "Lat": 27.92386, "Lon": -82.37939}], "Palm Springs": [{"Name": "Palm Springs", "Country Code": "US", "Population": 47371.0, "Lat": 33.8303, "Lon": -116.54529}, {"Name": "Palm Springs", "Country Code": "US", "Population": 22341.0, "Lat": 26.6359, "Lon": -80.09615}], "Palm Springs North": [{"Name": "Palm Springs North", "Country Code": "US", "Population": 5253.0, "Lat": 25.9351, "Lon": -80.33383}], "Palm Valley": [{"Name": "Palm Valley", "Country Code": "US", "Population": 20019.0, "Lat": 30.17746, "Lon": -81.38758}, {"Name": "Palm Valley", "Country Code": "US", "Population": 1294.0, "Lat": 26.20174, "Lon": -97.75416}], "Palma": [{"Name": "Palma", "Country Code": "ES", "Population": 409661.0, "Lat": 39.56939, "Lon": 2.65024}], "Palma Campania": [{"Name": "Palma Campania", "Country Code": "IT", "Population": 12689.0, "Lat": 40.86608, "Lon": 14.5517}], "Palma Gil": [{"Name": "Palma Gil", "Country Code": "PH", "Population": 4894.0, "Lat": 7.64222, "Lon": 125.62917}], "Palma Grande": [{"Name": "Palma Grande", "Country Code": "MX", "Population": 2399.0, "Lat": 21.99333, "Lon": -105.38944}], "Palma Pegada": [{"Name": "Palma Pegada", "Country Code": "MX", "Population": 1516.0, "Lat": 22.71046, "Lon": -101.79187}], "Palma Sola": [{"Name": "Palma Sola", "Country Code": "AR", "Population": 5318.0, "Lat": -23.97771, "Lon": -64.30311}, {"Name": "Palma Sola", "Country Code": "MX", "Population": 3144.0, "Lat": 19.77132, "Lon": -96.43225}], "Palma Soriano": [{"Name": "Palma Soriano", "Country Code": "CU", "Population": 102826.0, "Lat": 20.2113, "Lon": -75.99362}], "Palma de Gandia": [{"Name": "Palma de Gand\u00eda", "Country Code": "ES", "Population": 1655.0, "Lat": 38.92672, "Lon": -0.22028}], "Palma del Rio": [{"Name": "Palma del R\u00edo", "Country Code": "ES", "Population": 21159.0, "Lat": 37.70024, "Lon": -5.28121}], "Palma di Montechiaro": [{"Name": "Palma di Montechiaro", "Country Code": "IT", "Population": 22654.0, "Lat": 37.19066, "Lon": 13.76603}], "Palmaces de Jadraque": [{"Name": "P\u00e1lmaces de Jadraque", "Country Code": "ES", "Population": 68.0, "Lat": 41.0561, "Lon": -2.9106}], "Palmaner": [{"Name": "Palmaner", "Country Code": "IN", "Population": 42179.0, "Lat": 13.2, "Lon": 78.74725}], "Palmanova": [{"Name": "Palmanova", "Country Code": "ES", "Population": 7040.0, "Lat": 39.5247, "Lon": 2.53922}, {"Name": "Palmanova", "Country Code": "IT", "Population": 2515.0, "Lat": 45.9054, "Lon": 13.30998}], "Palmar": [{"Name": "Palmar", "Country Code": "CO", "Population": 360.0, "Lat": 6.53773, "Lon": -73.29234}], "Palmar Arriba": [{"Name": "Palmar Arriba", "Country Code": "DO", "Population": 3700.0, "Lat": 19.53957, "Lon": -70.73826}], "Palmar Chico": [{"Name": "Palmar Chico", "Country Code": "MX", "Population": 3127.0, "Lat": 18.69593, "Lon": -100.36852}], "Palmar Grande": [{"Name": "Palmar Grande", "Country Code": "AR", "Population": 1672.0, "Lat": -27.94127, "Lon": -57.90102}, {"Name": "Palmar Grande", "Country Code": "MX", "Population": 1120.0, "Lat": 18.51511, "Lon": -96.7788}], "Palmar Primero": [{"Name": "Palmar Primero", "Country Code": "MX", "Population": 1016.0, "Lat": 22.37079, "Lon": -101.09827}], "Palmar de Bravo": [{"Name": "Palmar de Bravo", "Country Code": "MX", "Population": 4870.0, "Lat": 18.83573, "Lon": -97.54704}], "Palmar de Cuautla": [{"Name": "Palmar de Cuautla", "Country Code": "MX", "Population": 1359.0, "Lat": 22.21972, "Lon": -105.6475}], "Palmar de Ocoa": [{"Name": "Palmar de Ocoa", "Country Code": "DO", "Population": 1997.0, "Lat": 18.29656, "Lon": -70.58635}], "Palmar de Varela": [{"Name": "Palmar de Varela", "Country Code": "CO", "Population": 27098.0, "Lat": 10.74055, "Lon": -74.75443}], "Palmarejo": [{"Name": "Palmarejo", "Country Code": "PR", "Population": 1087.0, "Lat": 18.06802, "Lon": -66.32545}, {"Name": "Palmarejo", "Country Code": "PR", "Population": 1169.0, "Lat": 18.04024, "Lon": -67.07685}], "Palmares": [{"Name": "Palmares", "Country Code": "BR", "Population": 41679.0, "Lat": -8.68333, "Lon": -35.59167}], "Palmares do Sul": [{"Name": "Palmares do Sul", "Country Code": "BR", "Population": 8392.0, "Lat": -30.25778, "Lon": -50.50972}], "Palmariggi": [{"Name": "Palmariggi", "Country Code": "IT", "Population": 1554.0, "Lat": 40.13099, "Lon": 18.37863}], "Palmarito Tochapan": [{"Name": "Palmarito Tochapan", "Country Code": "MX", "Population": 17213.0, "Lat": 18.90135, "Lon": -97.63833}], "Palmas": [{"Name": "Palmas", "Country Code": "BR", "Population": 39150.0, "Lat": -26.48417, "Lon": -51.99056}, {"Name": "Palmas", "Country Code": "BR", "Population": 306296.0, "Lat": -10.16745, "Lon": -48.32766}, {"Name": "Palmas", "Country Code": "PR", "Population": 2829.0, "Lat": 17.98719, "Lon": -66.02544}], "Palmas Arborea": [{"Name": "Palmas Arborea", "Country Code": "IT", "Population": 1092.0, "Lat": 39.8767, "Lon": 8.64391}], "Palmas Bellas": [{"Name": "Palmas Bellas", "Country Code": "PA", "Population": 1337.0, "Lat": 9.22838, "Lon": -80.08503}], "Palmas de Abajo": [{"Name": "Palmas de Abajo", "Country Code": "MX", "Population": 1014.0, "Lat": 19.59001, "Lon": -96.43659}], "Palmas de Monte Alto": [{"Name": "Palmas de Monte Alto", "Country Code": "BR", "Population": 7091.0, "Lat": -14.26722, "Lon": -43.16194}], "Palmas del Socorro": [{"Name": "Palmas del Socorro", "Country Code": "CO", "Population": 657.0, "Lat": 6.40756, "Lon": -73.28824}], "Palmasola": [{"Name": "Palmasola", "Country Code": "VE", "Population": 0.0, "Lat": 10.59363, "Lon": -68.54422}, {"Name": "Palmasola", "Country Code": "VE", "Population": 0.0, "Lat": 9.23333, "Lon": -66.71667}], "Palmci": [{"Name": "Palmci", "Country Code": "CI", "Population": 3685.0, "Lat": 5.27818, "Lon": -4.98775}], "Palmdale": [{"Name": "Palmdale", "Country Code": "US", "Population": 1308.0, "Lat": 40.29787, "Lon": -76.61858}, {"Name": "Palmdale", "Country Code": "US", "Population": 158351.0, "Lat": 34.57943, "Lon": -118.11646}], "Palmeira": [{"Name": "Palmeira", "Country Code": "BR", "Population": 18630.0, "Lat": -25.42944, "Lon": -50.00639}, {"Name": "Palmeira", "Country Code": "ES", "Population": 1894.0, "Lat": 42.58333, "Lon": -8.95}], "Palmeira das Missoes": [{"Name": "Palmeira das Miss\u00f5es", "Country Code": "BR", "Population": 30954.0, "Lat": -27.89944, "Lon": -53.31361}], "Palmeirais": [{"Name": "Palmeirais", "Country Code": "BR", "Population": 4262.0, "Lat": -5.97778, "Lon": -43.06333}], "Palmeiras de Goias": [{"Name": "Palmeiras de Goi\u00e1s", "Country Code": "BR", "Population": 13572.0, "Lat": -16.805, "Lon": -49.92583}], "Palmela": [{"Name": "Palmela", "Country Code": "PT", "Population": 16934.0, "Lat": 38.56902, "Lon": -8.90126}], "Palmer": [{"Name": "Palmer", "Country Code": "PR", "Population": 1205.0, "Lat": 18.37051, "Lon": -65.77405}, {"Name": "Palmer", "Country Code": "US", "Population": 2055.0, "Lat": 32.43125, "Lon": -96.66777}, {"Name": "Palmer", "Country Code": "US", "Population": 6788.0, "Lat": 61.59941, "Lon": -149.11456}, {"Name": "Palmer", "Country Code": "US", "Population": 18261.0, "Lat": 42.15843, "Lon": -72.32869}], "Palmer Heights": [{"Name": "Palmer Heights", "Country Code": "US", "Population": 3762.0, "Lat": 40.68732, "Lon": -75.2624}], "Palmer Lake": [{"Name": "Palmer Lake", "Country Code": "US", "Population": 2590.0, "Lat": 39.12221, "Lon": -104.9172}], "Palmera": [{"Name": "Palmera", "Country Code": "ES", "Population": 605.0, "Lat": 38.93927, "Lon": -0.15411}], "Palmers Green": [{"Name": "Palmers Green", "Country Code": "GB", "Population": 15162.0, "Lat": 51.61794, "Lon": -0.11012}], "Palmerston": [{"Name": "Palmerston", "Country Code": "AU", "Population": 5430.0, "Lat": -35.19447, "Lon": 149.1194}, {"Name": "Palmerston", "Country Code": "AU", "Population": 25000.0, "Lat": -12.48602, "Lon": 130.9833}, {"Name": "Palmerston", "Country Code": "NZ", "Population": 1040.0, "Lat": -45.47837, "Lon": 170.7201}], "Palmerston North": [{"Name": "Palmerston North", "Country Code": "NZ", "Population": 90500.0, "Lat": -40.35636, "Lon": 175.61113}], "Palmerston-Little Italy": [{"Name": "Palmerston-Little Italy", "Country Code": "CA", "Population": 13826.0, "Lat": 43.65916, "Lon": -79.41841}], "Palmerstown": [{"Name": "Palmerstown", "Country Code": "IE", "Population": 11130.0, "Lat": 53.35019, "Lon": -6.37778}], "Palmerton": [{"Name": "Palmerton", "Country Code": "US", "Population": 5305.0, "Lat": 40.8014, "Lon": -75.6119}], "Palmetto": [{"Name": "Palmetto", "Country Code": "US", "Population": 4733.0, "Lat": 33.51789, "Lon": -84.66965}, {"Name": "Palmetto", "Country Code": "US", "Population": 13249.0, "Lat": 27.52143, "Lon": -82.57232}], "Palmetto Bay": [{"Name": "Palmetto Bay", "Country Code": "US", "Population": 24439.0, "Lat": 25.62177, "Lon": -80.32477}], "Palmetto Estates": [{"Name": "Palmetto Estates", "Country Code": "US", "Population": 13498.0, "Lat": 25.62149, "Lon": -80.362}], "Palmhurst": [{"Name": "Palmhurst", "Country Code": "US", "Population": 2687.0, "Lat": 26.25841, "Lon": -98.31807}], "Palmi": [{"Name": "Palmi", "Country Code": "IT", "Population": 18556.0, "Lat": 38.35943, "Lon": 15.85155}], "Palmiano": [{"Name": "Palmiano", "Country Code": "IT", "Population": 62.0, "Lat": 42.89946, "Lon": 13.45937}], "Palmichal": [{"Name": "Palmichal", "Country Code": "CR", "Population": 1545.0, "Lat": 9.83802, "Lon": -84.20405}], "Palmillas": [{"Name": "Palmillas", "Country Code": "MX", "Population": 2077.0, "Lat": 18.81525, "Lon": -96.77167}, {"Name": "Palmillas", "Country Code": "MX", "Population": 1918.0, "Lat": 19.69361, "Lon": -99.95028}, {"Name": "Palmillas", "Country Code": "MX", "Population": 1378.0, "Lat": 20.33631, "Lon": -99.94035}, {"Name": "Palmillas", "Country Code": "MX", "Population": 1104.0, "Lat": 18.52202, "Lon": -99.42563}, {"Name": "Palmillas", "Country Code": "MX", "Population": 1717.0, "Lat": 19.34695, "Lon": -99.6832}, {"Name": "Palmillas", "Country Code": "MX", "Population": 1092.0, "Lat": 23.30225, "Lon": -99.54896}, {"Name": "Palmillas", "Country Code": "MX", "Population": 1910.0, "Lat": 20.21859, "Lon": -99.1984}], "Palmillas de San Juan": [{"Name": "Palmillas de San Juan", "Country Code": "MX", "Population": 1467.0, "Lat": 20.76873, "Lon": -100.86432}], "Palmindustrie Tamabo": [{"Name": "Palmindustrie Tamabo", "Country Code": "CI", "Population": 5177.0, "Lat": 5.44147, "Lon": -4.79541}], "Palmira": [{"Name": "Palmira", "Country Code": "CO", "Population": 312519.0, "Lat": 3.53944, "Lon": -76.30361}, {"Name": "Palmira", "Country Code": "CU", "Population": 23078.0, "Lat": 22.24126, "Lon": -80.3911}, {"Name": "Palmira", "Country Code": "MX", "Population": 14256.0, "Lat": 18.88278, "Lon": -97.11139}, {"Name": "Palmira", "Country Code": "PA", "Population": 93.0, "Lat": 7.66347, "Lon": -80.35728}, {"Name": "Palmira", "Country Code": "PA", "Population": 1144.0, "Lat": 8.73401, "Lon": -82.45887}, {"Name": "Palmira", "Country Code": "PA", "Population": 254.0, "Lat": 9.54686, "Lon": -79.21541}, {"Name": "Palmira", "Country Code": "VE", "Population": 48087.0, "Lat": 7.8375, "Lon": -72.22794}], "Palmira Centro": [{"Name": "Palmira Centro", "Country Code": "PA", "Population": 920.0, "Lat": 8.74156, "Lon": -82.4505}], "Palmital": [{"Name": "Palmital", "Country Code": "BR", "Population": 18539.0, "Lat": -22.78889, "Lon": -50.2175}], "Palmitas": [{"Name": "Palmitas", "Country Code": "UY", "Population": 2123.0, "Lat": -33.50719, "Lon": -57.80079}], "Palmito": [{"Name": "Palmito", "Country Code": "CO", "Population": 5345.0, "Lat": 9.33189, "Lon": -75.5417}], "Palmito del Verde": [{"Name": "Palmito del Verde", "Country Code": "MX", "Population": 1499.0, "Lat": 22.65861, "Lon": -105.77111}], "Palmoli": [{"Name": "Palmoli", "Country Code": "IT", "Population": 676.0, "Lat": 41.93944, "Lon": 14.58142}], "Palmona Park": [{"Name": "Palmona Park", "Country Code": "US", "Population": 1146.0, "Lat": 26.68646, "Lon": -81.89648}], "Palmonostora": [{"Name": "P\u00e1lmonostora", "Country Code": "HU", "Population": 2052.0, "Lat": 46.62417, "Lon": 19.95156}], "Palmview": [{"Name": "Palmview", "Country Code": "US", "Population": 5715.0, "Lat": 26.23341, "Lon": -98.37085}], "Palmview South": [{"Name": "Palmview South", "Country Code": "US", "Population": 5575.0, "Lat": 26.21563, "Lon": -98.37863}], "Palmwoods": [{"Name": "Palmwoods", "Country Code": "AU", "Population": 5575.0, "Lat": -26.68584, "Lon": 152.96135}], "Palmyra": [{"Name": "Palmyra", "Country Code": "AU", "Population": 6737.0, "Lat": -32.04502, "Lon": 115.78589}, {"Name": "Palmyra", "Country Code": "US", "Population": 104.0, "Lat": 37.86097, "Lon": -78.26334}, {"Name": "Palmyra", "Country Code": "US", "Population": 2031.0, "Lat": 44.84645, "Lon": -69.35866}, {"Name": "Palmyra", "Country Code": "US", "Population": 3413.0, "Lat": 43.06395, "Lon": -77.23332}, {"Name": "Palmyra", "Country Code": "US", "Population": 7451.0, "Lat": 40.30898, "Lon": -76.5933}, {"Name": "Palmyra", "Country Code": "US", "Population": 1776.0, "Lat": 42.87779, "Lon": -88.58621}, {"Name": "Palmyra", "Country Code": "US", "Population": 7314.0, "Lat": 40.00706, "Lon": -75.02823}, {"Name": "Palmyra", "Country Code": "US", "Population": 3616.0, "Lat": 39.79421, "Lon": -91.52321}], "Palo": [{"Name": "Palo", "Country Code": "ES", "Population": 29.0, "Lat": 42.3227, "Lon": 0.24376}, {"Name": "Palo", "Country Code": "PH", "Population": 17534.0, "Lat": 11.1575, "Lon": 124.99083}, {"Name": "Palo", "Country Code": "US", "Population": 1053.0, "Lat": 42.06611, "Lon": -91.79546}], "Palo Alto": [{"Name": "Palo Alto", "Country Code": "MX", "Population": 2399.0, "Lat": 20.54065, "Lon": -100.2213}, {"Name": "Palo Alto", "Country Code": "MX", "Population": 5399.0, "Lat": 21.91801, "Lon": -101.96453}, {"Name": "Palo Alto", "Country Code": "MX", "Population": 1402.0, "Lat": 20.86675, "Lon": -100.39987}, {"Name": "Palo Alto", "Country Code": "US", "Population": 66853.0, "Lat": 37.44188, "Lon": -122.14302}, {"Name": "Palo Alto", "Country Code": "US", "Population": 1009.0, "Lat": 40.68731, "Lon": -76.17216}], "Palo Bendito": [{"Name": "Palo Bendito", "Country Code": "MX", "Population": 1239.0, "Lat": 20.4571, "Lon": -98.50017}], "Palo Blanco": [{"Name": "Palo Blanco", "Country Code": "MX", "Population": 2695.0, "Lat": 17.40355, "Lon": -99.46622}], "Palo Cedro": [{"Name": "Palo Cedro", "Country Code": "US", "Population": 1269.0, "Lat": 40.56376, "Lon": -122.23889}], "Palo Colorado": [{"Name": "Palo Colorado", "Country Code": "MX", "Population": 1172.0, "Lat": 21.00836, "Lon": -100.72917}], "Palo Gacho": [{"Name": "Palo Gacho", "Country Code": "MX", "Population": 1378.0, "Lat": 19.39104, "Lon": -96.63675}], "Palo Grande": [{"Name": "Palo Grande", "Country Code": "PA", "Population": 0.0, "Lat": 8.35163, "Lon": -82.60639}], "Palo Mulato": [{"Name": "Palo Mulato", "Country Code": "MX", "Population": 1415.0, "Lat": 18.02035, "Lon": -93.76943}], "Palo Negro": [{"Name": "Palo Negro", "Country Code": "VE", "Population": 128875.0, "Lat": 10.17389, "Lon": -67.54194}], "Palo Pinto": [{"Name": "Palo Pinto", "Country Code": "US", "Population": 333.0, "Lat": 32.76735, "Lon": -98.29866}], "Palo Santo": [{"Name": "Palo Santo", "Country Code": "AR", "Population": 5324.0, "Lat": -25.56461, "Lon": -59.3378}], "Palo Seco": [{"Name": "Palo Seco", "Country Code": "PR", "Population": 1152.0, "Lat": 18.00747, "Lon": -65.93683}], "Palo Seco (El Gato)": [{"Name": "Palo Seco (El Gato)", "Country Code": "MX", "Population": 1291.0, "Lat": 22.35417, "Lon": -100.19194}], "Palo del Colle": [{"Name": "Palo del Colle", "Country Code": "IT", "Population": 20692.0, "Lat": 41.05562, "Lon": 16.70321}], "Palocabildo": [{"Name": "Palocabildo", "Country Code": "CO", "Population": 9120.0, "Lat": 5.11705, "Lon": -75.01732}], "Palol de Revardit": [{"Name": "Palol de Revardit", "Country Code": "ES", "Population": 0.0, "Lat": 42.06667, "Lon": 2.8}], "Paloma Creek": [{"Name": "Paloma Creek", "Country Code": "US", "Population": 2501.0, "Lat": 33.2253, "Lon": -96.93742}], "Paloma Creek South": [{"Name": "Paloma Creek South", "Country Code": "US", "Population": 2753.0, "Lat": 33.21136, "Lon": -96.93554}], "Palomar": [{"Name": "Palomar", "Country Code": "MX", "Population": 4837.0, "Lat": 20.5925, "Lon": -103.46056}], "Palomar de Arroyos": [{"Name": "Palomar de Arroyos", "Country Code": "ES", "Population": 218.0, "Lat": 40.77911, "Lon": -0.75055}], "Palomares": [{"Name": "Palomares", "Country Code": "MX", "Population": 3760.0, "Lat": 17.1383, "Lon": -95.06266}], "Palomares del Campo": [{"Name": "Palomares del Campo", "Country Code": "ES", "Population": 917.0, "Lat": 39.94664, "Lon": -2.59776}], "Palomares del Rio": [{"Name": "Palomares del R\u00edo", "Country Code": "ES", "Population": 4782.0, "Lat": 37.32225, "Lon": -6.05863}], "Palomas": [{"Name": "Palomas", "Country Code": "ES", "Population": 731.0, "Lat": 38.69277, "Lon": -6.1349}, {"Name": "Palomas", "Country Code": "MX", "Population": 1544.0, "Lat": 17.65466, "Lon": -92.478}, {"Name": "Palomas", "Country Code": "MX", "Population": 2676.0, "Lat": 22.48124, "Lon": -99.84922}, {"Name": "Palomas", "Country Code": "PR", "Population": 1742.0, "Lat": 18.23246, "Lon": -66.25628},