{"Shimukappu": [{"Name": "Shimukappu", "Country Code": "JP", "Population": 1251.0, "Lat": 43.0, "Lon": 142.41667}], "Shin": [{"Name": "Sh\u012bn", "Country Code": "SY", "Population": 0.0, "Lat": 34.77863, "Lon": 36.42366}], "Shin'ichi": [{"Name": "Shin\u2019ichi", "Country Code": "JP", "Population": 21030.0, "Lat": 34.55543, "Lon": 133.27297}], "Shinas": [{"Name": "Shin\u0101\u015f", "Country Code": "OM", "Population": 48009.0, "Lat": 24.7426, "Lon": 56.46698}], "Shindand": [{"Name": "Sh\u012bn\u1e0fan\u1e0f", "Country Code": "AF", "Population": 29264.0, "Lat": 33.30294, "Lon": 62.1474}], "Shiner": [{"Name": "Shiner", "Country Code": "US", "Population": 2139.0, "Lat": 29.42913, "Lon": -97.17054}], "Shinfield": [{"Name": "Shinfield", "Country Code": "GB", "Population": 0.0, "Lat": 51.40542, "Lon": -0.94534}], "Shingle Springs": [{"Name": "Shingle Springs", "Country Code": "US", "Population": 4432.0, "Lat": 38.66574, "Lon": -120.92605}], "Shinglehouse": [{"Name": "Shinglehouse", "Country Code": "US", "Population": 1093.0, "Lat": 41.96368, "Lon": -78.19084}], "Shingletown": [{"Name": "Shingletown", "Country Code": "US", "Population": 2283.0, "Lat": 40.49238, "Lon": -121.88916}], "Shingli Bala": [{"Name": "Shingli Bala", "Country Code": "PK", "Population": 4000.0, "Lat": 34.67872, "Lon": 72.98491}], "Shingu": [{"Name": "Shing\u016b", "Country Code": "JP", "Population": 27491.0, "Lat": 33.73333, "Lon": 135.98333}, {"Name": "Shing\u016b", "Country Code": "JP", "Population": 31236.0, "Lat": 33.71399, "Lon": 130.4313}], "Shinjo": [{"Name": "Shinj\u014d", "Country Code": "JP", "Population": 41140.0, "Lat": 38.75861, "Lon": 140.30083}], "Shinkafi": [{"Name": "Shinkafi", "Country Code": "NG", "Population": 9324.0, "Lat": 13.07296, "Lon": 6.50574}], "Shinmachi": [{"Name": "Shinmachi", "Country Code": "JP", "Population": 7523.0, "Lat": 35.18738, "Lon": 140.35792}], "Shinnecock Hills": [{"Name": "Shinnecock Hills", "Country Code": "US", "Population": 2188.0, "Lat": 40.89093, "Lon": -72.4637}], "Shinnston": [{"Name": "Shinnston", "Country Code": "US", "Population": 2171.0, "Lat": 39.39564, "Lon": -80.30009}], "Shinpokh": [{"Name": "Shinpokh", "Country Code": "PK", "Population": 1111.0, "Lat": 34.32959, "Lon": 71.17852}], "Shinshicho": [{"Name": "Shinshicho", "Country Code": "ET", "Population": 38400.0, "Lat": 7.20556, "Lon": 37.77778}], "Shinshimokawa": [{"Name": "Shinshimokawa", "Country Code": "JP", "Population": 3836.0, "Lat": 44.24489, "Lon": 142.67738}], "Shinshiro": [{"Name": "Shinshiro", "Country Code": "JP", "Population": 36069.0, "Lat": 34.9, "Lon": 137.5}], "Shintoku": [{"Name": "Shintoku", "Country Code": "JP", "Population": 6285.0, "Lat": 43.07472, "Lon": 142.83472}], "Shinuhayr": [{"Name": "Shinuhayr", "Country Code": "AM", "Population": 2206.0, "Lat": 39.4367, "Lon": 46.31787}], "Shinyanga": [{"Name": "Shinyanga", "Country Code": "TZ", "Population": 139727.0, "Lat": -3.66393, "Lon": 33.42118}], "Shiogama": [{"Name": "Shiogama", "Country Code": "JP", "Population": 52662.0, "Lat": 38.31667, "Lon": 141.03333}], "Shiojiri": [{"Name": "Shiojiri", "Country Code": "JP", "Population": 67159.0, "Lat": 36.1, "Lon": 137.96667}], "Shiozawa": [{"Name": "Shiozawa", "Country Code": "JP", "Population": 20178.0, "Lat": 37.03757, "Lon": 138.84867}], "Ship Bottom": [{"Name": "Ship Bottom", "Country Code": "US", "Population": 1135.0, "Lat": 39.6429, "Lon": -74.18042}], "Shipan": [{"Name": "Shipan", "Country Code": "CN", "Population": 2537.0, "Lat": 29.13921, "Lon": 108.20413}], "Shipdham": [{"Name": "Shipdham", "Country Code": "GB", "Population": 1860.0, "Lat": 52.62923, "Lon": 0.88577}], "Shipham": [{"Name": "Shipham", "Country Code": "GB", "Population": 1087.0, "Lat": 51.31428, "Lon": -2.8001}], "Shipitsyno": [{"Name": "Shipitsyno", "Country Code": "RU", "Population": 3780.0, "Lat": 61.28056, "Lon": 46.52083}], "Shipka": [{"Name": "Shipka", "Country Code": "BG", "Population": 1604.0, "Lat": 42.71172, "Lon": 25.3353}], "Shipley": [{"Name": "Shipley", "Country Code": "GB", "Population": 28544.0, "Lat": 53.83333, "Lon": -1.76667}], "Shippagan": [{"Name": "Shippagan", "Country Code": "CA", "Population": 2580.0, "Lat": 47.74424, "Lon": -64.70804}], "Shippensburg": [{"Name": "Shippensburg", "Country Code": "US", "Population": 5559.0, "Lat": 40.05065, "Lon": -77.52026}], "Shiprock": [{"Name": "Shiprock", "Country Code": "US", "Population": 8295.0, "Lat": 36.78555, "Lon": -108.68703}], "Shipston on Stour": [{"Name": "Shipston on Stour", "Country Code": "GB", "Population": 5038.0, "Lat": 52.06057, "Lon": -1.62778}], "Shipton under Wychwood": [{"Name": "Shipton under Wychwood", "Country Code": "GB", "Population": 2892.0, "Lat": 51.86035, "Lon": -1.59847}], "Shipunovo": [{"Name": "Shipunovo", "Country Code": "RU", "Population": 11431.0, "Lat": 52.21731, "Lon": 82.26747}], "Shipyard": [{"Name": "Shipyard", "Country Code": "BZ", "Population": 3805.0, "Lat": 17.89382, "Lon": -88.65452}], "Shiqi": [{"Name": "Shiqi", "Country Code": "CN", "Population": 342306.0, "Lat": 22.51682, "Lon": 113.38521}], "Shiqian": [{"Name": "Shiqian", "Country Code": "CN", "Population": 9571.0, "Lat": 27.5225, "Lon": 108.22806}], "Shiqiang": [{"Name": "Shiqiang", "Country Code": "CN", "Population": 6832.0, "Lat": 29.27426, "Lon": 107.20393}], "Shiqiao": [{"Name": "Shiqiao", "Country Code": "CN", "Population": 29050.0, "Lat": 34.15389, "Lon": 105.12972}, {"Name": "Shiqiao", "Country Code": "CN", "Population": 0.0, "Lat": 27.98195, "Lon": 120.55917}, {"Name": "Shiqiao", "Country Code": "CN", "Population": 8151.0, "Lat": 29.19831, "Lon": 107.82887}, {"Name": "Shiqiao", "Country Code": "CN", "Population": 135308.0, "Lat": 22.9464, "Lon": 113.35769}], "Shiqiaozi": [{"Name": "Shiqiaozi", "Country Code": "CN", "Population": 58538.0, "Lat": 36.16167, "Lon": 119.26306}], "Shiquan": [{"Name": "Shiquan", "Country Code": "CN", "Population": 53422.0, "Lat": 33.04083, "Lon": 108.23639}], "Shiquanhe": [{"Name": "Shiquanhe", "Country Code": "CN", "Population": 0.0, "Lat": 32.50124, "Lon": 80.09758}], "Shir Gah": [{"Name": "Sh\u012br G\u0101h", "Country Code": "IR", "Population": 0.0, "Lat": 36.29836, "Lon": 52.88917}], "Shira": [{"Name": "Shira", "Country Code": "RU", "Population": 9358.0, "Lat": 54.49111, "Lon": 89.95306}], "Shirac": [{"Name": "Shirac", "Country Code": "PE", "Population": 626.0, "Lat": -7.34924, "Lon": -78.04782}], "Shiraguppi": [{"Name": "Shiraguppi", "Country Code": "IN", "Population": 25000.0, "Lat": 16.61875, "Lon": 74.70907}], "Shirahama": [{"Name": "Shirahama", "Country Code": "JP", "Population": 23325.0, "Lat": 33.68333, "Lon": 135.35}], "Shirahamacho-usazakiminami": [{"Name": "Shirahamach\u014d-usazakiminami", "Country Code": "JP", "Population": 23180.0, "Lat": 34.78333, "Lon": 134.71667}], "Shirak": [{"Name": "Shirak", "Country Code": "AM", "Population": 1007.0, "Lat": 40.84042, "Lon": 43.91582}], "Shirakawa": [{"Name": "Shirakawa", "Country Code": "JP", "Population": 59393.0, "Lat": 37.11954, "Lon": 140.26211}], "Shiranuka": [{"Name": "Shiranuka", "Country Code": "JP", "Population": 7972.0, "Lat": 42.96286, "Lon": 144.08897}], "Shiraoi": [{"Name": "Shiraoi", "Country Code": "JP", "Population": 17759.0, "Lat": 42.55, "Lon": 141.35}], "Shiraoka": [{"Name": "Shiraoka", "Country Code": "JP", "Population": 50974.0, "Lat": 36.01839, "Lon": 139.66034}], "Shiraz": [{"Name": "Shiraz", "Country Code": "IR", "Population": 1249942.0, "Lat": 29.61031, "Lon": 52.53113}], "Shirbin": [{"Name": "Shirb\u012bn", "Country Code": "EG", "Population": 76081.0, "Lat": 31.19688, "Lon": 31.5243}], "Shirdi": [{"Name": "Shirdi", "Country Code": "IN", "Population": 31978.0, "Lat": 19.76616, "Lon": 74.47738}], "Shirebrook": [{"Name": "Shirebrook", "Country Code": "GB", "Population": 10885.0, "Lat": 53.20333, "Lon": -1.21336}], "Shiree": [{"Name": "Shiree", "Country Code": "MN", "Population": 0.0, "Lat": 45.85, "Lon": 103.4}, {"Name": "Shiree", "Country Code": "MN", "Population": 0.0, "Lat": 47.49714, "Lon": 96.80311}], "Shireet": [{"Name": "Shireet", "Country Code": "MN", "Population": 0.0, "Lat": 45.72727, "Lon": 112.35563}], "Shiremanstown": [{"Name": "Shiremanstown", "Country Code": "US", "Population": 1580.0, "Lat": 40.22342, "Lon": -76.95359}], "Shiremoor": [{"Name": "Shiremoor", "Country Code": "GB", "Population": 4889.0, "Lat": 55.03535, "Lon": -1.5095}], "Shirgaon": [{"Name": "Shirgaon", "Country Code": "IN", "Population": 5844.0, "Lat": 19.69589, "Lon": 72.71527}], "Shirgjan": [{"Name": "Shirgjan", "Country Code": "AL", "Population": 0.0, "Lat": 41.05194, "Lon": 20.05333}], "Shirhatti": [{"Name": "Shirhatti", "Country Code": "IN", "Population": 16604.0, "Lat": 15.23352, "Lon": 75.57996}], "Shiringushi": [{"Name": "Shiringushi", "Country Code": "RU", "Population": 2369.0, "Lat": 53.84851, "Lon": 42.76759}], "Shirland": [{"Name": "Shirland", "Country Code": "GB", "Population": 3447.0, "Lat": 53.12155, "Lon": -1.40464}], "Shirley": [{"Name": "Shirley", "Country Code": "GB", "Population": 14296.0, "Lat": 51.37762, "Lon": -0.04961}, {"Name": "Shirley", "Country Code": "GB", "Population": 32000.0, "Lat": 52.41074, "Lon": -1.81952}, {"Name": "Shirley", "Country Code": "NZ", "Population": 7000.0, "Lat": -43.49833, "Lon": 172.65013}, {"Name": "Shirley", "Country Code": "US", "Population": 1441.0, "Lat": 42.5437, "Lon": -71.64951}, {"Name": "Shirley", "Country Code": "US", "Population": 27854.0, "Lat": 40.80149, "Lon": -72.8676}], "Shirochanka": [{"Name": "Shirochanka", "Country Code": "RU", "Population": 5853.0, "Lat": 46.65616, "Lon": 38.33676}], "Shiroi": [{"Name": "Shiroi", "Country Code": "JP", "Population": 55314.0, "Lat": 35.8, "Lon": 140.06667}], "Shiroishi": [{"Name": "Shiroishi", "Country Code": "JP", "Population": 33330.0, "Lat": 38.00333, "Lon": 140.61833}], "Shirokaya Rechka": [{"Name": "Shirokaya Rechka", "Country Code": "RU", "Population": 1131.0, "Lat": 56.79858, "Lon": 60.48522}], "Shirokiy": [{"Name": "Shirokiy", "Country Code": "RU", "Population": 1519.0, "Lat": 49.75907, "Lon": 129.51988}], "Shirokovskiy": [{"Name": "Shirokovskiy", "Country Code": "RU", "Population": 1823.0, "Lat": 58.8411, "Lon": 57.785}], "Shirokoye": [{"Name": "Shirokoye", "Country Code": "UA", "Population": 1491.0, "Lat": 45.20029, "Lon": 34.05069}], "Shirone": [{"Name": "Shirone", "Country Code": "JP", "Population": 41406.0, "Lat": 37.76354, "Lon": 139.02199}], "Shirong": [{"Name": "Shirong", "Country Code": "CN", "Population": 0.0, "Lat": 29.35092, "Lon": 102.65248}], "Shirpur": [{"Name": "Shirpur", "Country Code": "IN", "Population": 69540.0, "Lat": 21.34821, "Lon": 74.88035}], "Shirvan": [{"Name": "Sh\u012brv\u0101n", "Country Code": "IR", "Population": 82790.0, "Lat": 37.39669, "Lon": 57.92952}], "Shirwal": [{"Name": "Shirwal", "Country Code": "IN", "Population": 12703.0, "Lat": 18.15059, "Lon": 73.97788}], "Shishan": [{"Name": "Shishan", "Country Code": "CN", "Population": 0.0, "Lat": 31.29883, "Lon": 120.56516}], "Shishgarh": [{"Name": "Sh\u012bshgarh", "Country Code": "IN", "Population": 23471.0, "Lat": 28.72928, "Lon": 79.31469}], "Shishi": [{"Name": "Shishi", "Country Code": "CN", "Population": 0.0, "Lat": 24.74203, "Lon": 118.63638}], "Shishkin Les": [{"Name": "Shishkin Les", "Country Code": "RU", "Population": 3913.0, "Lat": 55.41057, "Lon": 37.18853}], "Shishtavec": [{"Name": "Shishtavec", "Country Code": "AL", "Population": 0.0, "Lat": 41.98, "Lon": 20.60583}], "Shiso": [{"Name": "Shis\u014d", "Country Code": "JP", "Population": 35639.0, "Lat": 34.98107, "Lon": 134.56398}], "Shisui": [{"Name": "Shisui", "Country Code": "JP", "Population": 20660.0, "Lat": 35.71667, "Lon": 140.26667}], "Shitan": [{"Name": "Shitan", "Country Code": "CN", "Population": 19375.0, "Lat": 30.06896, "Lon": 106.50291}, {"Name": "Shitan", "Country Code": "CN", "Population": 11295.0, "Lat": 29.17611, "Lon": 106.88528}], "Shitanjing": [{"Name": "Shitanjing", "Country Code": "CN", "Population": 78765.0, "Lat": 39.23417, "Lon": 106.34389}], "Shitara": [{"Name": "Shitara", "Country Code": "JP", "Population": 4531.0, "Lat": 35.1, "Lon": 137.56667}], "Shitkino": [{"Name": "Shitkino", "Country Code": "RU", "Population": 2363.0, "Lat": 56.3703, "Lon": 98.3543}], "Shituo": [{"Name": "Shituo", "Country Code": "CN", "Population": 26144.0, "Lat": 29.71613, "Lon": 107.13564}], "Shivaji Nagar": [{"Name": "Shivaji Nagar", "Country Code": "IN", "Population": 1000000.0, "Lat": 18.53017, "Lon": 73.85263}], "Shivani Pisa": [{"Name": "Shivani Pisa", "Country Code": "IN", "Population": 2021.0, "Lat": 20.0955, "Lon": 76.45295}], "Shiveegovi": [{"Name": "Shiveegov\u012d", "Country Code": "MN", "Population": 0.0, "Lat": 46.10558, "Lon": 108.62061}], "Shively": [{"Name": "Shively", "Country Code": "US", "Population": 15713.0, "Lat": 38.20007, "Lon": -85.82274}], "Shivpuri": [{"Name": "Shivpuri", "Country Code": "IN", "Population": 164215.0, "Lat": 25.42378, "Lon": 77.66223}], "Shivrajpur": [{"Name": "Shivr\u0101jpur", "Country Code": "IN", "Population": 6705.0, "Lat": 22.42319, "Lon": 73.60865}], "Shiwan": [{"Name": "Shiwan", "Country Code": "CN", "Population": 40330.0, "Lat": 21.75, "Lon": 109.2}, {"Name": "Shiwan", "Country Code": "CN", "Population": 16103.0, "Lat": 29.61475, "Lon": 105.89463}, {"Name": "Shiwan", "Country Code": "CN", "Population": 82031.0, "Lat": 23.00107, "Lon": 113.077}], "Shixi": [{"Name": "Shixi", "Country Code": "CN", "Population": 9982.0, "Lat": 29.33522, "Lon": 107.03929}], "Shixia": [{"Name": "Shixia", "Country Code": "CN", "Population": 11072.0, "Lat": 33.7834, "Lon": 105.38769}], "Shixing": [{"Name": "Shixing", "Country Code": "CN", "Population": 72996.0, "Lat": 24.94824, "Lon": 114.06572}], "Shiyan": [{"Name": "Shiyan", "Country Code": "CN", "Population": 3460000.0, "Lat": 32.6475, "Lon": 110.77806}, {"Name": "Shiyan", "Country Code": "CN", "Population": 48193.0, "Lat": 30.08345, "Lon": 107.17221}], "Shiye": [{"Name": "Shiye", "Country Code": "CN", "Population": 9069.0, "Lat": 28.38168, "Lon": 109.05747}], "Shiyeli": [{"Name": "Shiyeli", "Country Code": "KZ", "Population": 29832.0, "Lat": 44.17057, "Lon": 66.73376}], "Shiyu": [{"Name": "Shiyu", "Country Code": "CN", "Population": 14050.0, "Lat": 29.77161, "Lon": 106.09342}], "Shizhai": [{"Name": "Shizhai", "Country Code": "CN", "Population": 62956.0, "Lat": 34.80556, "Lon": 116.63889}], "Shizhi": [{"Name": "Shizhi", "Country Code": "CN", "Population": 29085.0, "Lat": 30.05304, "Lon": 107.79426}], "Shizi": [{"Name": "Shizi", "Country Code": "CN", "Population": 5766.0, "Lat": 33.74401, "Lon": 104.68028}], "Shizilu": [{"Name": "Shizilu", "Country Code": "CN", "Population": 86749.0, "Lat": 35.17111, "Lon": 118.82889}], "Shizuishan": [{"Name": "Shizuishan", "Country Code": "CN", "Population": 472472.0, "Lat": 38.98082, "Lon": 106.3892}, {"Name": "Shizuishan", "Country Code": "CN", "Population": 136570.0, "Lat": 39.23333, "Lon": 106.76944}], "Shizukuishi": [{"Name": "Shizukuishi", "Country Code": "JP", "Population": 16263.0, "Lat": 39.69414, "Lon": 140.98442}], "Shizunai-furukawacho": [{"Name": "Shizunai-furukawach\u014d", "Country Code": "JP", "Population": 22436.0, "Lat": 42.33389, "Lon": 142.36694}], "Shizuoka": [{"Name": "Shizuoka", "Country Code": "JP", "Population": 690881.0, "Lat": 34.98333, "Lon": 138.38333}], "Shklo": [{"Name": "Shklo", "Country Code": "UA", "Population": 6069.0, "Lat": 49.95675, "Lon": 23.54408}], "Shklow": [{"Name": "Shklow", "Country Code": "BY", "Population": 13485.0, "Lat": 54.2131, "Lon": 30.2877}], "Shkoder": [{"Name": "Shkod\u00ebr", "Country Code": "AL", "Population": 88245.0, "Lat": 42.06828, "Lon": 19.51258}], "Shkol'noye": [{"Name": "Shkol\u2019noye", "Country Code": "UA", "Population": 1964.0, "Lat": 45.05758, "Lon": 33.89737}], "Shkotovo": [{"Name": "Shkotovo", "Country Code": "RU", "Population": 5221.0, "Lat": 43.32092, "Lon": 132.35433}], "Shkurinskaya": [{"Name": "Shkurinskaya", "Country Code": "RU", "Population": 5005.0, "Lat": 46.5858, "Lon": 39.3599}], "Shlissel'burg": [{"Name": "Shlissel\u2019burg", "Country Code": "RU", "Population": 12115.0, "Lat": 59.9473, "Lon": 31.03845}], "Shlomi": [{"Name": "Shlomi", "Country Code": "IL", "Population": 6511.0, "Lat": 33.07216, "Lon": 35.14452}], "Shnogh": [{"Name": "Shnogh", "Country Code": "AM", "Population": 2872.0, "Lat": 41.14693, "Lon": 44.84043}], "Sho'rchi": [{"Name": "Sho\u2018rchi", "Country Code": "UZ", "Population": 25000.0, "Lat": 37.99944, "Lon": 67.7875}], "Sho'rsuv": [{"Name": "Sho\u2018rsuv", "Country Code": "UZ", "Population": 2400.0, "Lat": 40.28431, "Lon": 70.79972}], "Shoal Bay": [{"Name": "Shoal Bay", "Country Code": "AU", "Population": 1957.0, "Lat": -32.72231, "Lon": 152.17498}], "Shoal Creek": [{"Name": "Shoal Creek", "Country Code": "US", "Population": 1400.0, "Lat": 33.43076, "Lon": -86.61092}], "Shoalhaven Heads": [{"Name": "Shoalhaven Heads", "Country Code": "AU", "Population": 2987.0, "Lat": -34.85086, "Lon": 150.74512}], "Shoals": [{"Name": "Shoals", "Country Code": "US", "Population": 782.0, "Lat": 38.66644, "Lon": -86.79111}], "Shoalwater": [{"Name": "Shoalwater", "Country Code": "AU", "Population": 3928.0, "Lat": -32.29088, "Lon": 115.71101}], "Shobara": [{"Name": "Sh\u014dbara", "Country Code": "JP", "Population": 33476.0, "Lat": 34.85, "Lon": 133.01667}], "Shobu": [{"Name": "Sh\u014dbu", "Country Code": "JP", "Population": 22156.0, "Lat": 36.06667, "Lon": 139.6}], "Shoctic": [{"Name": "Shoctic", "Country Code": "MX", "Population": 1717.0, "Lat": 17.22361, "Lon": -92.48806}], "Shoemakersville": [{"Name": "Shoemakersville", "Country Code": "US", "Population": 1369.0, "Lat": 40.50093, "Lon": -75.96993}], "Shofirkon Shahri": [{"Name": "Shofirkon Shahri", "Country Code": "UZ", "Population": 26527.0, "Lat": 40.12, "Lon": 64.50139}], "Shoham": [{"Name": "Shoham", "Country Code": "IL", "Population": 20740.0, "Lat": 31.99866, "Lon": 34.94559}], "Shohimardon": [{"Name": "Shohimardon", "Country Code": "UZ", "Population": 5100.0, "Lat": 39.98322, "Lon": 71.80512}], "Shokan": [{"Name": "Shokan", "Country Code": "US", "Population": 1183.0, "Lat": 41.97343, "Lon": -74.21209}], "Sholakkorgan": [{"Name": "Sholakkorgan", "Country Code": "KZ", "Population": 10836.0, "Lat": 43.76453, "Lon": 69.17856}], "Sholapur": [{"Name": "Sholapur", "Country Code": "IN", "Population": 997281.0, "Lat": 17.67152, "Lon": 75.91044}], "Sholinghur": [{"Name": "Sholinghur", "Country Code": "IN", "Population": 28645.0, "Lat": 13.1181, "Lon": 79.42025}], "Sholokhove": [{"Name": "Sholokhove", "Country Code": "UA", "Population": 3097.0, "Lat": 47.69805, "Lon": 34.03347}], "Sholokhovskiy": [{"Name": "Sholokhovskiy", "Country Code": "RU", "Population": 10062.0, "Lat": 48.28071, "Lon": 41.04592}], "Shonai": [{"Name": "Shonai", "Country Code": "JP", "Population": 20940.0, "Lat": 38.84846, "Lon": 139.90308}], "Shone": [{"Name": "Shon\u0113", "Country Code": "ET", "Population": 41900.0, "Lat": 7.13333, "Lon": 37.95}], "Shonguy": [{"Name": "Shonguy", "Country Code": "RU", "Population": 1122.0, "Lat": 68.75261, "Lon": 33.14595}], "Shoranur": [{"Name": "Sh\u014dran\u016br", "Country Code": "IN", "Population": 42694.0, "Lat": 10.76181, "Lon": 76.27078}], "Shorap'ani": [{"Name": "Shorap\u2019ani", "Country Code": "GE", "Population": 1258.0, "Lat": 42.09595, "Lon": 43.08248}], "Shorapur": [{"Name": "Shor\u0101pur", "Country Code": "IN", "Population": 49501.0, "Lat": 16.521, "Lon": 76.75738}], "Shoreacres": [{"Name": "Shoreacres", "Country Code": "US", "Population": 1603.0, "Lat": 29.62023, "Lon": -95.00993}], "Shoreham-by-Sea": [{"Name": "Shoreham-by-Sea", "Country Code": "GB", "Population": 19175.0, "Lat": 50.83413, "Lon": -0.27431}], "Shoreline": [{"Name": "Shoreline", "Country Code": "US", "Population": 55439.0, "Lat": 47.75565, "Lon": -122.34152}], "Shoresh": [{"Name": "Shoresh", "Country Code": "IL", "Population": 1247.0, "Lat": 31.79711, "Lon": 35.06525}], "Shoreview": [{"Name": "Shoreview", "Country Code": "US", "Population": 26477.0, "Lat": 45.07913, "Lon": -93.14717}], "Shorewell Park": [{"Name": "Shorewell Park", "Country Code": "AU", "Population": 2020.0, "Lat": -41.0699, "Lon": 145.87689}], "Shorewood": [{"Name": "Shorewood", "Country Code": "US", "Population": 7614.0, "Lat": 44.9008, "Lon": -93.58912}, {"Name": "Shorewood", "Country Code": "US", "Population": 13311.0, "Lat": 43.08918, "Lon": -87.88758}, {"Name": "Shorewood", "Country Code": "US", "Population": 16747.0, "Lat": 41.52003, "Lon": -88.20173}], "Shorewood Forest": [{"Name": "Shorewood Forest", "Country Code": "US", "Population": 2708.0, "Lat": 41.46315, "Lon": -87.14472}], "Shorewood Hills": [{"Name": "Shorewood Hills", "Country Code": "US", "Population": 2037.0, "Lat": 43.0775, "Lon": -89.44568}], "Shorewood-Tower Hills-Harbert": [{"Name": "Shorewood-Tower Hills-Harbert", "Country Code": "US", "Population": 1344.0, "Lat": 41.88169, "Lon": -86.61409}], "Shorkot": [{"Name": "Shorkot", "Country Code": "PK", "Population": 67439.0, "Lat": 31.91023, "Lon": 70.87757}], "Shorncliffe": [{"Name": "Shorncliffe", "Country Code": "AU", "Population": 1842.0, "Lat": -27.32759, "Lon": 153.08161}], "Short Hills": [{"Name": "Short Hills", "Country Code": "US", "Population": 13165.0, "Lat": 40.74788, "Lon": -74.32543}], "Short Pump": [{"Name": "Short Pump", "Country Code": "US", "Population": 24729.0, "Lat": 37.65042, "Lon": -77.61249}], "Shortandy": [{"Name": "Shortandy", "Country Code": "KZ", "Population": 6980.0, "Lat": 51.69934, "Lon": 70.99129}], "Shortland": [{"Name": "Shortland", "Country Code": "AU", "Population": 3922.0, "Lat": -32.87883, "Lon": 151.69105}], "Shortlands": [{"Name": "Shortlands", "Country Code": "GB", "Population": 9303.0, "Lat": 51.39914, "Lon": 0.0044}], "Shortsville": [{"Name": "Shortsville", "Country Code": "US", "Population": 1429.0, "Lat": 42.9559, "Lon": -77.22081}], "Shosanbetsu": [{"Name": "Shosanbetsu", "Country Code": "JP", "Population": 1249.0, "Lat": 44.53361, "Lon": 141.76972}], "Shoshone": [{"Name": "Shoshone", "Country Code": "US", "Population": 1488.0, "Lat": 42.93602, "Lon": -114.40588}], "Shoshong": [{"Name": "Shoshong", "Country Code": "BW", "Population": 8887.0, "Lat": -23.0389, "Lon": 26.51}], "Shostka": [{"Name": "Shostka", "Country Code": "UA", "Population": 73197.0, "Lat": 51.86296, "Lon": 33.4698}], "Shotley Gate": [{"Name": "Shotley Gate", "Country Code": "GB", "Population": 1511.0, "Lat": 51.95789, "Lon": 1.26877}], "Shotton": [{"Name": "Shotton", "Country Code": "GB", "Population": 0.0, "Lat": 54.78333, "Lon": -1.36667}], "Shotts": [{"Name": "Shotts", "Country Code": "GB", "Population": 8235.0, "Lat": 55.81951, "Lon": -3.79749}], "Shotwick": [{"Name": "Shotwick", "Country Code": "GB", "Population": 0.0, "Lat": 53.23938, "Lon": -2.99056}], "Shouchun": [{"Name": "Shouchun", "Country Code": "CN", "Population": 0.0, "Lat": 32.58162, "Lon": 116.79291}], "Shouguang": [{"Name": "Shouguang", "Country Code": "CN", "Population": 473620.0, "Lat": 36.88, "Lon": 118.7375}], "Shouqiao": [{"Name": "Shouqiao", "Country Code": "CN", "Population": 6388.0, "Lat": 29.89955, "Lon": 105.89419}], "Shoushan": [{"Name": "Shoushan", "Country Code": "CN", "Population": 1470.0, "Lat": 26.96444, "Lon": 119.16167}, {"Name": "Shoushan", "Country Code": "CN", "Population": 0.0, "Lat": 34.27771, "Lon": 107.74619}], "Shouson Hill": [{"Name": "Shouson Hill", "Country Code": "HK", "Population": 1737.0, "Lat": 22.24843, "Lon": 114.17993}], "Shouxian": [{"Name": "Shouxian", "Country Code": "CN", "Population": 76030.0, "Lat": 34.84648, "Lon": 116.45884}], "Shouxihu": [{"Name": "Shouxihu", "Country Code": "CN", "Population": 0.0, "Lat": 32.42089, "Lon": 119.40435}], "Shovgenovskiy": [{"Name": "Shovgenovskiy", "Country Code": "RU", "Population": 3830.0, "Lat": 45.01887, "Lon": 40.22585}], "Shovot": [{"Name": "Shovot", "Country Code": "UZ", "Population": 26950.0, "Lat": 41.65817, "Lon": 60.29451}], "Show Low": [{"Name": "Show Low", "Country Code": "US", "Population": 10860.0, "Lat": 34.25421, "Lon": -110.02983}], "Showt": [{"Name": "Show\u0163", "Country Code": "IR", "Population": 19759.0, "Lat": 39.2192, "Lon": 44.77}], "Shpola": [{"Name": "Shpola", "Country Code": "UA", "Population": 16674.0, "Lat": 49.01291, "Lon": 31.3926}], "Shpykiv": [{"Name": "Shpykiv", "Country Code": "UA", "Population": 2974.0, "Lat": 48.78411, "Lon": 28.56359}], "Shramkivka": [{"Name": "Shramkivka", "Country Code": "UA", "Population": 2709.0, "Lat": 50.1396, "Lon": 32.12512}], "Shreve": [{"Name": "Shreve", "Country Code": "US", "Population": 1497.0, "Lat": 40.68145, "Lon": -82.02181}], "Shreveport": [{"Name": "Shreveport", "Country Code": "US", "Population": 197204.0, "Lat": 32.52515, "Lon": -93.75018}], "Shrewsbury": [{"Name": "Shrewsbury", "Country Code": "GB", "Population": 76782.0, "Lat": 52.71009, "Lon": -2.75208}, {"Name": "Shrewsbury", "Country Code": "US", "Population": 6254.0, "Lat": 38.59033, "Lon": -90.33678}, {"Name": "Shrewsbury", "Country Code": "US", "Population": 4131.0, "Lat": 40.32955, "Lon": -74.06153}, {"Name": "Shrewsbury", "Country Code": "US", "Population": 3809.0, "Lat": 40.18261, "Lon": -74.52932}, {"Name": "Shrewsbury", "Country Code": "US", "Population": 33893.0, "Lat": 42.29593, "Lon": -71.71285}, {"Name": "Shrewsbury", "Country Code": "US", "Population": 3863.0, "Lat": 39.76871, "Lon": -76.67969}], "Shrewton": [{"Name": "Shrewton", "Country Code": "GB", "Population": 1723.0, "Lat": 51.19194, "Lon": -1.90264}], "Shrigonda": [{"Name": "Shr\u012bgonda", "Country Code": "IN", "Population": 28208.0, "Lat": 18.61527, "Lon": 74.69895}], "Shrirampur": [{"Name": "Shr\u012br\u0101mpur", "Country Code": "IN", "Population": 226317.0, "Lat": 22.75278, "Lon": 88.34222}], "Shrirangapattana": [{"Name": "Shr\u012brangapattana", "Country Code": "IN", "Population": 23927.0, "Lat": 12.42264, "Lon": 76.68439}], "Shrivenham": [{"Name": "Shrivenham", "Country Code": "GB", "Population": 4676.0, "Lat": 51.59853, "Lon": -1.65461}], "Shrub Oak": [{"Name": "Shrub Oak", "Country Code": "US", "Population": 2011.0, "Lat": 41.32759, "Lon": -73.81958}], "Shtime": [{"Name": "Shtime", "Country Code": "XK", "Population": 35000.0, "Lat": 42.43306, "Lon": 21.03972}], "Shtip": [{"Name": "Shtip", "Country Code": "MK", "Population": 48279.0, "Lat": 41.74583, "Lon": 22.19583}], "Shtiqen": [{"Name": "Shtiq\u00ebn", "Country Code": "AL", "Population": 0.0, "Lat": 42.04056, "Lon": 20.43417}], "Shtormovoye": [{"Name": "Shtormovoye", "Country Code": "UA", "Population": 1124.0, "Lat": 45.26717, "Lon": 33.08693}], "Shtulim": [{"Name": "Shtulim", "Country Code": "IL", "Population": 2116.0, "Lat": 31.77354, "Lon": 34.68388}], "Shturmovoye": [{"Name": "Shturmovoye", "Country Code": "UA", "Population": 1535.0, "Lat": 44.56767, "Lon": 33.62245}], "Shtykovo": [{"Name": "Shtykovo", "Country Code": "RU", "Population": 1285.0, "Lat": 43.38918, "Lon": 132.36129}], "Shu": [{"Name": "Shu", "Country Code": "KZ", "Population": 39785.0, "Lat": 43.60507, "Lon": 73.76221}], "Shuakhevi": [{"Name": "Shuakhevi", "Country Code": "GE", "Population": 797.0, "Lat": 41.62423, "Lon": 42.18575}], "Shuangcha": [{"Name": "Shuangcha", "Country Code": "CN", "Population": 5398.0, "Lat": 34.56147, "Lon": 102.82985}], "Shuangcheng": [{"Name": "Shuangcheng", "Country Code": "CN", "Population": 130710.0, "Lat": 45.3798, "Lon": 126.30711}], "Shuangfeng": [{"Name": "Shuangfeng", "Country Code": "CN", "Population": 33282.0, "Lat": 30.02333, "Lon": 106.42963}], "Shuangfengqiao": [{"Name": "Shuangfengqiao", "Country Code": "CN", "Population": 67717.0, "Lat": 29.71859, "Lon": 106.62712}], "Shuangfu": [{"Name": "Shuangfu", "Country Code": "CN", "Population": 47962.0, "Lat": 29.41359, "Lon": 106.27014}], "Shuanggang": [{"Name": "Shuanggang", "Country Code": "CN", "Population": 3914.0, "Lat": 39.04395, "Lon": 117.31014}], "Shuanggou": [{"Name": "Shuanggou", "Country Code": "CN", "Population": 45697.0, "Lat": 34.03528, "Lon": 117.57806}], "Shuanghe": [{"Name": "Shuanghe", "Country Code": "CN", "Population": 9826.0, "Lat": 29.54932, "Lon": 107.71841}, {"Name": "Shuanghe", "Country Code": "CN", "Population": 7871.0, "Lat": 31.94216, "Lon": 108.34821}, {"Name": "Shuanghe", "Country Code": "CN", "Population": 49411.0, "Lat": 29.32074, "Lon": 105.56942}], "Shuanghejiedao": [{"Name": "Shuanghejiedao", "Country Code": "CN", "Population": 0.0, "Lat": 30.37448, "Lon": 106.77266}], "Shuanghekou": [{"Name": "Shuanghekou", "Country Code": "CN", "Population": 33715.0, "Lat": 30.75398, "Lon": 108.36958}, {"Name": "Shuanghekou", "Country Code": "CN", "Population": 12739.0, "Lat": 29.61861, "Lon": 106.91833}], "Shuanghuai": [{"Name": "Shuanghuai", "Country Code": "CN", "Population": 39907.0, "Lat": 30.18416, "Lon": 106.5558}], "Shuangjiang": [{"Name": "Shuangjiang", "Country Code": "CN", "Population": 8320.0, "Lat": 26.15467, "Lon": 109.7138}, {"Name": "Shuangjiang", "Country Code": "CN", "Population": 0.0, "Lat": 30.92624, "Lon": 108.71044}, {"Name": "Shuangjiang", "Country Code": "CN", "Population": 16773.0, "Lat": 25.96667, "Lon": 108.92417}, {"Name": "Shuangjiang", "Country Code": "CN", "Population": 0.0, "Lat": 24.17261, "Lon": 102.40049}, {"Name": "Shuangjiang", "Country Code": "CN", "Population": 33771.0, "Lat": 30.21754, "Lon": 105.7452}], "Shuangliao": [{"Name": "Shuangliao", "Country Code": "CN", "Population": 93666.0, "Lat": 43.51067, "Lon": 123.50069}], "Shuanglong": [{"Name": "Shuanglong", "Country Code": "CN", "Population": 29213.0, "Lat": 29.95972, "Lon": 107.20356}, {"Name": "Shuanglong", "Country Code": "CN", "Population": 44055.0, "Lat": 28.45208, "Lon": 104.34491}, {"Name": "Shuanglong", "Country Code": "CN", "Population": 3620.0, "Lat": 29.08953, "Lon": 108.25773}, {"Name": "Shuanglong", "Country Code": "CN", "Population": 18646.0, "Lat": 31.19494, "Lon": 109.88054}], "Shuanglongchang": [{"Name": "Shuanglongchang", "Country Code": "CN", "Population": 12372.0, "Lat": 30.13224, "Lon": 107.72071}], "Shuanglonghu": [{"Name": "Shuanglonghu", "Country Code": "CN", "Population": 128563.0, "Lat": 29.71617, "Lon": 106.60684}], "Shuanglu": [{"Name": "Shuanglu", "Country Code": "CN", "Population": 14275.0, "Lat": 29.86429, "Lon": 107.77483}, {"Name": "Shuanglu", "Country Code": "CN", "Population": 26582.0, "Lat": 29.48543, "Lon": 105.7629}], "Shuangluan": [{"Name": "Shuangluan", "Country Code": "CN", "Population": 0.0, "Lat": 40.96109, "Lon": 117.79621}], "Shuangqiao": [{"Name": "Shuangqiao", "Country Code": "CN", "Population": 0.0, "Lat": 40.97986, "Lon": 117.93399}], "Shuangquan": [{"Name": "Shuangquan", "Country Code": "CN", "Population": 8875.0, "Lat": 29.02982, "Lon": 108.64652}], "Shuangshan": [{"Name": "Shuangshan", "Country Code": "CN", "Population": 7329.0, "Lat": 29.8212, "Lon": 105.82878}], "Shuangshi": [{"Name": "Shuangshi", "Country Code": "CN", "Population": 24315.0, "Lat": 29.40031, "Lon": 105.83781}], "Shuangshipu": [{"Name": "Shuangshipu", "Country Code": "CN", "Population": 0.0, "Lat": 33.91705, "Lon": 106.52466}], "Shuangshu": [{"Name": "Shuangshu", "Country Code": "CN", "Population": 2134.0, "Lat": 39.56389, "Lon": 117.02444}], "Shuangta": [{"Name": "Shuangta", "Country Code": "CN", "Population": 0.0, "Lat": 31.30408, "Lon": 120.62968}], "Shuangtang": [{"Name": "Shuangtang", "Country Code": "CN", "Population": 30958.0, "Lat": 34.36529, "Lon": 118.47472}], "Shuangtashan": [{"Name": "Shuangtashan", "Country Code": "CN", "Population": 0.0, "Lat": 40.94778, "Lon": 117.79472}], "Shuangxi": [{"Name": "Shuangxi", "Country Code": "CN", "Population": 3980.0, "Lat": 27.02248, "Lon": 119.0414}, {"Name": "Shuangxi", "Country Code": "CN", "Population": 0.0, "Lat": 28.86295, "Lon": 115.35194}, {"Name": "Shuangxi", "Country Code": "CN", "Population": 1040.0, "Lat": 27.22833, "Lon": 109.85583}], "Shuangyang": [{"Name": "Shuangyang", "Country Code": "CN", "Population": 62137.0, "Lat": 43.52259, "Lon": 125.65948}, {"Name": "Shuangyang", "Country Code": "CN", "Population": 2111.0, "Lat": 31.4766, "Lon": 109.82302}], "Shuangyashan": [{"Name": "Shuangyashan", "Country Code": "CN", "Population": 600000.0, "Lat": 46.67686, "Lon": 131.13273}], "Shuangzhucun": [{"Name": "Shuangzhucun", "Country Code": "CN", "Population": 3390.0, "Lat": 26.62939, "Lon": 118.64721}], "Shubarkol": [{"Name": "Shubark\u00f6l", "Country Code": "KZ", "Population": 1247.0, "Lat": 48.88222, "Lon": 68.80722}], "Shubarkuduk": [{"Name": "Shubarkuduk", "Country Code": "KZ", "Population": 11733.0, "Lat": 49.14391, "Lon": 56.48196}], "Shubarshi": [{"Name": "Shubarshi", "Country Code": "KZ", "Population": 8651.0, "Lat": 48.58022, "Lon": 57.18289}], "Shubenka": [{"Name": "Shubenka", "Country Code": "RU", "Population": 1200.0, "Lat": 52.6551, "Lon": 85.09858}], "Shubra al Khaymah": [{"Name": "Shubr\u0101 al Khaymah", "Country Code": "EG", "Population": 1240289.0, "Lat": 30.12511, "Lon": 31.25053}], "Shubrakhit": [{"Name": "Shubr\u0101kh\u012bt", "Country Code": "EG", "Population": 41233.0, "Lat": 31.02795, "Lon": 30.71493}], "Shubranets": [{"Name": "Shubranets", "Country Code": "UA", "Population": 1888.0, "Lat": 48.39552, "Lon": 25.88794}], "Shucheng": [{"Name": "Shucheng", "Country Code": "CN", "Population": 0.0, "Lat": 34.12128, "Lon": 118.78078}], "Shucheng Chengguanzhen": [{"Name": "Shucheng Chengguanzhen", "Country Code": "CN", "Population": 0.0, "Lat": 31.47448, "Lon": 116.95207}], "Shucushuyacu": [{"Name": "Shucushuyacu", "Country Code": "PE", "Population": 0.0, "Lat": -6.01667, "Lon": -75.85}], "Shudayag": [{"Name": "Shudayag", "Country Code": "RU", "Population": 3446.0, "Lat": 63.52665, "Lon": 53.60582}], "Shuen Wan": [{"Name": "Shuen Wan", "Country Code": "HK", "Population": 22465.0, "Lat": 22.46767, "Lon": 114.20812}], "Shufah": [{"Name": "Sh\u016bfah", "Country Code": "PS", "Population": 2174.0, "Lat": 32.27551, "Lon": 35.08135}], "Shuguang": [{"Name": "Shuguang", "Country Code": "CN", "Population": 0.0, "Lat": 47.72411, "Lon": 128.67399}], "Shugurovo": [{"Name": "Shugurovo", "Country Code": "RU", "Population": 2243.0, "Lat": 54.50828, "Lon": 52.13265}], "Shui Chuen O": [{"Name": "Shui Chuen O", "Country Code": "HK", "Population": 19719.0, "Lat": 22.37161, "Lon": 114.19778}], "Shuibian": [{"Name": "Shuibian", "Country Code": "CN", "Population": 0.0, "Lat": 27.60805, "Lon": 115.32636}], "Shuiche": [{"Name": "Shuiche", "Country Code": "CN", "Population": 3550.0, "Lat": 27.68694, "Lon": 110.99972}], "Shuidatian": [{"Name": "Shuidatian", "Country Code": "CN", "Population": 1080.0, "Lat": 27.85222, "Lon": 109.60472}], "Shuidong": [{"Name": "Shuidong", "Country Code": "CN", "Population": 0.0, "Lat": 21.5134, "Lon": 111.00184}], "Shuijiang": [{"Name": "Shuijiang", "Country Code": "CN", "Population": 50918.0, "Lat": 29.2476, "Lon": 107.28443}], "Shuikou": [{"Name": "Shuikou", "Country Code": "CN", "Population": 26827.0, "Lat": 25.91278, "Lon": 109.31361}, {"Name": "Shuikou", "Country Code": "CN", "Population": 62321.0, "Lat": 23.98372, "Lon": 115.89581}, {"Name": "Shuikou", "Country Code": "CN", "Population": 3760.0, "Lat": 26.3836, "Lon": 118.73027}, {"Name": "Shuikou", "Country Code": "CN", "Population": 5729.0, "Lat": 29.93013, "Lon": 106.11268}], "Shuimogou": [{"Name": "Shuimogou", "Country Code": "CN", "Population": 0.0, "Lat": 43.82856, "Lon": 87.6382}], "Shuishi": [{"Name": "Shuishi", "Country Code": "CN", "Population": 9170.0, "Lat": 29.24347, "Lon": 108.69843}], "Shuitian": [{"Name": "Shuitian", "Country Code": "CN", "Population": 5984.0, "Lat": 29.40057, "Lon": 108.73623}], "Shuitou": [{"Name": "Shuitou", "Country Code": "CN", "Population": 0.0, "Lat": 36.97306, "Lon": 111.2091}], "Shuitu": [{"Name": "Shuitu", "Country Code": "CN", "Population": 44551.0, "Lat": 29.78221, "Lon": 106.4974}], "Shuiyang": [{"Name": "Shuiyang", "Country Code": "CN", "Population": 13029.0, "Lat": 33.74844, "Lon": 106.10278}], "Shuizhai": [{"Name": "Shuizhai", "Country Code": "CN", "Population": 140493.0, "Lat": 23.92961, "Lon": 115.76499}], "Shujaabad": [{"Name": "Shujaabad", "Country Code": "PK", "Population": 65952.0, "Lat": 29.88092, "Lon": 71.29344}], "Shujalpur": [{"Name": "Shuj\u0101lpur", "Country Code": "IN", "Population": 47058.0, "Lat": 23.40673, "Lon": 76.7098}], "Shukat as Sufi": [{"Name": "Sh\u016bkat a\u015f \u015e\u016bf\u012b", "Country Code": "PS", "Population": 10566.0, "Lat": 31.25997, "Lon": 34.2826}], "Shul'gin Log": [{"Name": "Shul\u2019gin Log", "Country Code": "RU", "Population": 1100.0, "Lat": 52.16985, "Lon": 85.85573}], "Shulan": [{"Name": "Shulan", "Country Code": "CN", "Population": 77420.0, "Lat": 44.41134, "Lon": 126.94827}], "Shule": [{"Name": "Shule", "Country Code": "CN", "Population": 0.0, "Lat": 39.40231, "Lon": 76.0508}], "Shulin": [{"Name": "Shulin", "Country Code": "TW", "Population": 180044.0, "Lat": 24.99085, "Lon": 121.42199}], "Shulinzhao": [{"Name": "Shulinzhao", "Country Code": "CN", "Population": 0.0, "Lat": 40.39278, "Lon": 110.02694}], "Shullsburg": [{"Name": "Shullsburg", "Country Code": "US", "Population": 1210.0, "Lat": 42.57334, "Lon": -90.23096}], "Shumanay": [{"Name": "Shumanay", "Country Code": "UZ", "Population": 14000.0, "Lat": 42.64281, "Lon": 58.91345}], "Shumanay Shahri": [{"Name": "Shumanay Shahri", "Country Code": "UZ", "Population": 0.0, "Lat": 42.63433, "Lon": 58.9306}], "Shumen": [{"Name": "Shumen", "Country Code": "BG", "Population": 72342.0, "Lat": 43.27064, "Lon": 26.92286}], "Shumerlya": [{"Name": "Shumerlya", "Country Code": "RU", "Population": 35220.0, "Lat": 55.5005, "Lon": 46.41288}], "Shumeyka": [{"Name": "Shumeyka", "Country Code": "RU", "Population": 1370.0, "Lat": 51.56361, "Lon": 46.24833}], "Shumikha": [{"Name": "Shumikha", "Country Code": "RU", "Population": 18499.0, "Lat": 55.22611, "Lon": 63.29611}], "Shumikhinskiy": [{"Name": "Shumikhinskiy", "Country Code": "RU", "Population": 2192.0, "Lat": 58.7448, "Lon": 57.6926}], "Shumilina": [{"Name": "Shumilina", "Country Code": "BY", "Population": 7500.0, "Lat": 55.2985, "Lon": 29.6121}], "Shumsk": [{"Name": "Shumsk", "Country Code": "UA", "Population": 5470.0, "Lat": 50.11775, "Lon": 26.11792}], "Shumskiy": [{"Name": "Shumskiy", "Country Code": "RU", "Population": 3095.0, "Lat": 54.8318, "Lon": 99.1328}], "Shumyachi": [{"Name": "Shumyachi", "Country Code": "RU", "Population": 4607.0, "Lat": 53.8578, "Lon": 32.42551}], "Shun'ga": [{"Name": "Shun\u2019ga", "Country Code": "RU", "Population": 1600.0, "Lat": 62.60263, "Lon": 34.9468}], "Shunan": [{"Name": "Sh\u016bnan", "Country Code": "JP", "Population": 0.0, "Lat": 34.08053, "Lon": 131.82564}], "Shunchang": [{"Name": "Shunchang", "Country Code": "CN", "Population": 0.0, "Lat": 26.79653, "Lon": 117.80532}], "Shunde": [{"Name": "Shunde", "Country Code": "CN", "Population": 0.0, "Lat": 22.80087, "Lon": 113.29208}], "Shunhe": [{"Name": "Shunhe", "Country Code": "CN", "Population": 47330.0, "Lat": 34.84184, "Lon": 116.55722}], "Shunhua": [{"Name": "Shunhua", "Country Code": "CN", "Population": 3589.0, "Lat": 26.086, "Lon": 109.25892}], "Shunling": [{"Name": "Shunling", "Country Code": "CN", "Population": 0.0, "Lat": 25.59167, "Lon": 111.93028}], "Shunping": [{"Name": "Shunping", "Country Code": "CN", "Population": 0.0, "Lat": 38.84407, "Lon": 115.13342}], "Shunqui": [{"Name": "Shunqui", "Country Code": "PE", "Population": 570.0, "Lat": -9.73137, "Lon": -76.78345}], "Shunyi": [{"Name": "Shunyi", "Country Code": "CN", "Population": 117623.0, "Lat": 40.12175, "Lon": 116.64783}], "Shunzhou": [{"Name": "Shunzhou", "Country Code": "CN", "Population": 32074.0, "Lat": 26.6212, "Lon": 100.55426}], "Shuozhou": [{"Name": "Shuozhou", "Country Code": "CN", "Population": 0.0, "Lat": 39.31583, "Lon": 112.4225}], "Shupenze": [{"Name": "Shupenz\u00eb", "Country Code": "AL", "Population": 0.0, "Lat": 41.53, "Lon": 20.42361}], "Shupiyan": [{"Name": "Shup\u012byan", "Country Code": "IN", "Population": 13565.0, "Lat": 33.71723, "Lon": 74.83413}], "Shupluy": [{"Name": "Shupluy", "Country Code": "PE", "Population": 173.0, "Lat": -9.21778, "Lon": -77.69417}], "Shuqba": [{"Name": "Shuqb\u0101", "Country Code": "PS", "Population": 4188.0, "Lat": 31.98695, "Lon": 35.04012}], "Shurdington": [{"Name": "Shurdington", "Country Code": "GB", "Population": 1798.0, "Lat": 51.86264, "Lon": -2.1206}], "Shuren": [{"Name": "Shuren", "Country Code": "CN", "Population": 21009.0, "Lat": 29.98661, "Lon": 107.73923}], "Shurob": [{"Name": "Sh\u016drob", "Country Code": "TJ", "Population": 2900.0, "Lat": 40.04605, "Lon": 70.54117}], "Shurobod": [{"Name": "Sh\u016drobod", "Country Code": "TJ", "Population": 0.0, "Lat": 37.84137, "Lon": 70.04865}], "Shurugwi": [{"Name": "Shurugwi", "Country Code": "ZW", "Population": 22900.0, "Lat": -19.67016, "Lon": 30.00589}], "Shush": [{"Name": "Sh\u016bsh", "Country Code": "IR", "Population": 52284.0, "Lat": 32.1942, "Lon": 48.2436}], "Shushary": [{"Name": "Shushary", "Country Code": "RU", "Population": 15503.0, "Lat": 59.80917, "Lon": 30.38167}], "Shushenskoye": [{"Name": "Shushenskoye", "Country Code": "RU", "Population": 18770.0, "Lat": 53.325, "Lon": 91.93556}], "Shushice": [{"Name": "Shushic\u00eb", "Country Code": "AL", "Population": 0.0, "Lat": 41.0975, "Lon": 20.14833}], "Shushtar": [{"Name": "Sh\u016bshtar", "Country Code": "IR", "Population": 77507.0, "Lat": 32.04972, "Lon": 48.84843}], "Shutesbury": [{"Name": "Shutesbury", "Country Code": "US", "Population": 1842.0, "Lat": 42.45648, "Lon": -72.40981}], "Shuvakish": [{"Name": "Shuvakish", "Country Code": "RU", "Population": 1067.0, "Lat": 56.9187, "Lon": 60.47727}], "Shuvalovo": [{"Name": "Shuvalovo", "Country Code": "RU", "Population": 6000.0, "Lat": 60.04903, "Lon": 30.2936}], "Shuya": [{"Name": "Shuya", "Country Code": "RU", "Population": 3261.0, "Lat": 61.95251, "Lon": 34.23271}, {"Name": "Shuya", "Country Code": "RU", "Population": 60705.0, "Lat": 56.84864, "Lon": 41.3869}], "Shuyskoye": [{"Name": "Shuyskoye", "Country Code": "RU", "Population": 2389.0, "Lat": 59.37356, "Lon": 41.03047}], "Shuyukh Tahtani": [{"Name": "Shuy\u016bkh Ta\u1e29t\u0101n\u012b", "Country Code": "SY", "Population": 0.0, "Lat": 36.75059, "Lon": 38.07676}], "Shuyukh al 'Arrub": [{"Name": "Shuy\u016bkh al \u2018Arr\u016bb", "Country Code": "PS", "Population": 1527.0, "Lat": 31.61735, "Lon": 35.14366}], "Shvartsevskiy": [{"Name": "Shvartsevskiy", "Country Code": "RU", "Population": 5083.0, "Lat": 54.09174, "Lon": 37.99053}], "Shwak": [{"Name": "Shw\u0101k", "Country Code": "AF", "Population": 0.0, "Lat": 33.42386, "Lon": 69.37684}], "Shwebo": [{"Name": "Shwebo", "Country Code": "MM", "Population": 88914.0, "Lat": 22.56925, "Lon": 95.69818}], "Shyamnagar": [{"Name": "Shyamnagar", "Country Code": "IN", "Population": 441956.0, "Lat": 22.83333, "Lon": 88.36667}], "Shylivtsi": [{"Name": "Shylivtsi", "Country Code": "UA", "Population": 3028.0, "Lat": 48.4262, "Lon": 26.20272}], "Shymkent": [{"Name": "Shymkent", "Country Code": "KZ", "Population": 1200000.0, "Lat": 42.3, "Lon": 69.6}], "Shyngyrlau": [{"Name": "Shyngyrlau", "Country Code": "KZ", "Population": 6218.0, "Lat": 51.09959, "Lon": 54.08412}], "Shypyntsi": [{"Name": "Shypyntsi", "Country Code": "UA", "Population": 3160.0, "Lat": 48.37598, "Lon": 25.75018}], "Shyrivtsi": [{"Name": "Shyrivtsi", "Country Code": "UA", "Population": 1806.0, "Lat": 48.42395, "Lon": 26.29729}], "Shyroke": [{"Name": "Shyroke", "Country Code": "UA", "Population": 1374.0, "Lat": 45.96499, "Lon": 30.0903}, {"Name": "Shyroke", "Country Code": "UA", "Population": 9623.0, "Lat": 47.6855, "Lon": 33.26147}, {"Name": "Shyroke", "Country Code": "UA", "Population": 1001.0, "Lat": 47.95711, "Lon": 38.2316}], "Shyrokolanivka": [{"Name": "Shyrokolanivka", "Country Code": "UA", "Population": 1833.0, "Lat": 47.16609, "Lon": 31.43171}], "Shyryayeve": [{"Name": "Shyryayeve", "Country Code": "UA", "Population": 6537.0, "Lat": 47.38483, "Lon": 30.19065}], "Shyshaky": [{"Name": "Shyshaky", "Country Code": "UA", "Population": 4347.0, "Lat": 49.87574, "Lon": 34.00645}], "Shyshkivtsi": [{"Name": "Shyshkivtsi", "Country Code": "UA", "Population": 1446.0, "Lat": 48.44162, "Lon": 27.15012}, {"Name": "Shyshkivtsi", "Country Code": "UA", "Population": 1598.0, "Lat": 48.55048, "Lon": 25.63242}], "Si Banphot": [{"Name": "Si Banphot", "Country Code": "TH", "Population": 0.0, "Lat": 7.72136, "Lon": 99.8843}], "Si Bun Rueang": [{"Name": "Si Bun Rueang", "Country Code": "TH", "Population": 12842.0, "Lat": 16.96705, "Lon": 102.27607}], "Si Chiang Mai": [{"Name": "Si Chiang Mai", "Country Code": "TH", "Population": 14068.0, "Lat": 17.95639, "Lon": 102.58667}], "Si Chomphu": [{"Name": "Si Chomphu", "Country Code": "TH", "Population": 0.0, "Lat": 16.79878, "Lon": 102.18466}], "Si Khoraphum": [{"Name": "Si Khoraphum", "Country Code": "TH", "Population": 0.0, "Lat": 14.94418, "Lon": 103.79704}], "Si Kunda": [{"Name": "Si Kunda", "Country Code": "GM", "Population": 1344.0, "Lat": 13.43333, "Lon": -15.56667}], "Si Ma Cai": [{"Name": "Si Ma Cai", "Country Code": "VN", "Population": 0.0, "Lat": 22.6951, "Lon": 104.27857}], "Si Maha Phot": [{"Name": "Si Maha Phot", "Country Code": "TH", "Population": 0.0, "Lat": 13.96597, "Lon": 101.51303}], "Si Mahosot": [{"Name": "Si Mahosot", "Country Code": "TH", "Population": 0.0, "Lat": 13.8878, "Lon": 101.40501}], "Si Mueang Mai": [{"Name": "Si Mueang Mai", "Country Code": "TH", "Population": 0.0, "Lat": 15.49315, "Lon": 105.27624}], "Si Nakhon": [{"Name": "Si Nakhon", "Country Code": "TH", "Population": 0.0, "Lat": 17.34907, "Lon": 99.98563}], "Si Narong": [{"Name": "Si Narong", "Country Code": "TH", "Population": 0.0, "Lat": 14.76736, "Lon": 103.87392}], "Si Prachan": [{"Name": "Si Prachan", "Country Code": "TH", "Population": 0.0, "Lat": 14.61992, "Lon": 100.14483}], "Si Racha": [{"Name": "Si Racha", "Country Code": "TH", "Population": 178916.0, "Lat": 13.17372, "Lon": 100.93111}], "Si Rattana": [{"Name": "Si Rattana", "Country Code": "TH", "Population": 0.0, "Lat": 14.79328, "Lon": 104.46922}], "Si Sa Ket": [{"Name": "Si Sa Ket", "Country Code": "TH", "Population": 44751.0, "Lat": 15.11481, "Lon": 104.32938}], "Si Sakhon": [{"Name": "Si Sakhon", "Country Code": "TH", "Population": 0.0, "Lat": 6.23137, "Lon": 101.50048}], "Si Samrong": [{"Name": "Si Samrong", "Country Code": "TH", "Population": 0.0, "Lat": 17.164, "Lon": 99.86222}], "Si Satchanalai": [{"Name": "Si Satchanalai", "Country Code": "TH", "Population": 25942.0, "Lat": 17.51692, "Lon": 99.75978}], "Si Sawat": [{"Name": "Si Sawat", "Country Code": "TH", "Population": 0.0, "Lat": 14.59922, "Lon": 99.11406}], "Si Somdet": [{"Name": "Si Somdet", "Country Code": "TH", "Population": 0.0, "Lat": 15.99797, "Lon": 103.48789}], "Si Songkhram": [{"Name": "Si Songkhram", "Country Code": "TH", "Population": 0.0, "Lat": 17.62745, "Lon": 104.25069}], "Si That": [{"Name": "Si That", "Country Code": "TH", "Population": 0.0, "Lat": 16.97361, "Lon": 103.21644}], "Si Thep": [{"Name": "Si Thep", "Country Code": "TH", "Population": 0.0, "Lat": 15.45214, "Lon": 101.06667}], "Si Wilai": [{"Name": "Si Wilai", "Country Code": "TH", "Population": 0.0, "Lat": 18.18188, "Lon": 103.74793}], "Si'en": [{"Name": "Si\u2019en", "Country Code": "CN", "Population": 0.0, "Lat": 24.84198, "Lon": 108.27162}], "Sia": [{"Name": "S\u1ecba", "Country Code": "VN", "Population": 0.0, "Lat": 16.57452, "Lon": 107.51066}], "Siabu": [{"Name": "Siabu", "Country Code": "ID", "Population": 0.0, "Lat": 1.01552, "Lon": 99.49452}], "Siachoque": [{"Name": "Siachoque", "Country Code": "CO", "Population": 1375.0, "Lat": 5.51238, "Lon": -73.24436}], "Siaga": [{"Name": "Siaga", "Country Code": "CI", "Population": 1048.0, "Lat": 7.94163, "Lon": -2.9509}], "Siahe": [{"Name": "Siah\u00e9", "Country Code": "CI", "Population": 2097.0, "Lat": 4.87857, "Lon": -7.48485}], "Siahkal": [{"Name": "S\u012b\u0101hkal", "Country Code": "IR", "Population": 0.0, "Lat": 37.15328, "Lon": 49.87136}], "Siak Sri Indrapura": [{"Name": "Siak Sri Indrapura", "Country Code": "ID", "Population": 0.0, "Lat": 0.79317, "Lon": 102.0511}], "Siakago": [{"Name": "Siakago", "Country Code": "KE", "Population": 4315.0, "Lat": -0.57728, "Lon": 37.63996}], "Siakakro": [{"Name": "Siakakro", "Country Code": "CI", "Population": 7566.0, "Lat": 6.91244, "Lon": -3.24469}], "Sialkot": [{"Name": "Sialkot", "Country Code": "PK", "Population": 477396.0, "Lat": 32.49268, "Lon": 74.53134}], "Siamaggiore": [{"Name": "Siamaggiore", "Country Code": "IT", "Population": 670.0, "Lat": 39.94966, "Lon": 8.63461}], "Siamanna": [{"Name": "Siamanna", "Country Code": "IT", "Population": 753.0, "Lat": 39.91936, "Lon": 8.76185}], "Siampaho": [{"Name": "Siampaho", "Country Code": "CI", "Population": 1108.0, "Lat": 4.97633, "Lon": -6.12171}], "Siano": [{"Name": "Siano", "Country Code": "IT", "Population": 9855.0, "Lat": 40.80207, "Lon": 14.69334}, {"Name": "Siano", "Country Code": "IT", "Population": 2666.0, "Lat": 38.91547, "Lon": 16.60224}], "Sianow": [{"Name": "Sian\u00f3w", "Country Code": "PL", "Population": 6606.0, "Lat": 54.22646, "Lon": 16.29127}], "Siao": [{"Name": "Siao", "Country Code": "TH", "Population": 0.0, "Lat": 14.79583, "Lon": 104.67017}], "Siapiccia": [{"Name": "Siapiccia", "Country Code": "IT", "Population": 362.0, "Lat": 39.92765, "Lon": 8.7627}], "Siari": [{"Name": "Siari", "Country Code": "PH", "Population": 3531.0, "Lat": 8.3245, "Lon": 122.9881}], "Siasi": [{"Name": "Siasi", "Country Code": "PH", "Population": 12566.0, "Lat": 5.5462, "Lon": 120.8145}], "Siata": [{"Name": "Siata", "Country Code": "CI", "Population": 1720.0, "Lat": 5.74859, "Lon": -5.03759}], "Siatista": [{"Name": "Si\u00e1tista", "Country Code": "GR", "Population": 5612.0, "Lat": 40.26194, "Lon": 21.54417}], "Siaton": [{"Name": "Siaton", "Country Code": "PH", "Population": 7328.0, "Lat": 9.0648, "Lon": 123.0339}], "Siauliai": [{"Name": "\u0160iauliai", "Country Code": "LT", "Population": 99462.0, "Lat": 55.93333, "Lon": 23.31667}], "Siavonga": [{"Name": "Siavonga", "Country Code": "ZM", "Population": 18638.0, "Lat": -16.53818, "Lon": 28.70876}], "Siay": [{"Name": "Siay", "Country Code": "PH", "Population": 2351.0, "Lat": 7.69611, "Lon": 122.86306}], "Siaya": [{"Name": "Siaya", "Country Code": "KE", "Population": 33153.0, "Lat": 0.0607, "Lon": 34.28806}], "Siayan": [{"Name": "Siayan", "Country Code": "PH", "Population": 4906.0, "Lat": 8.26667, "Lon": 123.1}], "Sibabli": [{"Name": "Sibabli", "Country Code": "CI", "Population": 4656.0, "Lat": 6.93717, "Lon": -7.16392}], "Sibaca": [{"Name": "Sibac\u00e1", "Country Code": "MX", "Population": 1359.0, "Lat": 16.93093, "Lon": -92.14006}], "Sibagat": [{"Name": "Sibagat", "Country Code": "PH", "Population": 4865.0, "Lat": 8.8225, "Lon": 125.6975}], "Sibaguan": [{"Name": "Sibaguan", "Country Code": "PH", "Population": 2174.0, "Lat": 11.55778, "Lon": 122.71389}], "Sibalom": [{"Name": "Sibalom", "Country Code": "PH", "Population": 7295.0, "Lat": 10.79, "Lon": 122.0178}], "Sibanicu": [{"Name": "Sibanic\u00fa", "Country Code": "CU", "Population": 16856.0, "Lat": 21.23631, "Lon": -77.52561}], "Sibanilja Pocolum": [{"Name": "Sibanilj\u00e1 Pocolum", "Country Code": "MX", "Population": 1419.0, "Lat": 16.87639, "Lon": -92.46111}], "Sibari": [{"Name": "Sibari", "Country Code": "IT", "Population": 2027.0, "Lat": 39.74733, "Lon": 16.4551}], "Sibassar": [{"Name": "Sibassar", "Country Code": "SN", "Population": 8141.0, "Lat": 14.2, "Lon": -16.16667}], "Sibate": [{"Name": "Sibat\u00e9", "Country Code": "CO", "Population": 23208.0, "Lat": 4.49154, "Lon": -74.25957}], "Sibay": [{"Name": "Sibay", "Country Code": "RU", "Population": 61590.0, "Lat": 52.71806, "Lon": 58.66583}], "Sibayo": [{"Name": "Sibayo", "Country Code": "PE", "Population": 527.0, "Lat": -15.48657, "Lon": -71.45738}], "Sibbe": [{"Name": "Sibbe", "Country Code": "NL", "Population": 1015.0, "Lat": 50.84417, "Lon": 5.82639}], "Sibbesse": [{"Name": "Sibbesse", "Country Code": "DE", "Population": 2810.0, "Lat": 52.05, "Lon": 9.9}], "Sibbhult": [{"Name": "Sibbhult", "Country Code": "SE", "Population": 1431.0, "Lat": 56.26667, "Lon": 14.2}], "Sibbo": [{"Name": "Sibbo", "Country Code": "FI", "Population": 19430.0, "Lat": 60.37752, "Lon": 25.26906}], "Sibenik": [{"Name": "\u0160ibenik", "Country Code": "HR", "Population": 31115.0, "Lat": 43.73429, "Lon": 15.8942}], "Sibi": [{"Name": "Sibi", "Country Code": "PK", "Population": 64069.0, "Lat": 29.54299, "Lon": 67.87726}], "Sibigo": [{"Name": "Sibigo", "Country Code": "ID", "Population": 0.0, "Lat": 2.8385, "Lon": 95.9131}], "Sibilia": [{"Name": "Sibilia", "Country Code": "GT", "Population": 1180.0, "Lat": 14.99391, "Lon": -91.62371}], "Sibinal": [{"Name": "Sibinal", "Country Code": "GT", "Population": 1657.0, "Lat": 15.14963, "Lon": -92.04892}], "Sibinj": [{"Name": "Sibinj", "Country Code": "HR", "Population": 2088.0, "Lat": 45.19167, "Lon": 17.90806}], "Sibirikaha": [{"Name": "Sibirikaha", "Country Code": "CI", "Population": 1326.0, "Lat": 9.36135, "Lon": -5.42707}], "Sibiril": [{"Name": "Sibiril", "Country Code": "FR", "Population": 1207.0, "Lat": 48.66474, "Lon": -4.06376}], "Sibirinakaha": [{"Name": "Sibirinakaha", "Country Code": "CI", "Population": 1043.0, "Lat": 9.00168, "Lon": -6.09215}], "Sibirskiy": [{"Name": "Sibirskiy", "Country Code": "RU", "Population": 11952.0, "Lat": 53.5777, "Lon": 83.7577}], "Sibiti": [{"Name": "Sibiti", "Country Code": "CG", "Population": 33122.0, "Lat": -3.68192, "Lon": 13.34985}], "Sibiu": [{"Name": "Sibiu", "Country Code": "RO", "Population": 151894.0, "Lat": 45.8, "Lon": 24.15}], "Sible Hedingham": [{"Name": "Sible Hedingham", "Country Code": "GB", "Population": 3702.0, "Lat": 51.97772, "Lon": 0.59262}], "Sibley": [{"Name": "Sibley", "Country Code": "US", "Population": 1184.0, "Lat": 32.53932, "Lon": -93.29628}, {"Name": "Sibley", "Country Code": "US", "Population": 2668.0, "Lat": 43.39914, "Lon": -95.75196}], "Sibolga": [{"Name": "Sibolga", "Country Code": "ID", "Population": 89584.0, "Lat": 1.74016, "Lon": 98.78117}], "Sibonga": [{"Name": "Sibonga", "Country Code": "PH", "Population": 11993.0, "Lat": 10.0168, "Lon": 123.6171}], "Siborong-Borong": [{"Name": "Siborong-Borong", "Country Code": "ID", "Population": 0.0, "Lat": 2.21251, "Lon": 98.97291}], "Sibot": [{"Name": "\u015eibot", "Country Code": "RO", "Population": 2427.0, "Lat": 45.95, "Lon": 23.33333}], "Sibraguhe": [{"Name": "Sibraguh\u00e9", "Country Code": "CI", "Population": 1002.0, "Lat": 6.82206, "Lon": -6.65578}], "Sibratsgfaell": [{"Name": "Sibratsgf\u00e4ll", "Country Code": "AT", "Population": 401.0, "Lat": 47.42667, "Lon": 10.03806}], "Sibreh": [{"Name": "Sibreh", "Country Code": "ID", "Population": 0.0, "Lat": 5.51863, "Lon": 95.37336}], "Sibret": [{"Name": "Sibret", "Country Code": "BE", "Population": 1443.0, "Lat": 49.97073, "Lon": 5.63453}], "Sibsagar": [{"Name": "Sibs\u0101gar", "Country Code": "IN", "Population": 62104.0, "Lat": 26.98427, "Lon": 94.63784}], "Sibsey": [{"Name": "Sibsey", "Country Code": "GB", "Population": 1464.0, "Lat": 53.03858, "Lon": 0.01579}], "Sibu": [{"Name": "Sibu", "Country Code": "MY", "Population": 198239.0, "Lat": 2.3, "Lon": 111.81667}], "Sibucao": [{"Name": "Sibucao", "Country Code": "PH", "Population": 2829.0, "Lat": 10.4179, "Lon": 122.887}], "Sibuco": [{"Name": "Sibuco", "Country Code": "PH", "Population": 3327.0, "Lat": 7.29111, "Lon": 122.06556}], "Sibuhuan": [{"Name": "Sibuhuan", "Country Code": "ID", "Population": 0.0, "Lat": 1.05387, "Lon": 99.73018}], "Sibul": [{"Name": "Sibul", "Country Code": "PH", "Population": 8225.0, "Lat": 15.169, "Lon": 121.0616}, {"Name": "Sibul", "Country Code": "PH", "Population": 2368.0, "Lat": 15.8, "Lon": 121.0}], "Sibulan": [{"Name": "Sibulan", "Country Code": "PH", "Population": 28079.0, "Lat": 9.3584, "Lon": 123.285}, {"Name": "Sibulan", "Country Code": "PH", "Population": 3633.0, "Lat": 14.75, "Lon": 121.93333}, {"Name": "Sibulan", "Country Code": "PH", "Population": 9021.0, "Lat": 6.93361, "Lon": 125.46222}], "Sibulao": [{"Name": "Sibulao", "Country Code": "PH", "Population": 2939.0, "Lat": 7.32417, "Lon": 122.23944}], "Sibundoy": [{"Name": "Sibundoy", "Country Code": "CO", "Population": 9458.0, "Lat": 1.20296, "Lon": -76.92275}], "Sibut": [{"Name": "Sibut", "Country Code": "CF", "Population": 31986.0, "Lat": 5.71801, "Lon": 19.07389}], "Sibutao": [{"Name": "Sibutao", "Country Code": "PH", "Population": 3395.0, "Lat": 8.5916, "Lon": 123.4859}], "Sic": [{"Name": "Sic", "Country Code": "RO", "Population": 2725.0, "Lat": 46.93333, "Lon": 23.88333}], "Sicamous": [{"Name": "Sicamous", "Country Code": "CA", "Population": 1786.0, "Lat": 50.83312, "Lon": -118.98565}], "Sicaya": [{"Name": "Sicaya", "Country Code": "PE", "Population": 6842.0, "Lat": -12.03333, "Lon": -75.28333}], "Sicheng": [{"Name": "Sicheng", "Country Code": "CN", "Population": 0.0, "Lat": 33.48936, "Lon": 117.85679}], "Sichevita": [{"Name": "Sichevi\u0163a", "Country Code": "RO", "Population": 2643.0, "Lat": 44.735, "Lon": 21.84861}], "Sicienko": [{"Name": "Sicienko", "Country Code": "PL", "Population": 800.0, "Lat": 53.20387, "Lon": 17.80051}], "Sicignano degli Alburni": [{"Name": "Sicignano degli Alburni", "Country Code": "IT", "Population": 1310.0, "Lat": 40.55882, "Lon": 15.3056}], "Sickenhausen": [{"Name": "Sickenhausen", "Country Code": "DE", "Population": 2000.0, "Lat": 48.53252, "Lon": 9.18114}], "Sicklerville": [{"Name": "Sicklerville", "Country Code": "US", "Population": 42891.0, "Lat": 39.71734, "Lon": -74.96933}], "Sickte": [{"Name": "Sickte", "Country Code": "DE", "Population": 5755.0, "Lat": 52.21847, "Lon": 10.6424}], "Siclau": [{"Name": "\u0218icl\u0103u", "Country Code": "RO", "Population": 1177.0, "Lat": 46.49124, "Lon": 21.36834}], "Siclong": [{"Name": "Siclong", "Country Code": "PH", "Population": 2700.0, "Lat": 15.5808, "Lon": 121.2239}], "Sico Uno": [{"Name": "Sico Uno", "Country Code": "PH", "Population": 3919.0, "Lat": 13.8301, "Lon": 121.37123}], "Sicuani": [{"Name": "Sicuani", "Country Code": "PE", "Population": 33575.0, "Lat": -14.26944, "Lon": -71.22611}], "Sicula": [{"Name": "\u015eicula", "Country Code": "RO", "Population": 4503.0, "Lat": 46.43333, "Lon": 21.75}], "Siculeni": [{"Name": "Siculeni", "Country Code": "RO", "Population": 6807.0, "Lat": 46.41667, "Lon": 25.75}], "Siculiana": [{"Name": "Siculiana", "Country Code": "IT", "Population": 4504.0, "Lat": 37.33515, "Lon": 13.42432}], "Sid": [{"Name": "\u0160id", "Country Code": "RS", "Population": 0.0, "Lat": 45.12833, "Lon": 19.22639}], "Sida": [{"Name": "Sida", "Country Code": "TH", "Population": 0.0, "Lat": 15.54994, "Lon": 102.56675}], "Sidamon": [{"Name": "Sidamon", "Country Code": "ES", "Population": 0.0, "Lat": 41.63333, "Lon": 0.83333}], "Sidareja": [{"Name": "Sidareja", "Country Code": "ID", "Population": 30313.0, "Lat": -7.4846, "Lon": 108.7923}], "Sidayu": [{"Name": "Sidayu", "Country Code": "ID", "Population": 0.0, "Lat": -6.9993, "Lon": 112.5636}], "Sidcup": [{"Name": "Sidcup", "Country Code": "GB", "Population": 10400.0, "Lat": 51.42619, "Lon": 0.1036}], "Siddapur": [{"Name": "Sidd\u0101pur", "Country Code": "IN", "Population": 14769.0, "Lat": 14.34322, "Lon": 74.894}], "Siddeburen": [{"Name": "Siddeburen", "Country Code": "NL", "Population": 2910.0, "Lat": 53.25, "Lon": 6.86806}], "Siddhapur": [{"Name": "Siddhapur", "Country Code": "IN", "Population": 54313.0, "Lat": 23.91783, "Lon": 72.37212}], "Siddharthanagar": [{"Name": "Siddharthanagar", "Country Code": "NP", "Population": 63367.0, "Lat": 27.5, "Lon": 83.45}], "Siddi": [{"Name": "Siddi", "Country Code": "IT", "Population": 690.0, "Lat": 39.67255, "Lon": 8.88815}], "Siddington": [{"Name": "Siddington", "Country Code": "GB", "Population": 0.0, "Lat": 53.23333, "Lon": -2.23333}], "Siddipet": [{"Name": "Siddipet", "Country Code": "IN", "Population": 64562.0, "Lat": 18.10483, "Lon": 78.84858}], "Side": [{"Name": "Side", "Country Code": "TR", "Population": 10505.0, "Lat": 36.76667, "Lon": 31.38889}], "Sidemen": [{"Name": "Sidemen", "Country Code": "ID", "Population": 0.0, "Lat": -8.4842, "Lon": 115.4452}], "Sidenreng": [{"Name": "Sidenreng", "Country Code": "ID", "Population": 0.0, "Lat": -3.92753, "Lon": 119.7993}], "Siderno": [{"Name": "Siderno", "Country Code": "IT", "Population": 15651.0, "Lat": 38.26993, "Lon": 16.29607}], "Sideropolis": [{"Name": "Sider\u00f3polis", "Country Code": "BR", "Population": 8536.0, "Lat": -28.59778, "Lon": -49.42444}], "Sidfa": [{"Name": "\u015eidf\u0101", "Country Code": "EG", "Population": 30228.0, "Lat": 26.96637, "Lon": 31.37953}], "Sidhauli": [{"Name": "Sidhaul\u012b", "Country Code": "IN", "Population": 22193.0, "Lat": 27.28202, "Lon": 80.8345}], "Sidhi": [{"Name": "Sidhi", "Country Code": "IN", "Population": 54242.0, "Lat": 24.4038, "Lon": 81.87954}], "Sidhpura": [{"Name": "Sidhpura", "Country Code": "IN", "Population": 14815.0, "Lat": 27.63312, "Lon": 78.86918}], "Sidi 'Addi": [{"Name": "Sidi \u2019Addi", "Country Code": "MA", "Population": 4604.0, "Lat": 33.3957, "Lon": -5.33341}], "Sidi Abdallah": [{"Name": "Sidi Abdallah", "Country Code": "MA", "Population": 0.0, "Lat": 32.53544, "Lon": -7.83243}], "Sidi Abdallah Ghiat": [{"Name": "Sidi Abdallah Ghiat", "Country Code": "MA", "Population": 0.0, "Lat": 31.523, "Lon": -7.833}], "Sidi Abdelli": [{"Name": "Sidi Abdelli", "Country Code": "DZ", "Population": 23543.0, "Lat": 35.06937, "Lon": -1.13706}], "Sidi Ahmed": [{"Name": "Sidi Ahmed", "Country Code": "MA", "Population": 7781.0, "Lat": 32.20807, "Lon": -8.49141}], "Sidi Aissa": [{"Name": "Sidi A\u00efssa", "Country Code": "DZ", "Population": 66856.0, "Lat": 35.88548, "Lon": 3.77236}], "Sidi Akkacha": [{"Name": "Sidi Akkacha", "Country Code": "DZ", "Population": 26558.0, "Lat": 36.46472, "Lon": 1.30258}], "Sidi Ali Ben Hamdouche": [{"Name": "Sidi Ali Ben Hamdouche", "Country Code": "MA", "Population": 9463.0, "Lat": 33.28665, "Lon": -8.32664}], "Sidi Allal El Bahraoui": [{"Name": "Sidi Allal El Bahraoui", "Country Code": "MA", "Population": 17325.0, "Lat": 34.0077, "Lon": -6.53082}], "Sidi Allal Tazi": [{"Name": "Sidi Allal Tazi", "Country Code": "MA", "Population": 5317.0, "Lat": 34.52257, "Lon": -6.32197}], "Sidi Alouane": [{"Name": "Sidi Alouane", "Country Code": "TN", "Population": 7610.0, "Lat": 35.37505, "Lon": 10.93899}], "Sidi Amar": [{"Name": "Sidi Amar", "Country Code": "DZ", "Population": 45148.0, "Lat": 36.82019, "Lon": 7.71641}, {"Name": "Sidi Amar", "Country Code": "MA", "Population": 0.0, "Lat": 32.94987, "Lon": -5.83225}], "Sidi Amrane": [{"Name": "Sidi Amrane", "Country Code": "DZ", "Population": 29734.0, "Lat": 33.49885, "Lon": 6.00803}], "Sidi Barani": [{"Name": "S\u012bd\u012b Bar\u0101n\u012b", "Country Code": "EG", "Population": 38253.0, "Lat": 31.61166, "Lon": 25.92539}], "Sidi Bel Abbes": [{"Name": "Sidi Bel Abbes", "Country Code": "DZ", "Population": 210146.0, "Lat": 35.18994, "Lon": -0.63085}], "Sidi Ben Nour": [{"Name": "Sidi Ben Nour", "Country Code": "TN", "Population": 4520.0, "Lat": 35.53333, "Lon": 10.91667}], "Sidi Bennour": [{"Name": "Sidi Bennour", "Country Code": "MA", "Population": 60948.0, "Lat": 32.65236, "Lon": -8.42769}], "Sidi Bibi": [{"Name": "Sidi Bibi", "Country Code": "MA", "Population": 6728.0, "Lat": 30.23784, "Lon": -9.52877}], "Sidi Bin Zinah": [{"Name": "S\u012bd\u012b Bin Z\u012bnah", "Country Code": "LY", "Population": 31607.0, "Lat": 32.88718, "Lon": 11.98729}], "Sidi Bou Ali": [{"Name": "Sidi Bou Ali", "Country Code": "TN", "Population": 8855.0, "Lat": 35.95667, "Lon": 10.47306}], "Sidi Bou Lanouar": [{"Name": "Sidi Bou Lanouar", "Country Code": "MA", "Population": 13929.0, "Lat": 32.86, "Lon": -6.88}], "Sidi Bou Othmane": [{"Name": "Sidi Bou Othmane", "Country Code": "MA", "Population": 10025.0, "Lat": 31.90226, "Lon": -7.94169}], "Sidi Bou Rouis": [{"Name": "Sidi Bou Rouis", "Country Code": "TN", "Population": 3265.0, "Lat": 36.17665, "Lon": 9.1235}], "Sidi Bou Said": [{"Name": "Sidi Bou Sa\u00efd", "Country Code": "TN", "Population": 5911.0, "Lat": 36.8687, "Lon": 10.34174}], "Sidi Bousber": [{"Name": "Sidi Bousber", "Country Code": "MA", "Population": 0.0, "Lat": 34.56283, "Lon": -5.36208}], "Sidi Bouzid": [{"Name": "Sidi Bouzid", "Country Code": "MA", "Population": 6741.0, "Lat": 33.23151, "Lon": -8.55062}, {"Name": "Sidi Bouzid", "Country Code": "TN", "Population": 42098.0, "Lat": 35.03823, "Lon": 9.48494}], "Sidi Ghazi": [{"Name": "S\u012bd\u012b Gh\u0101z\u012b", "Country Code": "EG", "Population": 28136.0, "Lat": 31.21114, "Lon": 31.05119}], "Sidi Harazem": [{"Name": "Sidi Harazem", "Country Code": "MA", "Population": 0.0, "Lat": 34.02733, "Lon": -4.88343}], "Sidi Ifni": [{"Name": "Sidi Ifni", "Country Code": "MA", "Population": 23606.0, "Lat": 29.37975, "Lon": -10.17299}], "Sidi Jaber": [{"Name": "Sidi Jaber", "Country Code": "MA", "Population": 5100.0, "Lat": 32.38952, "Lon": -6.42095}], "Sidi Kacem": [{"Name": "Sidi Kacem", "Country Code": "MA", "Population": 82632.0, "Lat": 34.22149, "Lon": -5.70775}], "Sidi Khaled": [{"Name": "Sidi Khaled", "Country Code": "DZ", "Population": 38987.0, "Lat": 34.387, "Lon": 4.98785}], "Sidi Lamine": [{"Name": "Sidi Lamine", "Country Code": "MA", "Population": 0.0, "Lat": 32.90783, "Lon": -6.05069}], "Sidi Lmokhtar": [{"Name": "Sidi Lmokhtar", "Country Code": "MA", "Population": 14803.0, "Lat": 31.57739, "Lon": -9.01575}], "Sidi Merouane": [{"Name": "Sidi M\u00e9rouane", "Country Code": "DZ", "Population": 25129.0, "Lat": 36.52056, "Lon": 6.26111}], "Sidi Moussa": [{"Name": "Sidi Moussa", "Country Code": "DZ", "Population": 30887.0, "Lat": 36.60637, "Lon": 3.08783}, {"Name": "Sidi Moussa", "Country Code": "MA", "Population": 0.0, "Lat": 32.27209, "Lon": -7.20095}], "Sidi Okba": [{"Name": "Sidi Okba", "Country Code": "DZ", "Population": 29499.0, "Lat": 34.74512, "Lon": 5.89833}], "Sidi Rahal": [{"Name": "Sidi Rahal", "Country Code": "MA", "Population": 22525.0, "Lat": 33.47739, "Lon": -7.93641}], "Sidi Rahhal": [{"Name": "Sidi Rahhal", "Country Code": "MA", "Population": 10817.0, "Lat": 31.65031, "Lon": -7.47288}], "Sidi Redouane": [{"Name": "Sidi Redouane", "Country Code": "MA", "Population": 0.0, "Lat": 34.68692, "Lon": -5.44538}], "Sidi Salim": [{"Name": "S\u012bd\u012b S\u0101lim", "Country Code": "EG", "Population": 44709.0, "Lat": 31.27133, "Lon": 30.78617}], "Sidi Senoussi sydy snwsy": [{"Name": "Sidi Senoussi \u0633\u064a\u062f\u064a \u0633\u0646\u0648\u0633\u064a", "Country Code": "DZ", "Population": 7500.0, "Lat": 34.99691, "Lon": -1.09449}], "Sidi Slimane": [{"Name": "Sidi Slimane", "Country Code": "MA", "Population": 101541.0, "Lat": 34.26479, "Lon": -5.92598}], "Sidi Slimane Echcharaa": [{"Name": "Sidi Slimane Echcharaa", "Country Code": "MA", "Population": 32979.0, "Lat": 34.90818, "Lon": -2.35055}], "Sidi Smai'il": [{"Name": "Sidi Smai\u2019il", "Country Code": "MA", "Population": 6076.0, "Lat": 32.82461, "Lon": -8.51122}], "Sidi Taibi": [{"Name": "Sidi Taibi", "Country Code": "MA", "Population": 51050.0, "Lat": 34.18698, "Lon": -6.68176}], "Sidi Yahia El Gharb": [{"Name": "Sidi Yahia El Gharb", "Country Code": "MA", "Population": 41472.0, "Lat": 34.30494, "Lon": -6.30404}], "Sidi Yahya Ou Saad": [{"Name": "Sidi Yahya Ou Saad", "Country Code": "MA", "Population": 0.0, "Lat": 32.68011, "Lon": -5.57738}], "Sidi Yahya Zaer": [{"Name": "Sidi Yahya Zaer", "Country Code": "MA", "Population": 10926.0, "Lat": 33.82977, "Lon": -6.91262}], "Sidi Zouine": [{"Name": "Sidi Zouine", "Country Code": "MA", "Population": 14017.0, "Lat": 31.66914, "Lon": -8.34541}], "Sidi as Sayd": [{"Name": "S\u012bd\u012b a\u015f \u015eayd", "Country Code": "LY", "Population": 9821.0, "Lat": 32.33462, "Lon": 13.47942}], "Sidi ech Chahmi": [{"Name": "Sidi ech Chahmi", "Country Code": "DZ", "Population": 35512.0, "Lat": 35.65903, "Lon": -0.52168}], "Sidi el Hani": [{"Name": "Sidi el Hani", "Country Code": "TN", "Population": 2820.0, "Lat": 35.67139, "Lon": 10.31583}], "Sidikalang": [{"Name": "Sidikalang", "Country Code": "ID", "Population": 0.0, "Lat": 2.74899, "Lon": 98.3127}], "Sidirokastro": [{"Name": "Sidir\u00f3kastro", "Country Code": "GR", "Population": 5177.0, "Lat": 41.23499, "Lon": 23.38899}], "Sidlaghatta": [{"Name": "Sidlaghatta", "Country Code": "IN", "Population": 49114.0, "Lat": 13.38896, "Lon": 77.86444}], "Sidmouth": [{"Name": "Sidmouth", "Country Code": "GB", "Population": 12569.0, "Lat": 50.69094, "Lon": -3.2397}], "Sidney": [{"Name": "Sidney", "Country Code": "US", "Population": 6942.0, "Lat": 41.14276, "Lon": -102.97798}, {"Name": "Sidney", "Country Code": "US", "Population": 1044.0, "Lat": 40.74833, "Lon": -95.6475}, {"Name": "Sidney", "Country Code": "US", "Population": 1232.0, "Lat": 40.02503, "Lon": -88.07337}, {"Name": "Sidney", "Country Code": "US", "Population": 6828.0, "Lat": 47.71668, "Lon": -104.15633}, {"Name": "Sidney", "Country Code": "US", "Population": 3755.0, "Lat": 42.3148, "Lon": -75.39157}, {"Name": "Sidney", "Country Code": "US", "Population": 20858.0, "Lat": 40.28422, "Lon": -84.1555}, {"Name": "Sidney", "Country Code": "US", "Population": 3653.0, "Lat": 44.41312, "Lon": -69.72893}], "Sidoarjo": [{"Name": "Sidoarjo", "Country Code": "ID", "Population": 139189.0, "Lat": -7.4478, "Lon": 112.7183}], "Sidomulyo": [{"Name": "Sidomulyo", "Country Code": "ID", "Population": 0.0, "Lat": 0.6496, "Lon": 122.6152}], "Sidon": [{"Name": "Sidon", "Country Code": "LB", "Population": 163554.0, "Lat": 33.55751, "Lon": 35.37148}], "Sidorejo": [{"Name": "Sidorejo", "Country Code": "ID", "Population": 0.0, "Lat": -5.58471, "Lon": 105.52364}], "Sidowayah Kidul": [{"Name": "Sidowayah Kidul", "Country Code": "ID", "Population": 0.0, "Lat": -6.7202, "Lon": 111.347}], "Sidqabad": [{"Name": "Sidq\u0101b\u0101d", "Country Code": "AF", "Population": 7407.0, "Lat": 35.02298, "Lon": 69.35112}], "Sidrolandia": [{"Name": "Sidrol\u00e2ndia", "Country Code": "BR", "Population": 16878.0, "Lat": -20.93194, "Lon": -54.96139}], "Sidvokodvo": [{"Name": "Sidvokodvo", "Country Code": "SZ", "Population": 1746.0, "Lat": -26.6282, "Lon": 31.42021}], "Sidzina": [{"Name": "Sidzina", "Country Code": "PL", "Population": 1022.0, "Lat": 50.57375, "Lon": 17.44904}, {"Name": "Sidzina", "Country Code": "PL", "Population": 2000.0, "Lat": 49.98732, "Lon": 19.87495}, {"Name": "Sidzina", "Country Code": "PL", "Population": 3200.0, "Lat": 49.59146, "Lon": 19.71119}], "Siebeldingen": [{"Name": "Siebeldingen", "Country Code": "DE", "Population": 1056.0, "Lat": 49.20889, "Lon": 8.05139}], "Sieblo Oula": [{"Name": "Si\u00e9blo Oula", "Country Code": "CI", "Population": 3523.0, "Lat": 5.66667, "Lon": -7.38333}], "Siebly": [{"Name": "Si\u00e9bly", "Country Code": "CI", "Population": 2767.0, "Lat": 7.29532, "Lon": -7.22364}], "Siebnen": [{"Name": "Siebnen", "Country Code": "CH", "Population": 7104.0, "Lat": 47.17449, "Lon": 8.89781}], "Siechnice": [{"Name": "Siechnice", "Country Code": "PL", "Population": 4264.0, "Lat": 51.03384, "Lon": 17.14743}], "Sieci": [{"Name": "Sieci", "Country Code": "IT", "Population": 3416.0, "Lat": 43.78847, "Lon": 11.39445}], "Siedenburg": [{"Name": "Siedenburg", "Country Code": "DE", "Population": 1349.0, "Lat": 52.69293, "Lon": 8.93961}], "Siedlce": [{"Name": "Siedlce", "Country Code": "PL", "Population": 77185.0, "Lat": 52.16772, "Lon": 22.29006}], "Siedlec": [{"Name": "Siedlec", "Country Code": "PL", "Population": 1200.0, "Lat": 52.13781, "Lon": 16.00279}], "Siedleczka": [{"Name": "Siedleczka", "Country Code": "PL", "Population": 1152.0, "Lat": 49.96061, "Lon": 22.37949}], "Siedliska": [{"Name": "Siedliska", "Country Code": "PL", "Population": 2351.0, "Lat": 49.87163, "Lon": 20.99625}, {"Name": "Siedliska", "Country Code": "PL", "Population": 1700.0, "Lat": 49.95409, "Lon": 21.94742}], "Siedlisko": [{"Name": "Siedlisko", "Country Code": "PL", "Population": 1800.0, "Lat": 51.76864, "Lon": 15.81396}], "Siedove": [{"Name": "Siedove", "Country Code": "UA", "Population": 2569.0, "Lat": 47.0787, "Lon": 38.15368}], "Siefersheim": [{"Name": "Siefersheim", "Country Code": "DE", "Population": 1287.0, "Lat": 49.8, "Lon": 7.95}], "Siegburg": [{"Name": "Siegburg", "Country Code": "DE", "Population": 39135.0, "Lat": 50.80019, "Lon": 7.20769}], "Siegelsbach": [{"Name": "Siegelsbach", "Country Code": "DE", "Population": 1677.0, "Lat": 49.26972, "Lon": 9.08972}], "Siegen": [{"Name": "Siegen", "Country Code": "DE", "Population": 107242.0, "Lat": 50.87481, "Lon": 8.02431}], "Siegenburg": [{"Name": "Siegenburg", "Country Code": "DE", "Population": 3376.0, "Lat": 48.75421, "Lon": 11.84831}], "Siegendorf im Burgenland": [{"Name": "Siegendorf im Burgenland", "Country Code": "AT", "Population": 2963.0, "Lat": 47.78098, "Lon": 16.54232}], "Siegersdorf bei Herberstein": [{"Name": "Siegersdorf bei Herberstein", "Country Code": "AT", "Population": 298.0, "Lat": 47.2, "Lon": 15.78333}], "Siegfriedviertel": [{"Name": "Siegfriedviertel", "Country Code": "DE", "Population": 7477.0, "Lat": 52.28854, "Lon": 10.53257}], "Sieggraben": [{"Name": "Sieggraben", "Country Code": "AT", "Population": 1248.0, "Lat": 47.65128, "Lon": 16.37993}], "Sieghartskirchen": [{"Name": "Sieghartskirchen", "Country Code": "AT", "Population": 2042.0, "Lat": 48.25531, "Lon": 16.01223}], "Siegouekou": [{"Name": "Si\u00e9gou\u00e9kou", "Country Code": "CI", "Population": 2335.0, "Lat": 6.34324, "Lon": -5.89757}], "Siegsdorf": [{"Name": "Siegsdorf", "Country Code": "DE", "Population": 8230.0, "Lat": 47.82278, "Lon": 12.64277}], "Siek": [{"Name": "Siek", "Country Code": "DE", "Population": 1958.0, "Lat": 53.63333, "Lon": 10.3}], "Siekierczyn": [{"Name": "Siekierczyn", "Country Code": "PL", "Population": 1800.0, "Lat": 51.12217, "Lon": 15.19375}], "Siekro": [{"Name": "Si\u00e9kro", "Country Code": "CI", "Population": 2302.0, "Lat": 5.67811, "Lon": -4.87961}], "Sielenbach": [{"Name": "Sielenbach", "Country Code": "DE", "Population": 1446.0, "Lat": 48.4, "Lon": 11.16667}], "Siem Pang": [{"Name": "Siem Pang", "Country Code": "KH", "Population": 0.0, "Lat": 14.11728, "Lon": 106.38838}], "Siem Reap": [{"Name": "Siem Reap", "Country Code": "KH", "Population": 139458.0, "Lat": 13.36179, "Lon": 103.86056}], "Siemensstadt": [{"Name": "Siemensstadt", "Country Code": "DE", "Population": 12740.0, "Lat": 52.54053, "Lon": 13.26294}], "Siemianowice Slaskie": [{"Name": "Siemianowice \u015al\u0105skie", "Country Code": "PL", "Population": 73121.0, "Lat": 50.32738, "Lon": 19.02901}], "Siemiatkowo": [{"Name": "Siemi\u0105tkowo", "Country Code": "PL", "Population": 432.0, "Lat": 52.8811, "Lon": 20.02893}], "Siemiatycze": [{"Name": "Siemiatycze", "Country Code": "PL", "Population": 15421.0, "Lat": 52.42719, "Lon": 22.86231}], "Siemiechow": [{"Name": "Siemiech\u00f3w", "Country Code": "PL", "Population": 1890.0, "Lat": 49.85359, "Lon": 20.90595}], "Siemien": [{"Name": "Siemie\u0144", "Country Code": "PL", "Population": 581.0, "Lat": 51.62883, "Lon": 22.77243}], "Siemkowice": [{"Name": "Siemkowice", "Country Code": "PL", "Population": 1100.0, "Lat": 51.20194, "Lon": 18.8988}], "Siempre Viva": [{"Name": "Siempre Viva", "Country Code": "PH", "Population": 3904.0, "Lat": 17.22874, "Lon": 121.63294}], "Siempurgo": [{"Name": "Siempurgo", "Country Code": "CI", "Population": 4290.0, "Lat": 9.51953, "Lon": -6.19408}], "Siena": [{"Name": "Siena", "Country Code": "IT", "Population": 53901.0, "Lat": 43.31822, "Lon": 11.33064}], "Sienandi": [{"Name": "Si\u00e9nandi", "Country Code": "CI", "Population": 1484.0, "Lat": 7.87233, "Lon": -3.56549}], "Sienes": [{"Name": "Sienes", "Country Code": "ES", "Population": 76.0, "Lat": 41.20096, "Lon": -2.65332}], "Sieniawa": [{"Name": "Sieniawa", "Country Code": "PL", "Population": 1100.0, "Lat": 52.36344, "Lon": 15.37768}, {"Name": "Sieniawa", "Country Code": "PL", "Population": 1929.0, "Lat": 49.53947, "Lon": 19.93014}, {"Name": "Sieniawa", "Country Code": "PL", "Population": 1078.0, "Lat": 49.56508, "Lon": 21.92785}, {"Name": "Sieniawa", "Country Code": "PL", "Population": 2182.0, "Lat": 50.1779, "Lon": 22.60954}], "Sieniawa Zarska": [{"Name": "Sieniawa \u017barska", "Country Code": "PL", "Population": 1090.0, "Lat": 51.64007, "Lon": 15.06045}], "Sienna Plantation": [{"Name": "Sienna Plantation", "Country Code": "US", "Population": 13721.0, "Lat": 29.48607, "Lon": -95.508}], "Siennica": [{"Name": "Siennica", "Country Code": "PL", "Population": 2600.0, "Lat": 52.09164, "Lon": 21.61921}], "Siennica Rozana": [{"Name": "Siennica R\u00f3\u017cana", "Country Code": "PL", "Population": 1000.0, "Lat": 51.00123, "Lon": 23.3226}], "Sienno": [{"Name": "Sienno", "Country Code": "PL", "Population": 750.0, "Lat": 51.08773, "Lon": 21.48325}], "Sienre": [{"Name": "Sienr\u00e9", "Country Code": "CI", "Population": 1078.0, "Lat": 9.81453, "Lon": -6.0582}], "Siepraw": [{"Name": "Siepraw", "Country Code": "PL", "Population": 4237.0, "Lat": 49.91437, "Lon": 19.95864}], "Sieradz": [{"Name": "Sieradz", "Country Code": "PL", "Population": 44436.0, "Lat": 51.59584, "Lon": 18.73023}], "Sieradza": [{"Name": "Sieradza", "Country Code": "PL", "Population": 1143.0, "Lat": 50.13499, "Lon": 20.92947}], "Sierakow": [{"Name": "Sierak\u00f3w", "Country Code": "PL", "Population": 6090.0, "Lat": 52.65134, "Lon": 16.08047}], "Sierakow Slaski": [{"Name": "Sierak\u00f3w \u015al\u0105ski", "Country Code": "PL", "Population": 1704.0, "Lat": 50.8029, "Lon": 18.57548}], "Sierakowice": [{"Name": "Sierakowice", "Country Code": "PL", "Population": 7068.0, "Lat": 54.3461, "Lon": 17.89252}], "Sierck-les-Bains": [{"Name": "Sierck-les-Bains", "Country Code": "FR", "Population": 1926.0, "Lat": 49.43942, "Lon": 6.35816}], "Sierentz": [{"Name": "Sierentz", "Country Code": "FR", "Population": 2559.0, "Lat": 47.65834, "Lon": 7.45387}], "Sierksdorf": [{"Name": "Sierksdorf", "Country Code": "DE", "Population": 1489.0, "Lat": 54.06667, "Lon": 10.76667}], "Sierndorf": [{"Name": "Sierndorf", "Country Code": "AT", "Population": 1502.0, "Lat": 48.43024, "Lon": 16.16658}], "Sierning": [{"Name": "Sierning", "Country Code": "AT", "Population": 4025.0, "Lat": 48.04343, "Lon": 14.30935}], "Sieroszewice": [{"Name": "Sieroszewice", "Country Code": "PL", "Population": 1014.0, "Lat": 51.63347, "Lon": 17.972}], "Sierpc": [{"Name": "Sierpc", "Country Code": "PL", "Population": 18866.0, "Lat": 52.8568, "Lon": 19.66913}], "Sierra Blanca": [{"Name": "Sierra Blanca", "Country Code": "US", "Population": 553.0, "Lat": 31.17457, "Lon": -105.35718}], "Sierra Bullones": [{"Name": "Sierra Bullones", "Country Code": "PH", "Population": 2978.0, "Lat": 9.8081, "Lon": 124.2921}], "Sierra Colorada": [{"Name": "Sierra Colorada", "Country Code": "AR", "Population": 1374.0, "Lat": -40.58575, "Lon": -67.75725}], "Sierra Grande": [{"Name": "Sierra Grande", "Country Code": "AR", "Population": 6978.0, "Lat": -41.60546, "Lon": -65.35702}], "Sierra Imataca": [{"Name": "Sierra Imataca", "Country Code": "VE", "Population": 0.0, "Lat": 8.39352, "Lon": -62.45439}], "Sierra Madre": [{"Name": "Sierra Madre", "Country Code": "US", "Population": 11163.0, "Lat": 34.16167, "Lon": -118.05285}], "Sierra Mojada": [{"Name": "Sierra Mojada", "Country Code": "MX", "Population": 478.0, "Lat": 27.28861, "Lon": -103.70124}], "Sierra Papacal": [{"Name": "Sierra Papacal", "Country Code": "MX", "Population": 1108.0, "Lat": 21.12517, "Lon": -89.7302}], "Sierra View": [{"Name": "Sierra View", "Country Code": "US", "Population": 4813.0, "Lat": 41.01207, "Lon": -75.459}], "Sierra Vista": [{"Name": "Sierra Vista", "Country Code": "US", "Population": 43355.0, "Lat": 31.55454, "Lon": -110.30369}], "Sierra Vista Southeast": [{"Name": "Sierra Vista Southeast", "Country Code": "US", "Population": 14797.0, "Lat": 31.45385, "Lon": -110.21637}], "Sierra de Agua": [{"Name": "Sierra de Agua", "Country Code": "MX", "Population": 1143.0, "Lat": 18.75028, "Lon": -97.24167}, {"Name": "Sierra de Agua", "Country Code": "MX", "Population": 1970.0, "Lat": 19.60529, "Lon": -97.20041}], "Sierra de Fuentes": [{"Name": "Sierra de Fuentes", "Country Code": "ES", "Population": 1996.0, "Lat": 39.43997, "Lon": -6.27242}], "Sierra de Guadalupe": [{"Name": "Sierra de Guadalupe", "Country Code": "MX", "Population": 2011.0, "Lat": 19.5925, "Lon": -99.15944}], "Sierra de Luna": [{"Name": "Sierra de Luna", "Country Code": "ES", "Population": 286.0, "Lat": 42.04818, "Lon": -0.91025}], "Sierra de Yeguas": [{"Name": "Sierra de Yeguas", "Country Code": "ES", "Population": 3311.0, "Lat": 37.1242, "Lon": -4.86773}], "Sierra-Engarceran": [{"Name": "Sierra-Engarcer\u00e1n", "Country Code": "ES", "Population": 1068.0, "Lat": 40.26929, "Lon": -0.01892}], "Sierre": [{"Name": "Sierre", "Country Code": "CH", "Population": 15752.0, "Lat": 46.29192, "Lon": 7.53559}], "Sierro": [{"Name": "Sierro", "Country Code": "ES", "Population": 452.0, "Lat": 37.32237, "Lon": -2.39844}], "Siersdorf": [{"Name": "Siersdorf", "Country Code": "DE", "Population": 2768.0, "Lat": 50.89827, "Lon": 6.22684}], "Siershahn": [{"Name": "Siershahn", "Country Code": "DE", "Population": 2879.0, "Lat": 50.48639, "Lon": 7.77972}], "Siersleben": [{"Name": "Siersleben", "Country Code": "DE", "Population": 1575.0, "Lat": 51.60411, "Lon": 11.54334}], "Siesta Acres": [{"Name": "Siesta Acres", "Country Code": "US", "Population": 1885.0, "Lat": 28.75799, "Lon": -100.49019}], "Siesta Key": [{"Name": "Siesta Key", "Country Code": "US", "Population": 6565.0, "Lat": 27.26785, "Lon": -82.54526}], "Siesta Shores": [{"Name": "Siesta Shores", "Country Code": "US", "Population": 1382.0, "Lat": 26.8581, "Lon": -99.25365}], "Sietamo": [{"Name": "Si\u00e9tamo", "Country Code": "ES", "Population": 517.0, "Lat": 42.12392, "Lon": -0.28066}], "Siete Aguas": [{"Name": "Siete Aguas", "Country Code": "ES", "Population": 1232.0, "Lat": 39.46667, "Lon": -0.91667}], "Siete Iglesias de Trabancos": [{"Name": "Siete Iglesias de Trabancos", "Country Code": "ES", "Population": 548.0, "Lat": 41.35223, "Lon": -5.18488}], "Sietesz": [{"Name": "Sietesz", "Country Code": "PL", "Population": 1800.0, "Lat": 49.98622, "Lon": 22.34671}], "Sietinfla": [{"Name": "Si\u00e9tinfla", "Country Code": "CI", "Population": 10404.0, "Lat": 6.82764, "Lon": -5.73008}], "Sieu": [{"Name": "\u0218ieu", "Country Code": "RO", "Population": 2577.0, "Lat": 47.72462, "Lon": 24.22389}, {"Name": "\u015eieu", "Country Code": "RO", "Population": 3103.0, "Lat": 47.01667, "Lon": 24.6}], "Sieu-Magherus": [{"Name": "\u015eieu-M\u0103gheru\u015f", "Country Code": "RO", "Population": 3830.0, "Lat": 47.08333, "Lon": 24.38333}], "Sieu-Odorhei": [{"Name": "\u015eieu-Odorhei", "Country Code": "RO", "Population": 2526.0, "Lat": 47.15194, "Lon": 24.29159}], "Sieut": [{"Name": "\u015eieu\u0163", "Country Code": "RO", "Population": 2754.0, "Lat": 46.98333, "Lon": 24.65}], "Sievershuetten": [{"Name": "Sieversh\u00fctten", "Country Code": "DE", "Population": 1161.0, "Lat": 53.84238, "Lon": 10.11216}], "Sieverstedt": [{"Name": "Sieverstedt", "Country Code": "DE", "Population": 1653.0, "Lat": 54.64145, "Lon": 9.46949}], "Sievi": [{"Name": "Sievi", "Country Code": "FI", "Population": 5281.0, "Lat": 63.9, "Lon": 24.5}], "Sievierodonetsk": [{"Name": "Sievierodonetsk", "Country Code": "UA", "Population": 99067.0, "Lat": 48.94628, "Lon": 38.48624}], "Siewierz": [{"Name": "Siewierz", "Country Code": "PL", "Population": 5417.0, "Lat": 50.46657, "Lon": 19.23028}], "Siezenheim": [{"Name": "Siezenheim", "Country Code": "AT", "Population": 2951.0, "Lat": 47.81529, "Lon": 12.99039}], "Sif": [{"Name": "\u015e\u012bf", "Country Code": "YE", "Population": 0.0, "Lat": 15.31389, "Lon": 48.33}], "Sifangtai": [{"Name": "Sifangtai", "Country Code": "CN", "Population": 0.0, "Lat": 46.59397, "Lon": 131.33045}], "Sifie": [{"Name": "Sifi\u00e9", "Country Code": "CI", "Population": 4073.0, "Lat": 7.98139, "Lon": -6.92722}], "Sifoe": [{"Name": "Sifoe", "Country Code": "GM", "Population": 6015.0, "Lat": 13.18361, "Lon": -16.6975}], "Sifra": [{"Name": "Sifra", "Country Code": "ET", "Population": 22400.0, "Lat": 11.60462, "Lon": 40.01662}], "Sig": [{"Name": "Sig", "Country Code": "DZ", "Population": 61373.0, "Lat": 35.52832, "Lon": -0.19369}], "Sigaboy": [{"Name": "Sigaboy", "Country Code": "PH", "Population": 7981.0, "Lat": 6.65413, "Lon": 126.07268}], "Sigaozhuang": [{"Name": "Sigaozhuang", "Country Code": "CN", "Population": 1246.0, "Lat": 39.46778, "Lon": 117.25028}], "Sigatoka": [{"Name": "Sigatoka", "Country Code": "FJ", "Population": 17622.0, "Lat": -18.14307, "Lon": 177.50691}], "Sigay": [{"Name": "Sigay", "Country Code": "PH", "Population": 2419.0, "Lat": 17.08333, "Lon": 120.6}], "Sigayevo": [{"Name": "Sigayevo", "Country Code": "RU", "Population": 5780.0, "Lat": 56.42163, "Lon": 53.77566}], "Sigean": [{"Name": "Sigean", "Country Code": "FR", "Population": 4347.0, "Lat": 43.0279, "Lon": 2.97834}], "Sigefredo Pacheco": [{"Name": "Sigefredo Pacheco", "Country Code": "BR", "Population": 0.0, "Lat": -4.91408, "Lon": -41.73194}], "Sigeres": [{"Name": "Sigeres", "Country Code": "ES", "Population": 76.0, "Lat": 40.79939, "Lon": -4.93361}], "Sigetec": [{"Name": "Sigetec", "Country Code": "HR", "Population": 1016.0, "Lat": 46.18833, "Lon": 16.93583}], "Siggelkow": [{"Name": "Siggelkow", "Country Code": "DE", "Population": 1056.0, "Lat": 53.38742, "Lon": 11.93802}], "Siggiewi": [{"Name": "Si\u0121\u0121iewi", "Country Code": "MT", "Population": 8721.0, "Lat": 35.85556, "Lon": 14.43639}], "Sighetu Marmatiei": [{"Name": "Sighetu Marma\u0163iei", "Country Code": "RO", "Population": 40653.0, "Lat": 47.93195, "Lon": 23.88603}], "Sighisoara": [{"Name": "Sighi\u0219oara", "Country Code": "RO", "Population": 34537.0, "Lat": 46.22141, "Lon": 24.79279}], "Sighnaghi": [{"Name": "Sighnaghi", "Country Code": "GE", "Population": 1923.0, "Lat": 41.62046, "Lon": 45.92198}], "Sigi Biromaru": [{"Name": "Sigi Biromaru", "Country Code": "ID", "Population": 0.0, "Lat": -0.94982, "Lon": 119.91805}], "Sigillo": [{"Name": "Sigillo", "Country Code": "IT", "Population": 2192.0, "Lat": 43.33111, "Lon": 12.74059}], "Sigiriya": [{"Name": "Sigiriya", "Country Code": "LK", "Population": 1001.0, "Lat": 7.94946, "Lon": 80.75037}], "Sigle": [{"Name": "Sigl\u00e9", "Country Code": "BF", "Population": 0.0, "Lat": 12.55618, "Lon": -1.88775}], "Sigless": [{"Name": "Sigless", "Country Code": "AT", "Population": 1183.0, "Lat": 47.77533, "Lon": 16.39503}], "Sigli": [{"Name": "Sigli", "Country Code": "ID", "Population": 17504.0, "Lat": 5.3848, "Lon": 95.9609}], "Siglufjoerdur": [{"Name": "Siglufj\u00f6r\u00f0ur", "Country Code": "IS", "Population": 1190.0, "Lat": 66.15198, "Lon": -18.90815}], "Sigma": [{"Name": "Sigma", "Country Code": "PH", "Population": 3222.0, "Lat": 11.4214, "Lon": 122.6662}], "Sigmaringen": [{"Name": "Sigmaringen", "Country Code": "DE", "Population": 16592.0, "Lat": 48.08829, "Lon": 9.23033}], "Sigmaringendorf": [{"Name": "Sigmaringendorf", "Country Code": "DE", "Population": 3827.0, "Lat": 48.06586, "Lon": 9.26208}], "Sigmarszell": [{"Name": "Sigmarszell", "Country Code": "DE", "Population": 2641.0, "Lat": 47.58333, "Lon": 9.76667}], "Sigmundsherberg": [{"Name": "Sigmundsherberg", "Country Code": "AT", "Population": 635.0, "Lat": 48.68333, "Lon": 15.75}], "Signa": [{"Name": "Signa", "Country Code": "IT", "Population": 12602.0, "Lat": 43.7942, "Lon": 11.1036}], "Signal Hill": [{"Name": "Signal Hill", "Country Code": "US", "Population": 11565.0, "Lat": 33.80446, "Lon": -118.16785}], "Signal Mountain": [{"Name": "Signal Mountain", "Country Code": "US", "Population": 8528.0, "Lat": 35.12257, "Lon": -85.34385}], "Signau": [{"Name": "Signau", "Country Code": "CH", "Population": 2821.0, "Lat": 46.91944, "Lon": 7.72418}], "Signes": [{"Name": "Signes", "Country Code": "FR", "Population": 2202.0, "Lat": 43.2908, "Lon": 5.86284}], "Signy-le-Petit": [{"Name": "Signy-le-Petit", "Country Code": "FR", "Population": 1287.0, "Lat": 49.90277, "Lon": 4.2799}], "Sigolsheim": [{"Name": "Sigolsheim", "Country Code": "FR", "Population": 1038.0, "Lat": 48.13493, "Lon": 7.2998}], "Sigourney": [{"Name": "Sigourney", "Country Code": "US", "Population": 2005.0, "Lat": 41.33334, "Lon": -92.20463}], "Sigriswil": [{"Name": "Sigriswil", "Country Code": "CH", "Population": 4341.0, "Lat": 46.71656, "Lon": 7.71335}], "Sigtuna": [{"Name": "Sigtuna", "Country Code": "SE", "Population": 9074.0, "Lat": 59.61731, "Lon": 17.72361}], "Siguatepeque": [{"Name": "Siguatepeque", "Country Code": "HN", "Population": 43141.0, "Lat": 14.59691, "Lon": -87.83102}], "Siguees": [{"Name": "Sig\u00fc\u00e9s", "Country Code": "ES", "Population": 170.0, "Lat": 42.6303, "Lon": -1.01212}], "Siguenza": [{"Name": "Sig\u00fcenza", "Country Code": "ES", "Population": 4818.0, "Lat": 41.06892, "Lon": -2.64308}], "Siguinon": [{"Name": "Siguinon", "Country Code": "PH", "Population": 2211.0, "Lat": 10.9423, "Lon": 124.6806}], "Siguiri": [{"Name": "Siguiri", "Country Code": "GN", "Population": 148018.0, "Lat": 11.42282, "Lon": -9.16852}], "Siguirini": [{"Name": "Siguirini", "Country Code": "GN", "Population": 2054.0, "Lat": 11.8288, "Lon": -10.04548}], "Sigulda": [{"Name": "Sigulda", "Country Code": "LV", "Population": 10422.0, "Lat": 57.15375, "Lon": 24.85953}], "Sihanoukville": [{"Name": "Sihanoukville", "Country Code": "KH", "Population": 73036.0, "Lat": 10.60932, "Lon": 103.52958}], "Sihlea": [{"Name": "Sihlea", "Country Code": "RO", "Population": 5354.0, "Lat": 45.5, "Lon": 27.11667}], "Sihochac": [{"Name": "Sihochac", "Country Code": "MX", "Population": 2731.0, "Lat": 19.5012, "Lon": -90.58472}], "Sihor": [{"Name": "Sihor", "Country Code": "IN", "Population": 52603.0, "Lat": 21.71134, "Lon": 71.96179}], "Sihora": [{"Name": "Sihor\u0101", "Country Code": "IN", "Population": 41192.0, "Lat": 23.4871, "Lon": 80.10404}], "Sihu": [{"Name": "Sihu", "Country Code": "CN", "Population": 40430.0, "Lat": 34.62625, "Lon": 117.97139}], "Sihuapan": [{"Name": "Sihuapan", "Country Code": "MX", "Population": 3767.0, "Lat": 18.43663, "Lon": -95.17833}], "Sihuas": [{"Name": "Sihuas", "Country Code": "PE", "Population": 0.0, "Lat": -8.56667, "Lon": -77.61667}], "Siikainen": [{"Name": "Siikainen", "Country Code": "FI", "Population": 1917.0, "Lat": 61.87703, "Lon": 21.81945}], "Siikajoki": [{"Name": "Siikajoki", "Country Code": "FI", "Population": 1293.0, "Lat": 64.81455, "Lon": 24.75924}], "Siilinjaervi": [{"Name": "Siilinj\u00e4rvi", "Country Code": "FI", "Population": 20209.0, "Lat": 63.08333, "Lon": 27.66667}], "Siirt": [{"Name": "Siirt", "Country Code": "TR", "Population": 114034.0, "Lat": 37.9293, "Lon": 41.94134}], "Sijong": [{"Name": "Sijong", "Country Code": "KR", "Population": 0.0, "Lat": 34.86886, "Lon": 126.60706}], "Sijsele": [{"Name": "Sijsele", "Country Code": "BE", "Population": 5348.0, "Lat": 51.20846, "Lon": 3.31714}], "Sijua": [{"Name": "Sijua", "Country Code": "IN", "Population": 31537.0, "Lat": 23.77617, "Lon": 86.33028}], "Sijunjung": [{"Name": "Sijunjung", "Country Code": "ID", "Population": 27786.0, "Lat": -0.7005, "Lon": 100.9774}], "Sika Koumenakro": [{"Name": "Sika Koum\u00e9nakro", "Country Code": "CI", "Population": 1039.0, "Lat": 7.31752, "Lon": -3.99512}], "Sikabaluan": [{"Name": "Sikabaluan", "Country Code": "ID", "Population": 0.0, "Lat": -1.11961, "Lon": 98.99217}], "Sikandarabad": [{"Name": "Sikandar\u0101b\u0101d", "Country Code": "IN", "Population": 73379.0, "Lat": 28.45226, "Lon": 77.70004}], "Sikandarpur": [{"Name": "Sikandarpur", "Country Code": "IN", "Population": 24177.0, "Lat": 26.04327, "Lon": 84.05298}], "Sikandra": [{"Name": "Sikandra", "Country Code": "IN", "Population": 12289.0, "Lat": 26.36722, "Lon": 79.6298}], "Sikandra Rao": [{"Name": "Sikandra Rao", "Country Code": "IN", "Population": 42229.0, "Lat": 27.68859, "Lon": 78.37985}], "Sikao": [{"Name": "Sikao", "Country Code": "TH", "Population": 0.0, "Lat": 7.57158, "Lon": 99.34494}], "Sikar": [{"Name": "S\u012bkar", "Country Code": "IN", "Population": 199932.0, "Lat": 27.61206, "Lon": 75.13996}], "Sikasso": [{"Name": "Sikasso", "Country Code": "ML", "Population": 349324.0, "Lat": 11.31755, "Lon": -5.66654}], "Sikatuna": [{"Name": "Sikatuna", "Country Code": "PH", "Population": 0.0, "Lat": 9.6883, "Lon": 123.9751}], "Sikensi": [{"Name": "Sikensi", "Country Code": "CI", "Population": 9473.0, "Lat": 5.66829, "Lon": -4.57371}], "Sikeston": [{"Name": "Sikeston", "Country Code": "US", "Population": 16436.0, "Lat": 36.87672, "Lon": -89.58786}], "Sikhio": [{"Name": "Sikhio", "Country Code": "TH", "Population": 0.0, "Lat": 14.89225, "Lon": 101.72314}], "Sikinos": [{"Name": "S\u00edkinos", "Country Code": "GR", "Population": 0.0, "Lat": 36.7, "Lon": 25.11667}], "Sikirevci": [{"Name": "Sikirevci", "Country Code": "HR", "Population": 1490.0, "Lat": 45.10889, "Lon": 18.46444}], "Sikka": [{"Name": "Sikka", "Country Code": "IN", "Population": 19404.0, "Lat": 22.43218, "Lon": 69.84158}], "Siklos": [{"Name": "Sikl\u00f3s", "Country Code": "HU", "Population": 10180.0, "Lat": 45.85499, "Lon": 18.29752}], "Sikolo": [{"Name": "Sikolo", "Country Code": "CI", "Population": 4386.0, "Lat": 9.44248, "Lon": -4.71513}], "Sikonge": [{"Name": "Sikonge", "Country Code": "TZ", "Population": 27113.0, "Lat": -5.63333, "Lon": 32.76667}], "Sikur": [{"Name": "Sikur", "Country Code": "ID", "Population": 0.0, "Lat": -8.6331, "Lon": 116.4463}], "Sikyon": [{"Name": "Siky\u00f3n", "Country Code": "GR", "Population": 1185.0, "Lat": 37.9823, "Lon": 22.72462}], "Sil-li": [{"Name": "Sil-li", "Country Code": "KP", "Population": 19463.0, "Lat": 39.49472, "Lon": 125.47361}], "Sila": [{"Name": "Sila", "Country Code": "ID", "Population": 0.0, "Lat": -8.5025, "Lon": 118.62}], "Sila Lat": [{"Name": "Sila Lat", "Country Code": "TH", "Population": 0.0, "Lat": 15.47156, "Lon": 104.07153}], "Silab": [{"Name": "Silab", "Country Code": "PH", "Population": 3296.0, "Lat": 9.4383, "Lon": 123.1792}], "Silacayoapam": [{"Name": "Silacayo\u00e1pam", "Country Code": "MX", "Population": 2090.0, "Lat": 17.50297, "Lon": -98.13966}], "Silae": [{"Name": "Silae", "Country Code": "PH", "Population": 2215.0, "Lat": 8.15889, "Lon": 125.2825}], "Silago": [{"Name": "Silago", "Country Code": "PH", "Population": 2276.0, "Lat": 10.5291, "Lon": 125.1618}], "Silainiai": [{"Name": "\u0160ilainiai", "Country Code": "LT", "Population": 40600.0, "Lat": 54.92911, "Lon": 23.88599}], "Silakoro": [{"Name": "Silakoro", "Country Code": "CI", "Population": 2214.0, "Lat": 8.36068, "Lon": -6.5794}], "Silale": [{"Name": "\u0160ilal\u0117", "Country Code": "LT", "Population": 4640.0, "Lat": 55.4898, "Lon": 22.18692}], "Silame": [{"Name": "Silame", "Country Code": "NG", "Population": 0.0, "Lat": 13.03921, "Lon": 4.84593}], "Silandro": [{"Name": "Silandro", "Country Code": "IT", "Population": 4517.0, "Lat": 46.62831, "Lon": 10.76809}], "Silang": [{"Name": "Silang", "Country Code": "PH", "Population": 119475.0, "Lat": 14.21567, "Lon": 120.97137}], "Silanga": [{"Name": "Silanga", "Country Code": "PH", "Population": 2350.0, "Lat": 11.81806, "Lon": 124.84306}], "Silanus": [{"Name": "Silanus", "Country Code": "IT", "Population": 2092.0, "Lat": 40.28709, "Lon": 8.89199}], "Silao": [{"Name": "Silao", "Country Code": "IN", "Population": 21828.0, "Lat": 25.08358, "Lon": 85.42804}, {"Name": "Silao", "Country Code": "MX", "Population": 74242.0, "Lat": 20.94356, "Lon": -101.42703}], "Silapathar": [{"Name": "Silapathar", "Country Code": "IN", "Population": 22307.0, "Lat": 27.59441, "Lon": 94.72402}], "Silat al Harithiyah": [{"Name": "S\u012blat al \u1e28\u0101rith\u012byah", "Country Code": "PS", "Population": 9557.0, "Lat": 32.50847, "Lon": 35.22752}], "Silat az Zahr": [{"Name": "S\u012blat az\u0327 Z\u0327ahr", "Country Code": "PS", "Population": 6079.0, "Lat": 32.31934, "Lon": 35.18418}], "Silberstedt": [{"Name": "Silberstedt", "Country Code": "DE", "Population": 2213.0, "Lat": 54.51667, "Lon": 9.38333}], "Silbertal": [{"Name": "Silbertal", "Country Code": "AT", "Population": 834.0, "Lat": 47.09368, "Lon": 9.98314}], "Silca": [{"Name": "Silca", "Country Code": "HN", "Population": 1112.0, "Lat": 14.83333, "Lon": -86.53333}], "Silchar": [{"Name": "Silchar", "Country Code": "IN", "Population": 152393.0, "Lat": 24.82733, "Lon": 92.79787}], "Sile": [{"Name": "\u015eile", "Country Code": "TR", "Population": 11596.0, "Lat": 41.1754, "Lon": 29.61333}], "Silea": [{"Name": "Silea", "Country Code": "IT", "Population": 6077.0, "Lat": 45.65444, "Lon": 12.29701}], "Sileby": [{"Name": "Sileby", "Country Code": "GB", "Population": 7261.0, "Lat": 52.73286, "Lon": -1.10773}], "Silenen": [{"Name": "Silenen", "Country Code": "CH", "Population": 2243.0, "Lat": 46.7891, "Lon": 8.67325}], "Siler City": [{"Name": "Siler City", "Country Code": "US", "Population": 8396.0, "Lat": 35.72347, "Lon": -79.46224}], "Siles": [{"Name": "Siles", "Country Code": "ES", "Population": 0.0, "Lat": 38.38983, "Lon": -2.5819}], "Silets": [{"Name": "Silets", "Country Code": "UA", "Population": 3641.0, "Lat": 50.29712, "Lon": 24.20462}], "Siletz": [{"Name": "Siletz", "Country Code": "US", "Population": 1221.0, "Lat": 44.72178, "Lon": -123.92011}], "Silherovice": [{"Name": "\u0160ilhe\u0159ovice", "Country Code": "CZ", "Population": 1534.0, "Lat": 49.92602, "Lon": 18.27017}], "Sili": [{"Name": "Sil\u00ec", "Country Code": "IT", "Population": 2183.0, "Lat": 39.91789, "Lon": 8.62194}], "Siliana": [{"Name": "Siliana", "Country Code": "TN", "Population": 26960.0, "Lat": 36.08497, "Lon": 9.37082}], "Silifke": [{"Name": "Silifke", "Country Code": "TR", "Population": 75315.0, "Lat": 36.37778, "Lon": 33.93444}], "Siligo": [{"Name": "Siligo", "Country Code": "IT", "Population": 877.0, "Lat": 40.57483, "Lon": 8.72835}], "Siliguri": [{"Name": "Siliguri", "Country Code": "IN", "Population": 515574.0, "Lat": 26.71004, "Lon": 88.42851}], "Silikatnyy": [{"Name": "Silikatnyy", "Country Code": "RU", "Population": 3614.0, "Lat": 53.98957, "Lon": 48.32749}], "Silindia": [{"Name": "\u015eilindia", "Country Code": "RO", "Population": 943.0, "Lat": 46.35, "Lon": 21.91667}], "Silindru": [{"Name": "\u0218ilindru", "Country Code": "RO", "Population": 1019.0, "Lat": 47.43725, "Lon": 22.04683}], "Siliqua": [{"Name": "Siliqua", "Country Code": "IT", "Population": 3618.0, "Lat": 39.301, "Lon": 8.80584}], "Siliragung": [{"Name": "Siliragung", "Country Code": "ID", "Population": 0.0, "Lat": -8.5574, "Lon": 114.112}], "Silistea": [{"Name": "Sili\u015ftea", "Country Code": "RO", "Population": 4391.0, "Lat": 44.38333, "Lon": 25.35}, {"Name": "Sili\u0219tea", "Country Code": "RO", "Population": 2389.0, "Lat": 46.77781, "Lon": 26.69303}, {"Name": "Sili\u015ftea", "Country Code": "RO", "Population": 1855.0, "Lat": 45.311, "Lon": 27.829}, {"Name": "Sili\u015ftea", "Country Code": "RO", "Population": 1442.0, "Lat": 44.4, "Lon": 28.16667}], "Silistea Crucii": [{"Name": "Sili\u015ftea Crucii", "Country Code": "RO", "Population": 1826.0, "Lat": 44.04341, "Lon": 23.47511}], "Silistea Gumesti": [{"Name": "Sili\u0219tea Gume\u0219ti", "Country Code": "RO", "Population": 2633.0, "Lat": 44.38333, "Lon": 25.0}], "Silistea Snagovului": [{"Name": "Sili\u0219tea Snagovului", "Country Code": "RO", "Population": 2346.0, "Lat": 44.7392, "Lon": 26.17942}], "Silistra": [{"Name": "Silistra", "Country Code": "BG", "Population": 29498.0, "Lat": 44.1171, "Lon": 27.26056}], "Silius": [{"Name": "Silius", "Country Code": "IT", "Population": 1257.0, "Lat": 39.51695, "Lon": 9.2936}], "Silivasu de Campie": [{"Name": "Siliva\u0219u de C\u00e2mpie", "Country Code": "RO", "Population": 872.0, "Lat": 46.78333, "Lon": 24.3}], "Silivri": [{"Name": "Silivri", "Country Code": "TR", "Population": 53167.0, "Lat": 41.07393, "Lon": 28.24644}], "Siljan": [{"Name": "Siljan", "Country Code": "NO", "Population": 891.0, "Lat": 59.28843, "Lon": 9.71}], "Siljansnaes": [{"Name": "Siljansn\u00e4s", "Country Code": "SE", "Population": 1274.0, "Lat": 60.78333, "Lon": 14.85}], "Silkeborg": [{"Name": "Silkeborg", "Country Code": "DK", "Population": 49747.0, "Lat": 56.1697, "Lon": 9.54508}], "Silkstone": [{"Name": "Silkstone", "Country Code": "AU", "Population": 3419.0, "Lat": -27.62126, "Lon": 152.78768},