{"Bad Kreuznach": [{"Name": "Bad Kreuznach", "Country Code": "DE", "Population": 43213.0, "Lat": 49.8414, "Lon": 7.86713}], "Bad Laasphe": [{"Name": "Bad Laasphe", "Country Code": "DE", "Population": 15184.0, "Lat": 50.93139, "Lon": 8.42502}], "Bad Laer": [{"Name": "Bad Laer", "Country Code": "DE", "Population": 9151.0, "Lat": 52.1, "Lon": 8.08333}], "Bad Langensalza": [{"Name": "Bad Langensalza", "Country Code": "DE", "Population": 18183.0, "Lat": 51.10771, "Lon": 10.646}], "Bad Lauchstaedt": [{"Name": "Bad Lauchst\u00e4dt", "Country Code": "DE", "Population": 5018.0, "Lat": 51.38652, "Lon": 11.86956}], "Bad Lausick": [{"Name": "Bad Lausick", "Country Code": "DE", "Population": 9026.0, "Lat": 51.14495, "Lon": 12.64449}], "Bad Lauterberg im Harz": [{"Name": "Bad Lauterberg im Harz", "Country Code": "DE", "Population": 11784.0, "Lat": 51.63272, "Lon": 10.47031}], "Bad Leonfelden": [{"Name": "Bad Leonfelden", "Country Code": "AT", "Population": 288.0, "Lat": 48.52047, "Lon": 14.29459}], "Bad Liebenstein": [{"Name": "Bad Liebenstein", "Country Code": "DE", "Population": 4094.0, "Lat": 50.81569, "Lon": 10.35123}], "Bad Liebenwerda": [{"Name": "Bad Liebenwerda", "Country Code": "DE", "Population": 10890.0, "Lat": 51.51826, "Lon": 13.39459}], "Bad Liebenzell": [{"Name": "Bad Liebenzell", "Country Code": "DE", "Population": 9616.0, "Lat": 48.77427, "Lon": 8.72971}], "Bad Lippspringe": [{"Name": "Bad Lippspringe", "Country Code": "DE", "Population": 15175.0, "Lat": 51.78333, "Lon": 8.81683}], "Bad Lobenstein": [{"Name": "Bad Lobenstein", "Country Code": "DE", "Population": 5843.0, "Lat": 50.45223, "Lon": 11.6393}], "Bad Marienberg": [{"Name": "Bad Marienberg", "Country Code": "DE", "Population": 5838.0, "Lat": 50.64947, "Lon": 7.94958}], "Bad Meinberg": [{"Name": "Bad Meinberg", "Country Code": "DE", "Population": 4636.0, "Lat": 51.89588, "Lon": 8.98313}], "Bad Mergentheim": [{"Name": "Bad Mergentheim", "Country Code": "DE", "Population": 22472.0, "Lat": 49.4925, "Lon": 9.77361}], "Bad Muender am Deister": [{"Name": "Bad M\u00fcnder am Deister", "Country Code": "DE", "Population": 18726.0, "Lat": 52.19551, "Lon": 9.46421}], "Bad Muenster am Stein-Ebernburg": [{"Name": "Bad M\u00fcnster am Stein-Ebernburg", "Country Code": "DE", "Population": 3940.0, "Lat": 49.81159, "Lon": 7.84523}], "Bad Muenstereifel": [{"Name": "Bad M\u00fcnstereifel", "Country Code": "DE", "Population": 19051.0, "Lat": 50.55667, "Lon": 6.76424}], "Bad Muskau": [{"Name": "Bad Muskau", "Country Code": "DE", "Population": 4027.0, "Lat": 51.55051, "Lon": 14.7124}], "Bad Nauheim": [{"Name": "Bad Nauheim", "Country Code": "DE", "Population": 30291.0, "Lat": 50.36463, "Lon": 8.73859}], "Bad Nenndorf": [{"Name": "Bad Nenndorf", "Country Code": "DE", "Population": 10255.0, "Lat": 52.33703, "Lon": 9.37904}], "Bad Neualbenreuth": [{"Name": "Bad Neualbenreuth", "Country Code": "DE", "Population": 1572.0, "Lat": 49.98037, "Lon": 12.44373}], "Bad Neuenahr-Ahrweiler": [{"Name": "Bad Neuenahr-Ahrweiler", "Country Code": "DE", "Population": 27823.0, "Lat": 50.54322, "Lon": 7.1113}], "Bad Neustadt an der Saale": [{"Name": "Bad Neustadt an der Saale", "Country Code": "DE", "Population": 15261.0, "Lat": 50.32174, "Lon": 10.20673}], "Bad Oeynhausen": [{"Name": "Bad Oeynhausen", "Country Code": "DE", "Population": 49513.0, "Lat": 52.20699, "Lon": 8.80365}], "Bad Oldesloe": [{"Name": "Bad Oldesloe", "Country Code": "DE", "Population": 24322.0, "Lat": 53.81167, "Lon": 10.37417}], "Bad Orb": [{"Name": "Bad Orb", "Country Code": "DE", "Population": 10186.0, "Lat": 50.22788, "Lon": 9.34782}], "Bad Peterstal-Griesbach": [{"Name": "Bad Peterstal-Griesbach", "Country Code": "DE", "Population": 3006.0, "Lat": 48.43333, "Lon": 8.21667}], "Bad Pirawarth": [{"Name": "Bad Pirawarth", "Country Code": "AT", "Population": 1238.0, "Lat": 48.45194, "Lon": 16.59833}], "Bad Pyrmont": [{"Name": "Bad Pyrmont", "Country Code": "DE", "Population": 21629.0, "Lat": 51.98589, "Lon": 9.25246}], "Bad Radkersburg": [{"Name": "Bad Radkersburg", "Country Code": "AT", "Population": 1368.0, "Lat": 46.68806, "Lon": 15.98806}], "Bad Ragaz": [{"Name": "Bad Ragaz", "Country Code": "CH", "Population": 5063.0, "Lat": 47.00601, "Lon": 9.50266}], "Bad Rappenau": [{"Name": "Bad Rappenau", "Country Code": "DE", "Population": 20581.0, "Lat": 49.23848, "Lon": 9.1018}], "Bad Reichenhall": [{"Name": "Bad Reichenhall", "Country Code": "DE", "Population": 16910.0, "Lat": 47.72947, "Lon": 12.87819}], "Bad Rippoldsau-Schapbach": [{"Name": "Bad Rippoldsau-Schapbach", "Country Code": "DE", "Population": 2326.0, "Lat": 48.42883, "Lon": 8.32584}], "Bad Rothenfelde": [{"Name": "Bad Rothenfelde", "Country Code": "DE", "Population": 7299.0, "Lat": 52.11667, "Lon": 8.16667}], "Bad Saarow": [{"Name": "Bad Saarow", "Country Code": "DE", "Population": 4594.0, "Lat": 52.28333, "Lon": 14.06667}], "Bad Sachsa": [{"Name": "Bad Sachsa", "Country Code": "DE", "Population": 8244.0, "Lat": 51.59499, "Lon": 10.55546}], "Bad Sackingen": [{"Name": "Bad S\u00e4ckingen", "Country Code": "DE", "Population": 16549.0, "Lat": 47.55371, "Lon": 7.94612}], "Bad Salzdetfurth": [{"Name": "Bad Salzdetfurth", "Country Code": "DE", "Population": 14349.0, "Lat": 52.05777, "Lon": 10.0058}], "Bad Salzschlirf": [{"Name": "Bad Salzschlirf", "Country Code": "DE", "Population": 3204.0, "Lat": 50.62388, "Lon": 9.50815}], "Bad Salzuflen": [{"Name": "Bad Salzuflen", "Country Code": "DE", "Population": 54899.0, "Lat": 52.0862, "Lon": 8.74434}], "Bad Salzungen": [{"Name": "Bad Salzungen", "Country Code": "DE", "Population": 16410.0, "Lat": 50.81342, "Lon": 10.2361}], "Bad Sankt Leonhard im Lavanttal": [{"Name": "Bad Sankt Leonhard im Lavanttal", "Country Code": "AT", "Population": 1940.0, "Lat": 46.96278, "Lon": 14.79167}], "Bad Sassendorf": [{"Name": "Bad Sassendorf", "Country Code": "DE", "Population": 11659.0, "Lat": 51.58333, "Lon": 8.16667}], "Bad Sauerbrunn": [{"Name": "Bad Sauerbrunn", "Country Code": "AT", "Population": 2219.0, "Lat": 47.77439, "Lon": 16.32841}], "Bad Saulgau": [{"Name": "Bad Saulgau", "Country Code": "DE", "Population": 17911.0, "Lat": 48.01676, "Lon": 9.50064}], "Bad Schallerbach": [{"Name": "Bad Schallerbach", "Country Code": "AT", "Population": 4028.0, "Lat": 48.22999, "Lon": 13.91925}], "Bad Schandau": [{"Name": "Bad Schandau", "Country Code": "DE", "Population": 3078.0, "Lat": 50.91743, "Lon": 14.15494}], "Bad Schlema": [{"Name": "Bad Schlema", "Country Code": "DE", "Population": 5540.0, "Lat": 50.60257, "Lon": 12.67288}], "Bad Schmiedeberg": [{"Name": "Bad Schmiedeberg", "Country Code": "DE", "Population": 4241.0, "Lat": 51.68516, "Lon": 12.73483}], "Bad Schoenau": [{"Name": "Bad Sch\u00f6nau", "Country Code": "AT", "Population": 481.0, "Lat": 47.49473, "Lon": 16.2341}], "Bad Schussenried": [{"Name": "Bad Schussenried", "Country Code": "DE", "Population": 8319.0, "Lat": 48.00468, "Lon": 9.65741}], "Bad Schwalbach": [{"Name": "Bad Schwalbach", "Country Code": "DE", "Population": 11112.0, "Lat": 50.14196, "Lon": 8.06964}], "Bad Schwartau": [{"Name": "Bad Schwartau", "Country Code": "DE", "Population": 19722.0, "Lat": 53.91887, "Lon": 10.69691}], "Bad Segeberg": [{"Name": "Bad Segeberg", "Country Code": "DE", "Population": 16052.0, "Lat": 53.94313, "Lon": 10.30215}], "Bad Sobernheim": [{"Name": "Bad Sobernheim", "Country Code": "DE", "Population": 6479.0, "Lat": 49.78636, "Lon": 7.65146}], "Bad Soden am Taunus": [{"Name": "Bad Soden am Taunus", "Country Code": "DE", "Population": 22871.0, "Lat": 50.1408, "Lon": 8.50449}], "Bad Soden-Salmuenster": [{"Name": "Bad Soden-Salm\u00fcnster", "Country Code": "DE", "Population": 13953.0, "Lat": 50.27574, "Lon": 9.36705}], "Bad Sooden-Allendorf": [{"Name": "Bad Sooden-Allendorf", "Country Code": "DE", "Population": 8915.0, "Lat": 51.27092, "Lon": 9.97483}], "Bad Staffelstein": [{"Name": "Bad Staffelstein", "Country Code": "DE", "Population": 10618.0, "Lat": 50.10199, "Lon": 11.00128}], "Bad Steben": [{"Name": "Bad Steben", "Country Code": "DE", "Population": 3640.0, "Lat": 50.36648, "Lon": 11.64438}], "Bad Suderode": [{"Name": "Bad Suderode", "Country Code": "DE", "Population": 1791.0, "Lat": 51.73333, "Lon": 11.11667}], "Bad Suelze": [{"Name": "Bad S\u00fclze", "Country Code": "DE", "Population": 1938.0, "Lat": 54.11084, "Lon": 12.66054}], "Bad Sulza": [{"Name": "Bad Sulza", "Country Code": "DE", "Population": 3027.0, "Lat": 51.08929, "Lon": 11.62474}], "Bad Tatzmannsdorf": [{"Name": "Bad Tatzmannsdorf", "Country Code": "AT", "Population": 697.0, "Lat": 47.33126, "Lon": 16.23067}], "Bad Teinach-Zavelstein": [{"Name": "Bad Teinach-Zavelstein", "Country Code": "DE", "Population": 3053.0, "Lat": 48.69051, "Lon": 8.69285}], "Bad Tennstedt": [{"Name": "Bad Tennstedt", "Country Code": "DE", "Population": 2480.0, "Lat": 51.15447, "Lon": 10.83873}], "Bad Toelz": [{"Name": "Bad T\u00f6lz", "Country Code": "DE", "Population": 17434.0, "Lat": 47.76111, "Lon": 11.5589}], "Bad Traunstein": [{"Name": "Bad Traunstein", "Country Code": "AT", "Population": 315.0, "Lat": 48.4385, "Lon": 15.11712}], "Bad Uberkingen": [{"Name": "Bad \u00dcberkingen", "Country Code": "DE", "Population": 3987.0, "Lat": 48.59991, "Lon": 9.79586}], "Bad Urach": [{"Name": "Bad Urach", "Country Code": "DE", "Population": 12831.0, "Lat": 48.49107, "Lon": 9.40009}], "Bad Vigaun": [{"Name": "Bad Vigaun", "Country Code": "AT", "Population": 2089.0, "Lat": 47.66667, "Lon": 13.13333}], "Bad Vilbel": [{"Name": "Bad Vilbel", "Country Code": "DE", "Population": 30736.0, "Lat": 50.17866, "Lon": 8.73756}], "Bad Voeslau": [{"Name": "Bad V\u00f6slau", "Country Code": "AT", "Population": 7469.0, "Lat": 47.96533, "Lon": 16.21359}], "Bad Waldsee": [{"Name": "Bad Waldsee", "Country Code": "DE", "Population": 19840.0, "Lat": 47.92027, "Lon": 9.7549}], "Bad Waltersdorf": [{"Name": "Bad Waltersdorf", "Country Code": "AT", "Population": 1045.0, "Lat": 47.1696, "Lon": 16.0087}], "Bad Wiessee": [{"Name": "Bad Wiessee", "Country Code": "DE", "Population": 4293.0, "Lat": 47.71667, "Lon": 11.71667}], "Bad Wildbad": [{"Name": "Bad Wildbad", "Country Code": "DE", "Population": 9565.0, "Lat": 48.75071, "Lon": 8.5504}], "Bad Wildungen": [{"Name": "Bad Wildungen", "Country Code": "DE", "Population": 18037.0, "Lat": 51.11963, "Lon": 9.12475}], "Bad Wilsnack": [{"Name": "Bad Wilsnack", "Country Code": "DE", "Population": 2941.0, "Lat": 52.95607, "Lon": 11.94903}], "Bad Wimpfen": [{"Name": "Bad Wimpfen", "Country Code": "DE", "Population": 6968.0, "Lat": 49.22971, "Lon": 9.15648}], "Bad Windsheim": [{"Name": "Bad Windsheim", "Country Code": "DE", "Population": 12022.0, "Lat": 49.50274, "Lon": 10.41539}], "Bad Worishofen": [{"Name": "Bad W\u00f6rishofen", "Country Code": "DE", "Population": 14028.0, "Lat": 48.00674, "Lon": 10.59666}], "Bad Wuennenberg": [{"Name": "Bad W\u00fcnnenberg", "Country Code": "DE", "Population": 12439.0, "Lat": 51.52002, "Lon": 8.69934}], "Bad Wurzach": [{"Name": "Bad Wurzach", "Country Code": "DE", "Population": 14323.0, "Lat": 47.90799, "Lon": 9.89686}], "Bad Zell": [{"Name": "Bad Zell", "Country Code": "AT", "Population": 1378.0, "Lat": 48.34906, "Lon": 14.66945}], "Bad Zurzach": [{"Name": "Bad Zurzach", "Country Code": "CH", "Population": 4213.0, "Lat": 47.58764, "Lon": 8.29365}], "Bad Zwischenahn": [{"Name": "Bad Zwischenahn", "Country Code": "DE", "Population": 27550.0, "Lat": 53.18333, "Lon": 8.0}], "Bada": [{"Name": "Bada", "Country Code": "CI", "Population": 3625.0, "Lat": 8.1251, "Lon": -5.52039}, {"Name": "Bada", "Country Code": "RU", "Population": 5149.0, "Lat": 51.391, "Lon": 109.86145}], "Bada Barabil": [{"Name": "Bada Barab\u012bl", "Country Code": "IN", "Population": 56870.0, "Lat": 22.11186, "Lon": 85.38684}], "Badacsonytomaj": [{"Name": "Badacsonytomaj", "Country Code": "HU", "Population": 2271.0, "Lat": 46.80711, "Lon": 17.51385}], "Badadon": [{"Name": "Badadon", "Country Code": "CI", "Population": 1237.0, "Lat": 5.136, "Lon": -5.25151}], "Badagara": [{"Name": "Badagara", "Country Code": "IN", "Population": 76493.0, "Lat": 11.59776, "Lon": 75.58142}], "Badagry": [{"Name": "Badagry", "Country Code": "NG", "Population": 26383.0, "Lat": 6.41502, "Lon": 2.88132}], "Badajoz": [{"Name": "Badajoz", "Country Code": "ES", "Population": 148334.0, "Lat": 38.87789, "Lon": -6.97061}], "Badak": [{"Name": "Badak", "Country Code": "PH", "Population": 6653.0, "Lat": 6.84722, "Lon": 124.72056}], "Badalasco": [{"Name": "Badalasco", "Country Code": "IT", "Population": 1078.0, "Lat": 45.54217, "Lon": 9.55494}], "Badalona": [{"Name": "Badalona", "Country Code": "ES", "Population": 219547.0, "Lat": 41.45004, "Lon": 2.24741}], "Badalucco": [{"Name": "Badalucco", "Country Code": "IT", "Population": 1100.0, "Lat": 43.91683, "Lon": 7.84584}], "Badamdar": [{"Name": "Badamdar", "Country Code": "AZ", "Population": 11398.0, "Lat": 40.34024, "Lon": 49.8045}], "Badami": [{"Name": "B\u0101d\u0101mi", "Country Code": "IN", "Population": 28314.0, "Lat": 15.91495, "Lon": 75.67683}], "Badamsha": [{"Name": "Badamsha", "Country Code": "KZ", "Population": 5668.0, "Lat": 50.56183, "Lon": 58.2772}], "Badaogu": [{"Name": "Badaogu", "Country Code": "CN", "Population": 2226.0, "Lat": 39.47333, "Lon": 117.32972}], "Badar": [{"Name": "Badar", "Country Code": "RU", "Population": 1600.0, "Lat": 54.39948, "Lon": 100.59436}], "Badaran": [{"Name": "Badar\u00e1n", "Country Code": "ES", "Population": 695.0, "Lat": 42.36794, "Lon": -2.81079}], "Badarganj": [{"Name": "Badarganj", "Country Code": "BD", "Population": 32600.0, "Lat": 25.67419, "Lon": 89.05377}], "Badarpur": [{"Name": "Badarpur", "Country Code": "IN", "Population": 11028.0, "Lat": 24.86852, "Lon": 92.59606}], "Badarwas": [{"Name": "Badarw\u0101s", "Country Code": "IN", "Population": 11133.0, "Lat": 24.97516, "Lon": 77.5649}], "Badasso": [{"Name": "Badasso", "Country Code": "CI", "Population": 4456.0, "Lat": 5.68172, "Lon": -4.52113}], "Badayo I": [{"Name": "Badayo I", "Country Code": "CI", "Population": 2036.0, "Lat": 5.86289, "Lon": -6.63572}], "Badbergen": [{"Name": "Badbergen", "Country Code": "DE", "Population": 4577.0, "Lat": 52.63333, "Lon": 7.98333}], "Baddeckenstedt": [{"Name": "Baddeckenstedt", "Country Code": "DE", "Population": 3278.0, "Lat": 52.08333, "Lon": 10.23333}], "Baddi": [{"Name": "Baddi", "Country Code": "IN", "Population": 22592.0, "Lat": 30.95783, "Lon": 76.79136}], "Baddomalhi": [{"Name": "Baddomalhi", "Country Code": "PK", "Population": 18435.0, "Lat": 31.99042, "Lon": 74.6641}], "Bade": [{"Name": "Bade", "Country Code": "ID", "Population": 0.0, "Lat": -7.16667, "Lon": 139.58333}, {"Name": "Bade", "Country Code": "TW", "Population": 209148.0, "Lat": 24.92981, "Lon": 121.28372}], "Badeana": [{"Name": "B\u0103deana", "Country Code": "RO", "Population": 1188.0, "Lat": 46.15, "Lon": 27.58333}], "Badeggi": [{"Name": "Badeggi", "Country Code": "NG", "Population": 8283.0, "Lat": 9.0563, "Lon": 6.143}], "Badem": [{"Name": "Badem", "Country Code": "DE", "Population": 1135.0, "Lat": 50.0, "Lon": 6.61667}], "Bademli": [{"Name": "Bademli", "Country Code": "TR", "Population": 2856.0, "Lat": 38.08167, "Lon": 28.05778}], "Baden": [{"Name": "Baden", "Country Code": "AT", "Population": 26286.0, "Lat": 48.00543, "Lon": 16.23264}, {"Name": "Baden", "Country Code": "CH", "Population": 16118.0, "Lat": 47.47333, "Lon": 8.30592}, {"Name": "Baden", "Country Code": "FR", "Population": 3611.0, "Lat": 47.6185, "Lon": -2.9199}, {"Name": "Baden", "Country Code": "US", "Population": 2128.0, "Lat": 38.65928, "Lon": -76.77775}, {"Name": "Baden", "Country Code": "US", "Population": 4037.0, "Lat": 40.63507, "Lon": -80.22812}], "Baden-Baden": [{"Name": "Baden-Baden", "Country Code": "DE", "Population": 55449.0, "Lat": 48.7606, "Lon": 8.23975}], "Badenas": [{"Name": "B\u00e1denas", "Country Code": "ES", "Population": 20.0, "Lat": 41.09216, "Lon": -1.12241}], "Badenhausen": [{"Name": "Badenhausen", "Country Code": "DE", "Population": 1996.0, "Lat": 51.76996, "Lon": 10.20493}], "Badeni": [{"Name": "B\u0103deni", "Country Code": "RO", "Population": 1313.0, "Lat": 47.40581, "Lon": 26.94898}, {"Name": "B\u0103deni", "Country Code": "RO", "Population": 1080.0, "Lat": 45.15272, "Lon": 25.40263}], "Badenweiler": [{"Name": "Badenweiler", "Country Code": "DE", "Population": 3829.0, "Lat": 47.80223, "Lon": 7.67236}], "Badersdorf": [{"Name": "Badersdorf", "Country Code": "AT", "Population": 287.0, "Lat": 47.1961, "Lon": 16.3748}], "Badesi": [{"Name": "Badesi", "Country Code": "IT", "Population": 1342.0, "Lat": 40.9646, "Lon": 8.88235}], "Badesti": [{"Name": "B\u0103de\u0219ti", "Country Code": "RO", "Population": 1530.0, "Lat": 45.17157, "Lon": 24.86064}], "Badeuti": [{"Name": "B\u0103deu\u021bi", "Country Code": "RO", "Population": 1474.0, "Lat": 47.80277, "Lon": 25.98387}], "Badger": [{"Name": "Badger", "Country Code": "US", "Population": 19482.0, "Lat": 64.8, "Lon": -147.53333}], "Badger Creek": [{"Name": "Badger Creek", "Country Code": "AU", "Population": 1553.0, "Lat": -37.7, "Lon": 145.51667}], "Badhni Kalan": [{"Name": "Badhni Kal\u0101n", "Country Code": "IN", "Population": 6070.0, "Lat": 30.6813, "Lon": 75.29087}], "Badia": [{"Name": "Badia", "Country Code": "IT", "Population": 893.0, "Lat": 46.60816, "Lon": 11.8963}], "Badia Calavena": [{"Name": "Badia Calavena", "Country Code": "IT", "Population": 1678.0, "Lat": 45.56463, "Lon": 11.15197}], "Badia Pavese": [{"Name": "Badia Pavese", "Country Code": "IT", "Population": 340.0, "Lat": 45.12087, "Lon": 9.46866}], "Badia Polesine": [{"Name": "Badia Polesine", "Country Code": "IT", "Population": 6940.0, "Lat": 45.09508, "Lon": 11.49443}], "Badia Tedalda": [{"Name": "Badia Tedalda", "Country Code": "IT", "Population": 378.0, "Lat": 43.70887, "Lon": 12.18425}], "Badia al Pino": [{"Name": "Badia al Pino", "Country Code": "IT", "Population": 1127.0, "Lat": 43.40424, "Lon": 11.77228}], "Badian": [{"Name": "Badian", "Country Code": "PH", "Population": 3614.0, "Lat": 9.86472, "Lon": 123.39639}, {"Name": "Badian", "Country Code": "PH", "Population": 2706.0, "Lat": 13.03167, "Lon": 123.30778}], "Badiangan": [{"Name": "Badiangan", "Country Code": "PH", "Population": 0.0, "Lat": 11.00573, "Lon": 122.50051}], "Badie": [{"Name": "Badi\u00e9", "Country Code": "CI", "Population": 1300.0, "Lat": 6.18875, "Lon": -5.64763}], "Badieboue": [{"Name": "Badi\u00e9bou\u00e9", "Country Code": "CI", "Population": 1280.0, "Lat": 5.32211, "Lon": -5.92179}], "Badiefla": [{"Name": "Badi\u00e9fla", "Country Code": "CI", "Population": 1610.0, "Lat": 7.59432, "Lon": -5.96015}], "Badiepa": [{"Name": "Badi\u00e9pa", "Country Code": "CI", "Population": 1742.0, "Lat": 6.26602, "Lon": -5.82291}], "Badikaha": [{"Name": "Badikaha", "Country Code": "CI", "Population": 6393.0, "Lat": 9.19166, "Lon": -5.16499}], "Badike": [{"Name": "Badik\u00e9", "Country Code": "CI", "Population": 1035.0, "Lat": 4.60139, "Lon": -6.9818}], "Badile": [{"Name": "Badile", "Country Code": "IT", "Population": 1191.0, "Lat": 45.35061, "Lon": 9.12705}], "Badin": [{"Name": "Badin", "Country Code": "PK", "Population": 73569.0, "Lat": 24.656, "Lon": 68.837}, {"Name": "Badin", "Country Code": "US", "Population": 1981.0, "Lat": 35.40597, "Lon": -80.11672}], "Badiraguato": [{"Name": "Badiraguato", "Country Code": "MX", "Population": 3725.0, "Lat": 25.36525, "Lon": -107.55083}], "Badiyah": [{"Name": "Bad\u012byah", "Country Code": "OM", "Population": 18479.0, "Lat": 22.45, "Lon": 58.8}], "Badja Kunda": [{"Name": "Badja Kunda", "Country Code": "GM", "Population": 7403.0, "Lat": 13.46667, "Lon": -14.05}], "Badlan": [{"Name": "Badlan", "Country Code": "PH", "Population": 2041.0, "Lat": 11.1414, "Lon": 122.52}], "Badlapur": [{"Name": "Badlapur", "Country Code": "IN", "Population": 104636.0, "Lat": 19.15516, "Lon": 73.26553}], "Badnawar": [{"Name": "Badn\u0101war", "Country Code": "IN", "Population": 18790.0, "Lat": 23.02181, "Lon": 75.23268}], "Badoc": [{"Name": "Badoc", "Country Code": "PH", "Population": 4319.0, "Lat": 17.9265, "Lon": 120.4764}], "Badoere": [{"Name": "Badoere", "Country Code": "IT", "Population": 2165.0, "Lat": 45.6342, "Lon": 12.08518}], "Badolato": [{"Name": "Badolato", "Country Code": "IT", "Population": 398.0, "Lat": 38.56868, "Lon": 16.52461}], "Badolato Marina": [{"Name": "Badolato Marina", "Country Code": "IT", "Population": 2490.0, "Lat": 38.57613, "Lon": 16.56527}], "Badolatosa": [{"Name": "Badolatosa", "Country Code": "ES", "Population": 3184.0, "Lat": 37.30785, "Lon": -4.67296}], "Badon": [{"Name": "Badon", "Country Code": "CI", "Population": 1406.0, "Lat": 9.45035, "Lon": -6.06804}], "Badonviller": [{"Name": "Badonviller", "Country Code": "FR", "Population": 1617.0, "Lat": 48.50116, "Lon": 6.89218}], "Badosi": [{"Name": "B\u0103do\u0219i", "Country Code": "RO", "Population": 1036.0, "Lat": 44.14723, "Lon": 23.88974}], "Badou": [{"Name": "Badou", "Country Code": "TG", "Population": 24000.0, "Lat": 7.58333, "Lon": 0.6}], "Badoua": [{"Name": "Badoua", "Country Code": "CI", "Population": 1453.0, "Lat": 5.17474, "Lon": -3.07317}], "Badouboua": [{"Name": "Badouboua", "Country Code": "CI", "Population": 1212.0, "Lat": 6.68742, "Lon": -6.4322}], "Badovinci": [{"Name": "Badovinci", "Country Code": "RS", "Population": 5879.0, "Lat": 44.78534, "Lon": 19.37146}], "Badr": [{"Name": "Badr", "Country Code": "EG", "Population": 32940.0, "Lat": 30.136, "Lon": 31.715}, {"Name": "Badr", "Country Code": "EG", "Population": 28091.0, "Lat": 30.575, "Lon": 30.71111}], "Badr Hunayn": [{"Name": "Badr \u1e28unayn", "Country Code": "SA", "Population": 27257.0, "Lat": 23.78292, "Lon": 38.79047}], "Badrah": [{"Name": "Badrah", "Country Code": "IQ", "Population": 0.0, "Lat": 33.11508, "Lon": 45.93344}, {"Name": "Badrah", "Country Code": "MN", "Population": 0.0, "Lat": 49.61833, "Lon": 101.98972}], "Badreh": [{"Name": "Badreh", "Country Code": "IR", "Population": 0.0, "Lat": 33.30573, "Lon": 47.03708}], "Badsey": [{"Name": "Badsey", "Country Code": "GB", "Population": 2601.0, "Lat": 52.08819, "Lon": -1.89925}], "Badsworth": [{"Name": "Badsworth", "Country Code": "GB", "Population": 682.0, "Lat": 53.62876, "Lon": -1.30128}], "Badu": [{"Name": "Badu", "Country Code": "CN", "Population": 4370.0, "Lat": 26.81028, "Lon": 119.56417}], "Baduleasa": [{"Name": "B\u0103duleasa", "Country Code": "RO", "Population": 1214.0, "Lat": 43.92286, "Lon": 24.98274}], "Badules": [{"Name": "Badules", "Country Code": "ES", "Population": 105.0, "Lat": 41.13901, "Lon": -1.25366}], "Badulla": [{"Name": "Badulla", "Country Code": "LK", "Population": 47587.0, "Lat": 6.9802, "Lon": 81.0577}], "Baduria": [{"Name": "Bad\u016bria", "Country Code": "IN", "Population": 49547.0, "Lat": 22.74431, "Lon": 88.78655}], "Badvel": [{"Name": "Badvel", "Country Code": "IN", "Population": 16238.0, "Lat": 14.7451, "Lon": 79.06288}], "Bady Bassitt": [{"Name": "Bady Bassitt", "Country Code": "BR", "Population": 14214.0, "Lat": -20.91806, "Lon": -49.44528}], "Badyokaha": [{"Name": "Badyokaha", "Country Code": "CI", "Population": 1781.0, "Lat": 8.81993, "Lon": -5.19838}], "Baech": [{"Name": "B\u00e4ch", "Country Code": "CH", "Population": 1479.0, "Lat": 47.20388, "Lon": 8.73224}], "Baekjeon": [{"Name": "Baekjeon", "Country Code": "KR", "Population": 0.0, "Lat": 35.55344, "Lon": 127.63557}], "Baekke": [{"Name": "B\u00e6kke", "Country Code": "DK", "Population": 1067.0, "Lat": 55.57025, "Lon": 9.13974}], "Baekrajan": [{"Name": "Baekrajan", "Country Code": "ID", "Population": 57920.0, "Lat": -6.7674, "Lon": 110.8541}], "Baeksu": [{"Name": "Baeksu", "Country Code": "KR", "Population": 0.0, "Lat": 35.28401, "Lon": 126.42038}], "Baelen": [{"Name": "Baelen", "Country Code": "BE", "Population": 3928.0, "Lat": 50.63131, "Lon": 5.97433}], "Baelinge": [{"Name": "B\u00e4linge", "Country Code": "SE", "Population": 2406.0, "Lat": 59.95, "Lon": 17.53333}], "Baells": [{"Name": "Baells", "Country Code": "ES", "Population": 0.0, "Lat": 41.95325, "Lon": 0.45956}], "Baena": [{"Name": "Baena", "Country Code": "ES", "Population": 20915.0, "Lat": 37.6167, "Lon": -4.32245}], "Baependi": [{"Name": "Baependi", "Country Code": "BR", "Population": 12853.0, "Lat": -21.95889, "Lon": -44.89}], "Baerenstein": [{"Name": "B\u00e4renstein", "Country Code": "DE", "Population": 1064.0, "Lat": 50.80125, "Lon": 13.79771}], "Baernbach": [{"Name": "B\u00e4rnbach", "Country Code": "AT", "Population": 4178.0, "Lat": 47.07141, "Lon": 15.12792}], "Baernkopf": [{"Name": "B\u00e4rnkopf", "Country Code": "AT", "Population": 355.0, "Lat": 48.39046, "Lon": 15.00479}], "Baesweiler": [{"Name": "Baesweiler", "Country Code": "DE", "Population": 27834.0, "Lat": 50.90964, "Lon": 6.18874}], "Baetovo": [{"Name": "Baetovo", "Country Code": "KG", "Population": 10682.0, "Lat": 41.26668, "Lon": 74.95698}], "Baeza": [{"Name": "Baeza", "Country Code": "ES", "Population": 16253.0, "Lat": 37.99384, "Lon": -3.47103}], "Bafang": [{"Name": "Bafang", "Country Code": "CM", "Population": 54505.0, "Lat": 5.15705, "Lon": 10.1771}], "Bafata": [{"Name": "Bafat\u00e1", "Country Code": "GW", "Population": 33502.0, "Lat": 12.16583, "Lon": -14.66167}], "Baffa": [{"Name": "Baffa", "Country Code": "PK", "Population": 14047.0, "Lat": 34.4377, "Lon": 73.22368}], "Baffia": [{"Name": "Baffia", "Country Code": "CI", "Population": 3965.0, "Lat": 5.53891, "Lon": -2.99023}], "Bafia": [{"Name": "Bafia", "Country Code": "CM", "Population": 74050.0, "Lat": 4.75, "Lon": 11.23333}], "Bafilo": [{"Name": "Bafilo", "Country Code": "TG", "Population": 22543.0, "Lat": 9.35, "Lon": 1.26667}], "Baflo": [{"Name": "Baflo", "Country Code": "NL", "Population": 1730.0, "Lat": 53.3625, "Lon": 6.51389}], "Bafoulabe": [{"Name": "Bafoulab\u00e9", "Country Code": "ML", "Population": 26823.0, "Lat": 13.8065, "Lon": -10.8321}], "Bafoussam": [{"Name": "Bafoussam", "Country Code": "CM", "Population": 373268.0, "Lat": 5.47775, "Lon": 10.41759}], "Bafq": [{"Name": "B\u0101fq", "Country Code": "IR", "Population": 31215.0, "Lat": 31.6035, "Lon": 55.40249}], "Bafra": [{"Name": "Bafra", "Country Code": "TR", "Population": 92944.0, "Lat": 41.56778, "Lon": 35.90694}], "Bafretou": [{"Name": "Bafretou", "Country Code": "CI", "Population": 3546.0, "Lat": 8.79161, "Lon": -6.5986}], "Baft": [{"Name": "B\u0101ft", "Country Code": "IR", "Population": 0.0, "Lat": 29.2331, "Lon": 56.6022}], "Bafut": [{"Name": "Bafut", "Country Code": "CM", "Population": 25563.0, "Lat": 6.08333, "Lon": 10.1}], "Bag": [{"Name": "Bag", "Country Code": "HU", "Population": 4071.0, "Lat": 47.63333, "Lon": 19.48333}, {"Name": "B\u0101g", "Country Code": "IN", "Population": 7764.0, "Lat": 22.35905, "Lon": 74.79052}], "Bag`dod": [{"Name": "Bag\u2018dod", "Country Code": "UZ", "Population": 0.0, "Lat": 40.46306, "Lon": 71.21222}], "Baga": [{"Name": "Bag\u00e0", "Country Code": "ES", "Population": 2178.0, "Lat": 42.25289, "Lon": 1.86098}, {"Name": "Baga", "Country Code": "IN", "Population": 2000.0, "Lat": 15.56517, "Lon": 73.75517}], "Bagabag": [{"Name": "Bagabag", "Country Code": "PH", "Population": 0.0, "Lat": 16.6068, "Lon": 121.2542}], "Bagabasso": [{"Name": "Bagabasso", "Country Code": "CI", "Population": 1525.0, "Lat": 8.45926, "Lon": -6.7496}], "Bagac": [{"Name": "Bagac", "Country Code": "PH", "Population": 3969.0, "Lat": 14.5962, "Lon": 120.3928}], "Bagacay": [{"Name": "Bagacay", "Country Code": "PH", "Population": 2991.0, "Lat": 13.777, "Lon": 123.3032}, {"Name": "Bagacay", "Country Code": "PH", "Population": 2190.0, "Lat": 9.8664, "Lon": 123.918}, {"Name": "Bagacay", "Country Code": "PH", "Population": 3158.0, "Lat": 12.9821, "Lon": 124.1415}, {"Name": "Bagacay", "Country Code": "PH", "Population": 3090.0, "Lat": 10.15209, "Lon": 124.25857}], "Bagaces": [{"Name": "Bagaces", "Country Code": "CR", "Population": 4108.0, "Lat": 10.52541, "Lon": -85.25537}], "Bagaciu": [{"Name": "B\u0103gaciu", "Country Code": "RO", "Population": 2549.0, "Lat": 46.26667, "Lon": 24.36667}], "Bagado": [{"Name": "Bagad\u00f3", "Country Code": "CO", "Population": 4561.0, "Lat": 5.41164, "Lon": -76.4152}], "Bagaha": [{"Name": "Bagaha", "Country Code": "IN", "Population": 91383.0, "Lat": 24.52898, "Lon": 85.06019}, {"Name": "Bagaha", "Country Code": "IN", "Population": 103855.0, "Lat": 27.09918, "Lon": 84.09003}], "Bagahanlad": [{"Name": "Bagahanlad", "Country Code": "PH", "Population": 2649.0, "Lat": 12.5797, "Lon": 123.6688}], "Bagakay": [{"Name": "Bagakay", "Country Code": "PH", "Population": 3136.0, "Lat": 8.1454, "Lon": 123.8157}], "Bagala": [{"Name": "B\u00e1gala", "Country Code": "PA", "Population": 910.0, "Lat": 8.46711, "Lon": -82.52688}], "Bagaladi": [{"Name": "Bagaladi", "Country Code": "IT", "Population": 931.0, "Lat": 38.0256, "Lon": 15.82152}], "Bagalangit": [{"Name": "Bagalangit", "Country Code": "PH", "Population": 2401.0, "Lat": 13.71041, "Lon": 120.88467}], "Bagale": [{"Name": "Bagale", "Country Code": "ZA", "Population": 16087.0, "Lat": -26.06566, "Lon": 27.64765}], "Bagalkot": [{"Name": "Bagalkot", "Country Code": "IN", "Population": 97269.0, "Lat": 16.18673, "Lon": 75.69614}], "Bagamanoc": [{"Name": "Bagamanoc", "Country Code": "PH", "Population": 0.0, "Lat": 13.9404, "Lon": 124.28962}], "Bagamer": [{"Name": "Bagam\u00e9r", "Country Code": "HU", "Population": 2433.0, "Lat": 47.44882, "Lon": 21.989}], "Bagamoyo": [{"Name": "Bagamoyo", "Country Code": "TZ", "Population": 82426.0, "Lat": -6.44222, "Lon": 38.90422}], "Bagan": [{"Name": "Bagan", "Country Code": "PH", "Population": 2230.0, "Lat": 6.92556, "Lon": 124.42028}, {"Name": "Bagan", "Country Code": "RU", "Population": 5803.0, "Lat": 54.10014, "Lon": 77.66462}], "Bagan Pulau Ketam": [{"Name": "Bagan Pulau Ketam", "Country Code": "MY", "Population": 2000.0, "Lat": 3.01667, "Lon": 101.26667}], "Bagan Serai": [{"Name": "Bagan Serai", "Country Code": "MY", "Population": 20476.0, "Lat": 5.0108, "Lon": 100.54101}], "Bagan Si Api-api": [{"Name": "Bagan Si Api-api", "Country Code": "ID", "Population": 0.0, "Lat": 2.15668, "Lon": 100.80763}], "Baganga": [{"Name": "Baganga", "Country Code": "PH", "Population": 10106.0, "Lat": 7.57389, "Lon": 126.56}], "Bagani": [{"Name": "Bagani", "Country Code": NaN, "Population": 2000.0, "Lat": -18.11065, "Lon": 21.61645}], "Baganzola": [{"Name": "Baganzola", "Country Code": "IT", "Population": 2205.0, "Lat": 44.85513, "Lon": 10.30706}], "Bagao": [{"Name": "Bagao", "Country Code": "CI", "Population": 2389.0, "Lat": 8.17265, "Lon": -5.70502}], "Bagar": [{"Name": "Bagar", "Country Code": "IN", "Population": 15670.0, "Lat": 28.18784, "Lon": 75.50012}], "Bagarasi": [{"Name": "Ba\u011faras\u0131", "Country Code": "TR", "Population": 0.0, "Lat": 37.7071, "Lon": 27.54875}], "Bagard": [{"Name": "Bagard", "Country Code": "FR", "Population": 2200.0, "Lat": 44.07281, "Lon": 4.05137}], "Bagarji": [{"Name": "Bagarji", "Country Code": "PK", "Population": 8005.0, "Lat": 27.75431, "Lon": 68.75866}], "Bagaroua": [{"Name": "Bagaroua", "Country Code": "NE", "Population": 12853.0, "Lat": 14.63616, "Lon": 4.34896}], "Bagasra": [{"Name": "Bagasra", "Country Code": "IN", "Population": 32944.0, "Lat": 21.48719, "Lon": 70.95516}], "Bagassehoa": [{"Name": "Bagass\u00e9hoa", "Country Code": "CI", "Population": 5747.0, "Lat": 6.19053, "Lon": -6.36254}], "Bagatogo": [{"Name": "Bagatogo", "Country Code": "CI", "Population": 1079.0, "Lat": 8.75546, "Lon": -6.7023}], "Bagay": [{"Name": "Bagay", "Country Code": "PH", "Population": 4977.0, "Lat": 11.1964, "Lon": 124.035}], "Bagayevskaya": [{"Name": "Bagayevskaya", "Country Code": "RU", "Population": 15300.0, "Lat": 47.32411, "Lon": 40.38791}], "Bagcilar": [{"Name": "Ba\u011fc\u0131lar", "Country Code": "TR", "Population": 749024.0, "Lat": 41.03903, "Lon": 28.85671}], "Bagdad": [{"Name": "Bagdad", "Country Code": "AU", "Population": 1337.0, "Lat": -42.62968, "Lon": 147.22339}, {"Name": "Bagdad", "Country Code": "US", "Population": 1876.0, "Lat": 34.58113, "Lon": -113.20464}, {"Name": "Bagdad", "Country Code": "US", "Population": 3761.0, "Lat": 30.5988, "Lon": -87.03223}], "Bagdadi": [{"Name": "Bagdadi", "Country Code": "GE", "Population": 4564.0, "Lat": 41.81667, "Lon": 46.03333}], "Bagdarin": [{"Name": "Bagdarin", "Country Code": "RU", "Population": 4676.0, "Lat": 54.43333, "Lon": 113.6}], "Bagdere": [{"Name": "Ba\u011fdere", "Country Code": "TR", "Population": 0.0, "Lat": 38.11442, "Lon": 40.73382}], "Bagdogra": [{"Name": "Bagdogra", "Country Code": "IN", "Population": 17372.0, "Lat": 26.69929, "Lon": 88.31177}], "Bage": [{"Name": "Bag\u00e9", "Country Code": "BR", "Population": 98940.0, "Lat": -31.33139, "Lon": -54.10694}], "Bage'awati": [{"Name": "Bage'awati", "Country Code": "CN", "Population": 16951.0, "Lat": 38.48908, "Lon": 77.54022}], "Bage-la-Ville": [{"Name": "B\u00e2g\u00e9-la-Ville", "Country Code": "FR", "Population": 2581.0, "Lat": 46.31567, "Lon": 4.94086}], "Bagenalstown": [{"Name": "Bagenalstown", "Country Code": "IE", "Population": 2837.0, "Lat": 52.70031, "Lon": -6.96181}], "Bagepalli": [{"Name": "B\u0101gepalli", "Country Code": "IN", "Population": 24031.0, "Lat": 13.78338, "Lon": 77.79667}], "Bageqi": [{"Name": "Bageqi", "Country Code": "CN", "Population": 57153.0, "Lat": 37.14071, "Lon": 79.83509}], "Bagerhat": [{"Name": "Bagerhat", "Country Code": "BD", "Population": 266388.0, "Lat": 22.65657, "Lon": 89.79123}], "Bages": [{"Name": "Bages", "Country Code": "FR", "Population": 3636.0, "Lat": 42.60603, "Lon": 2.89348}], "Bageshwar": [{"Name": "B\u0101geshwar", "Country Code": "IN", "Population": 8708.0, "Lat": 29.83738, "Lon": 79.77161}], "Baggabag B": [{"Name": "Baggabag B", "Country Code": "PH", "Population": 24967.0, "Lat": 16.50588, "Lon": 121.19014}], "Baggiovara": [{"Name": "Baggiovara", "Country Code": "IT", "Population": 2513.0, "Lat": 44.60416, "Lon": 10.86256}], "Baggoeze": [{"Name": "Ba\u011fg\u00f6ze", "Country Code": "TR", "Population": 1130.0, "Lat": 37.71261, "Lon": 41.9154}], "Bagh": [{"Name": "Bagh", "Country Code": "PK", "Population": 0.0, "Lat": 33.98111, "Lon": 73.77608}], "Bagh-e Maidan": [{"Name": "B\u0101gh-e Ma\u012bd\u0101n", "Country Code": "AF", "Population": 0.0, "Lat": 35.22156, "Lon": 69.21397}], "Bagh-e Malek": [{"Name": "B\u0101gh-e Malek", "Country Code": "IR", "Population": 0.0, "Lat": 31.52398, "Lon": 49.88558}], "Bagha Purana": [{"Name": "B\u0101gha Pur\u0101na", "Country Code": "IN", "Population": 23360.0, "Lat": 30.68809, "Lon": 75.09838}], "Baghdad": [{"Name": "Baghdad", "Country Code": "IQ", "Population": 7216000.0, "Lat": 33.34058, "Lon": 44.40088}], "Bagheria": [{"Name": "Bagheria", "Country Code": "IT", "Population": 53149.0, "Lat": 38.07892, "Lon": 13.51237}], "Baghlan": [{"Name": "Baghl\u0101n", "Country Code": "AF", "Population": 108449.0, "Lat": 36.13068, "Lon": 68.70829}], "Baghpat": [{"Name": "B\u0101ghpat", "Country Code": "IN", "Population": 41766.0, "Lat": 28.94485, "Lon": 77.21865}], "Baghramyan": [{"Name": "Baghramyan", "Country Code": "AM", "Population": 2346.0, "Lat": 40.19452, "Lon": 44.36951}], "Bagillt": [{"Name": "Bagillt", "Country Code": "GB", "Population": 2749.0, "Lat": 53.2654, "Lon": -3.16551}], "Bagisli": [{"Name": "Ba\u011f\u0131\u015fl\u0131", "Country Code": "TR", "Population": 0.0, "Lat": 37.71769, "Lon": 44.0356}], "Bagkonak": [{"Name": "Ba\u011fkonak", "Country Code": "TR", "Population": 0.0, "Lat": 38.2175, "Lon": 31.27222}], "Baglar": [{"Name": "Ba\u011flar", "Country Code": "TR", "Population": 0.0, "Lat": 37.91375, "Lon": 40.20584}], "Bagley": [{"Name": "Bagley", "Country Code": "US", "Population": 1394.0, "Lat": 47.52162, "Lon": -95.39835}], "Bagli": [{"Name": "B\u0101gli", "Country Code": "IN", "Population": 10764.0, "Lat": 22.64124, "Lon": 76.34877}], "Baglica": [{"Name": "Ba\u011fl\u0131ca", "Country Code": "TR", "Population": 0.0, "Lat": 37.86978, "Lon": 41.75095}, {"Name": "Ba\u011fl\u0131ca", "Country Code": "TR", "Population": 1329.0, "Lat": 37.52705, "Lon": 40.68618}], "Baglo": [{"Name": "Baglo", "Country Code": "CI", "Population": 6607.0, "Lat": 6.37166, "Lon": -7.1439}], "Baglung": [{"Name": "B\u0101glung", "Country Code": "NP", "Population": 23296.0, "Lat": 28.27189, "Lon": 83.58975}], "Bagn": [{"Name": "Bagn", "Country Code": "NO", "Population": 607.0, "Lat": 60.82249, "Lon": 9.55207}], "Bagnac-sur-Cele": [{"Name": "Bagnac-sur-C\u00e9l\u00e9", "Country Code": "FR", "Population": 1562.0, "Lat": 44.66667, "Lon": 2.16667}], "Bagnacavallo": [{"Name": "Bagnacavallo", "Country Code": "IT", "Population": 8550.0, "Lat": 44.41402, "Lon": 11.97813}], "Bagnan": [{"Name": "B\u0101gn\u0101n", "Country Code": "IN", "Population": 8494.0, "Lat": 22.93338, "Lon": 88.13856}], "Bagnara Calabra": [{"Name": "Bagnara Calabra", "Country Code": "IT", "Population": 8505.0, "Lat": 38.28778, "Lon": 15.80591}], "Bagnara di Romagna": [{"Name": "Bagnara di Romagna", "Country Code": "IT", "Population": 1790.0, "Lat": 44.3893, "Lon": 11.82726}], "Bagnaria": [{"Name": "Bagnaria", "Country Code": "IT", "Population": 247.0, "Lat": 44.82726, "Lon": 9.12256}], "Bagnaria Arsa": [{"Name": "Bagnaria Arsa", "Country Code": "IT", "Population": 727.0, "Lat": 45.88383, "Lon": 13.28562}], "Bagnarola": [{"Name": "Bagnarola", "Country Code": "IT", "Population": 1599.0, "Lat": 44.16232, "Lon": 12.3428}, {"Name": "Bagnarola", "Country Code": "IT", "Population": 1875.0, "Lat": 45.8669, "Lon": 12.85886}], "Bagnasco": [{"Name": "Bagnasco", "Country Code": "IT", "Population": 936.0, "Lat": 44.30412, "Lon": 8.04522}], "Bagnatica": [{"Name": "Bagnatica", "Country Code": "IT", "Population": 3578.0, "Lat": 45.66088, "Lon": 9.78106}], "Bagneaux-sur-Loing": [{"Name": "Bagneaux-sur-Loing", "Country Code": "FR", "Population": 1569.0, "Lat": 48.2331, "Lon": 2.70675}], "Bagneres-de-Bigorre": [{"Name": "Bagn\u00e8res-de-Bigorre", "Country Code": "FR", "Population": 8967.0, "Lat": 43.06497, "Lon": 0.14876}], "Bagneres-de-Luchon": [{"Name": "Bagn\u00e8res-de-Luchon", "Country Code": "FR", "Population": 3380.0, "Lat": 42.79079, "Lon": 0.59341}], "Bagnes": [{"Name": "Bagnes", "Country Code": "CH", "Population": 6626.0, "Lat": 46.08333, "Lon": 7.21667}], "Bagneux": [{"Name": "Bagneux", "Country Code": "FR", "Population": 38900.0, "Lat": 48.79565, "Lon": 2.30796}], "Bagni di Lucca": [{"Name": "Bagni di Lucca", "Country Code": "IT", "Population": 3090.0, "Lat": 44.00513, "Lon": 10.5531}], "Bagni di Tivoli": [{"Name": "Bagni di Tivoli", "Country Code": "IT", "Population": 9418.0, "Lat": 41.95, "Lon": 12.71667}], "Bagno": [{"Name": "Bagno", "Country Code": "IT", "Population": 1714.0, "Lat": 44.65545, "Lon": 10.75881}], "Bagno Roselle": [{"Name": "Bagno Roselle", "Country Code": "IT", "Population": 1869.0, "Lat": 42.81114, "Lon": 11.13859}], "Bagno a Ripoli": [{"Name": "Bagno a Ripoli", "Country Code": "IT", "Population": 5121.0, "Lat": 43.75115, "Lon": 11.32252}], "Bagnoles-de-l'Orne": [{"Name": "Bagnoles-de-l'Orne", "Country Code": "FR", "Population": 2454.0, "Lat": 48.5572, "Lon": -0.41383}], "Bagnolet": [{"Name": "Bagnolet", "Country Code": "FR", "Population": 33504.0, "Lat": 48.86667, "Lon": 2.41667}], "Bagnoli": [{"Name": "Bagnoli", "Country Code": "IT", "Population": 23333.0, "Lat": 40.81322, "Lon": 14.16807}], "Bagnoli Irpino": [{"Name": "Bagnoli Irpino", "Country Code": "IT", "Population": 2953.0, "Lat": 40.83103, "Lon": 15.07173}], "Bagnoli del Trigno": [{"Name": "Bagnoli del Trigno", "Country Code": "IT", "Population": 590.0, "Lat": 41.70217, "Lon": 14.45861}], "Bagnoli di Sopra": [{"Name": "Bagnoli di Sopra", "Country Code": "IT", "Population": 1745.0, "Lat": 45.18667, "Lon": 11.88433}], "Bagnolo": [{"Name": "Bagnolo", "Country Code": "IT", "Population": 1159.0, "Lat": 45.27238, "Lon": 10.89081}], "Bagnolo Cremasco": [{"Name": "Bagnolo Cremasco", "Country Code": "IT", "Population": 4592.0, "Lat": 45.36117, "Lon": 9.61296}], "Bagnolo Mella": [{"Name": "Bagnolo Mella", "Country Code": "IT", "Population": 11871.0, "Lat": 45.42765, "Lon": 10.18638}], "Bagnolo Piemonte": [{"Name": "Bagnolo Piemonte", "Country Code": "IT", "Population": 2704.0, "Lat": 44.76034, "Lon": 7.31392}], "Bagnolo San Vito": [{"Name": "Bagnolo San Vito", "Country Code": "IT", "Population": 1991.0, "Lat": 45.08892, "Lon": 10.87747}], "Bagnolo del Salento": [{"Name": "Bagnolo del Salento", "Country Code": "IT", "Population": 1879.0, "Lat": 40.14908, "Lon": 18.35208}], "Bagnolo di Po": [{"Name": "Bagnolo di Po", "Country Code": "IT", "Population": 532.0, "Lat": 45.01548, "Lon": 11.50091}], "Bagnolo in Piano": [{"Name": "Bagnolo in Piano", "Country Code": "IT", "Population": 7663.0, "Lat": 44.76437, "Lon": 10.67358}], "Bagnols-en-Foret": [{"Name": "Bagnols-en-For\u00eat", "Country Code": "FR", "Population": 1810.0, "Lat": 43.53752, "Lon": 6.69814}], "Bagnols-sur-Ceze": [{"Name": "Bagnols-sur-C\u00e8ze", "Country Code": "FR", "Population": 19640.0, "Lat": 44.16259, "Lon": 4.61974}], "Bagnone": [{"Name": "Bagnone", "Country Code": "IT", "Population": 648.0, "Lat": 44.31494, "Lon": 9.99507}], "Bagnoregio": [{"Name": "Bagnoregio", "Country Code": "IT", "Population": 2326.0, "Lat": 42.62845, "Lon": 12.08969}], "Bago": [{"Name": "Bago", "Country Code": "CI", "Population": 1928.0, "Lat": 5.49285, "Lon": -4.26868}, {"Name": "Bago", "Country Code": "MM", "Population": 244376.0, "Lat": 17.33521, "Lon": 96.48135}], "Bago City": [{"Name": "Bago City", "Country Code": "PH", "Population": 191210.0, "Lat": 10.53333, "Lon": 122.83333}], "Bagohouo": [{"Name": "Bagohouo", "Country Code": "CI", "Population": 13441.0, "Lat": 6.89011, "Lon": -7.19282}], "Bagojo Colectivo": [{"Name": "Bagojo Colectivo", "Country Code": "MX", "Population": 4997.0, "Lat": 25.87417, "Lon": -109.11778}], "Bagok": [{"Name": "Bagok", "Country Code": "ID", "Population": 0.0, "Lat": 4.94707, "Lon": 97.66519}], "Bagolieoua": [{"Name": "Bagoli\u00e9oua", "Country Code": "CI", "Population": 6446.0, "Lat": 6.16794, "Lon": -6.53318}], "Bagolino": [{"Name": "Bagolino", "Country Code": "IT", "Population": 2104.0, "Lat": 45.82519, "Lon": 10.46183}], "Bagombong": [{"Name": "Bagombong", "Country Code": "PH", "Population": 2984.0, "Lat": 14.3413, "Lon": 121.3775}], "Bagong Barrio": [{"Name": "Bagong Barrio", "Country Code": "PH", "Population": 4205.0, "Lat": 14.88993, "Lon": 120.94095}], "Bagong Pagasa": [{"Name": "Bagong Pagasa", "Country Code": "PH", "Population": 46365.0, "Lat": 14.6627, "Lon": 121.0328}], "Bagong Sikat": [{"Name": "Bagong Sikat", "Country Code": "PH", "Population": 5468.0, "Lat": 12.36745, "Lon": 121.06171}], "Bagong Silangan": [{"Name": "Bagong Silangan", "Country Code": "PH", "Population": 106886.0, "Lat": 14.706, "Lon": 121.108}], "Bagong Tanza": [{"Name": "Bagong Tanza", "Country Code": "PH", "Population": 2404.0, "Lat": 16.98269, "Lon": 121.61109}], "Bagong-Sikat": [{"Name": "Bagong-Sikat", "Country Code": "PH", "Population": 2665.0, "Lat": 15.4801, "Lon": 121.3073}], "Bagontapay": [{"Name": "Bagontapay", "Country Code": "PH", "Population": 6747.0, "Lat": 6.85889, "Lon": 124.90889}], "Bagouri": [{"Name": "Bagouri", "Country Code": "CI", "Population": 7858.0, "Lat": 7.12992, "Lon": -6.81457}], "Bagpinar": [{"Name": "Ba\u011fp\u0131nar", "Country Code": "TR", "Population": 73.0, "Lat": 37.59139, "Lon": 38.3191}], "Bagra": [{"Name": "Bagra", "Country Code": "IN", "Population": 11364.0, "Lat": 23.73333, "Lon": 86.31667}], "Bagrami": [{"Name": "Bagr\u0101m\u012b", "Country Code": "AF", "Population": 0.0, "Lat": 34.49376, "Lon": 69.27427}], "Bagramovo": [{"Name": "Bagramovo", "Country Code": "RU", "Population": 2174.0, "Lat": 54.72337, "Lon": 39.45186}], "Bagratashen": [{"Name": "Bagratashen", "Country Code": "AM", "Population": 3024.0, "Lat": 41.24358, "Lon": 44.81737}], "Bagrationovsk": [{"Name": "Bagrationovsk", "Country Code": "RU", "Population": 7306.0, "Lat": 54.38714, "Lon": 20.64372}], "Bagroy": [{"Name": "Bagroy", "Country Code": "PH", "Population": 2361.0, "Lat": 10.2031, "Lon": 122.9362}], "Bagshot": [{"Name": "Bagshot", "Country Code": "GB", "Population": 5430.0, "Lat": 51.36069, "Lon": -0.68802}], "Bagtic": [{"Name": "Bagtic", "Country Code": "PH", "Population": 3835.0, "Lat": 9.6864, "Lon": 123.0122}], "Bagu": [{"Name": "Bagu", "Country Code": "PH", "Population": 2120.0, "Lat": 18.42441, "Lon": 121.35573}], "Bagua": [{"Name": "Bagua", "Country Code": "PE", "Population": 0.0, "Lat": -5.63311, "Lon": -78.53431}], "Bagua Grande": [{"Name": "Bagua Grande", "Country Code": "PE", "Population": 20382.0, "Lat": -5.75611, "Lon": -78.44111}], "Baguanos": [{"Name": "B\u00e1guanos", "Country Code": "CU", "Population": 0.0, "Lat": 20.75103, "Lon": -76.02571}], "Bagudo": [{"Name": "Bagudo", "Country Code": "NG", "Population": 6924.0, "Lat": 11.40351, "Lon": 4.22571}], "Baguena": [{"Name": "B\u00e1guena", "Country Code": "ES", "Population": 395.0, "Lat": 41.04181, "Lon": -1.35767}], "Baguer": [{"Name": "Baguer", "Country Code": "PH", "Population": 3228.0, "Lat": 7.25611, "Lon": 124.50417}], "Baguer-Morvan": [{"Name": "Baguer-Morvan", "Country Code": "FR", "Population": 1465.0, "Lat": 48.52475, "Lon": -1.77454}], "Baguer-Pican": [{"Name": "Baguer-Pican", "Country Code": "FR", "Population": 1080.0, "Lat": 48.55252, "Lon": -1.69927}], "Bagues": [{"Name": "Bag\u00fc\u00e9s", "Country Code": "ES", "Population": 42.0, "Lat": 42.54935, "Lon": -0.94577}], "Baguim do Monte": [{"Name": "Baguim do Monte", "Country Code": "PT", "Population": 15850.0, "Lat": 41.19203, "Lon": -8.54118}], "Baguinge": [{"Name": "Baguinge", "Country Code": "PH", "Population": 2078.0, "Lat": 16.77767, "Lon": 121.10624}], "Baguio": [{"Name": "Baguio", "Country Code": "PH", "Population": 272714.0, "Lat": 16.41639, "Lon": 120.59306}], "Baguio Villa": [{"Name": "Baguio Villa", "Country Code": "HK", "Population": 5339.0, "Lat": 22.26234, "Lon": 114.13364}], "Bagula": [{"Name": "Bagul\u0101", "Country Code": "IN", "Population": 20999.0, "Lat": 23.33664, "Lon": 88.64109}], "Bagulin": [{"Name": "Bagulin", "Country Code": "PH", "Population": 2083.0, "Lat": 16.60833, "Lon": 120.43944}], "Bagumbayan": [{"Name": "Bagumbayan", "Country Code": "PH", "Population": 2095.0, "Lat": 13.4653, "Lon": 123.3899}, {"Name": "Bagumbayan", "Country Code": "PH", "Population": 4062.0, "Lat": 17.72271, "Lon": 121.44695}, {"Name": "Bagumbayan", "Country Code": "PH", "Population": 2577.0, "Lat": 10.446, "Lon": 122.8348}, {"Name": "Bagumbayan", "Country Code": "PH", "Population": 2990.0, "Lat": 13.45, "Lon": 123.66667}, {"Name": "Bagumbayan", "Country Code": "PH", "Population": 2163.0, "Lat": 18.1939, "Lon": 121.66302}], "Bagupaye": [{"Name": "Bagupaye", "Country Code": "PH", "Population": 2578.0, "Lat": 13.565, "Lon": 122.3902}], "Bagwai": [{"Name": "Bagwai", "Country Code": "NG", "Population": 0.0, "Lat": 12.1577, "Lon": 8.1358}], "Bagworth": [{"Name": "Bagworth", "Country Code": "GB", "Population": 1472.0, "Lat": 52.67265, "Lon": -1.34274}], "Bah": [{"Name": "B\u0101h", "Country Code": "IN", "Population": 15359.0, "Lat": 26.86912, "Lon": 78.59385}], "Bah-Bah": [{"Name": "Bah-Bah", "Country Code": "PH", "Population": 28643.0, "Lat": 8.60722, "Lon": 125.91444}], "Bahabad": [{"Name": "Bah\u0101b\u0101d", "Country Code": "IR", "Population": 0.0, "Lat": 31.87091, "Lon": 56.02433}], "Bahabon": [{"Name": "Bahab\u00f3n", "Country Code": "ES", "Population": 202.0, "Lat": 41.48141, "Lon": -4.27941}], "Bahabon de Esgueva": [{"Name": "Bahab\u00f3n de Esgueva", "Country Code": "ES", "Population": 120.0, "Lat": 41.86162, "Lon": -3.7298}], "Bahadurganj": [{"Name": "Bah\u0101durganj", "Country Code": "IN", "Population": 31405.0, "Lat": 26.26172, "Lon": 87.82443}], "Bahadurgarh": [{"Name": "Bah\u0101durgarh", "Country Code": "IN", "Population": 153613.0, "Lat": 28.69287, "Lon": 76.93555}], "Bahan": [{"Name": "Ba\u1e96an", "Country Code": "IL", "Population": 1084.0, "Lat": 32.35082, "Lon": 35.01862}], "Bahani": [{"Name": "Bahani", "Country Code": "KM", "Population": 1272.0, "Lat": -11.63972, "Lon": 43.28417}], "Bahar": [{"Name": "Bah\u0101r", "Country Code": "IR", "Population": 28645.0, "Lat": 34.9072, "Lon": 48.4414}], "Baharak": [{"Name": "Bah\u0101rak", "Country Code": "AF", "Population": 0.0, "Lat": 37.00254, "Lon": 70.90664}], "Baharampur": [{"Name": "Baharampur", "Country Code": "IN", "Population": 180547.0, "Lat": 24.10473, "Lon": 88.25155}], "Baharly": [{"Name": "Baharly", "Country Code": "TM", "Population": 22991.0, "Lat": 38.43624, "Lon": 57.43158}], "Bahate": [{"Name": "Bahate", "Country Code": "UA", "Population": 3977.0, "Lat": 45.40718, "Lon": 28.94254}], "Bahati": [{"Name": "Bahati", "Country Code": "KE", "Population": 3180.0, "Lat": -0.15407, "Lon": 36.14634}], "Bahau": [{"Name": "Bahau", "Country Code": "MY", "Population": 31273.0, "Lat": 2.8079, "Lon": 102.4049}], "Bahawalnagar": [{"Name": "Bahawalnagar", "Country Code": "PK", "Population": 126700.0, "Lat": 30.55083, "Lon": 73.39083}, {"Name": "Bahawalnagar", "Country Code": "PK", "Population": 126617.0, "Lat": 29.99835, "Lon": 73.25272}], "Bahawalpur": [{"Name": "Bahawalpur", "Country Code": "PK", "Population": 552607.0, "Lat": 29.39779, "Lon": 71.6752}], "Bahay": [{"Name": "Bahay", "Country Code": "PH", "Population": 2501.0, "Lat": 13.5437, "Lon": 123.0407}], "Bahay Pare": [{"Name": "Bahay Pare", "Country Code": "PH", "Population": 9726.0, "Lat": 15.03238, "Lon": 120.88083}], "Bahce": [{"Name": "Bah\u00e7e", "Country Code": "TR", "Population": 13117.0, "Lat": 37.19724, "Lon": 36.57658}], "Bahcecik": [{"Name": "Bah\u00e7ecik", "Country Code": "TR", "Population": 8648.0, "Lat": 40.6681, "Lon": 29.91478}], "Bahcedere": [{"Name": "Bah\u00e7edere", "Country Code": "TR", "Population": 1072.0, "Lat": 38.80052, "Lon": 42.6381}], "Bahcelievler": [{"Name": "Bah\u00e7elievler", "Country Code": "TR", "Population": 576799.0, "Lat": 41.00231, "Lon": 28.8598}], "Bahcesaray": [{"Name": "Bah\u00e7esaray", "Country Code": "TR", "Population": 3731.0, "Lat": 38.1246, "Lon": 42.79825}], "Bahe-Blaon": [{"Name": "Bah\u00e9-Blaon", "Country Code": "CI", "Population": 17216.0, "Lat": 6.67073, "Lon": -7.34265}], "Baheli": [{"Name": "Baheli", "Country Code": "PH", "Population": 2255.0, "Lat": 10.01369, "Lon": 118.77294}], "Baheri": [{"Name": "Baheri", "Country Code": "IN", "Population": 63953.0, "Lat": 28.77416, "Lon": 79.4974}], "Baherove": [{"Name": "Baherove", "Country Code": "UA", "Population": 4315.0, "Lat": 45.37417, "Lon": 36.29705}], "Bahia Asuncion": [{"Name": "Bah\u00eda Asunci\u00f3n", "Country Code": "MX", "Population": 1484.0, "Lat": 27.14231, "Lon": -114.29582}], "Bahia Azul": [{"Name": "Bah\u00eda Azul", "Country Code": "PA", "Population": 379.0, "Lat": 9.14176, "Lon": -81.89425}], "Bahia Blanca": [{"Name": "Bah\u00eda Blanca", "Country Code": "AR", "Population": 299101.0, "Lat": -38.7176, "Lon": -62.26545}], "Bahia Honda": [{"Name": "Bah\u00eda Honda", "Country Code": "CU", "Population": 19834.0, "Lat": 22.90332, "Lon": -83.15994}, {"Name": "Bah\u00eda Honda", "Country Code": "PA", "Population": 131.0, "Lat": 7.70901, "Lon": -80.45139}], "Bahia Solano": [{"Name": "Bah\u00eda Solano", "Country Code": "CO", "Population": 9400.0, "Lat": 6.22622, "Lon": -77.40439}], "Bahia Tortugas": [{"Name": "Bah\u00eda Tortugas", "Country Code": "MX", "Population": 2671.0, "Lat": 27.69132, "Lon": -114.8948}], "Bahia de Caraquez": [{"Name": "Bah\u00eda de Car\u00e1quez", "Country Code": "EC", "Population": 37056.0, "Lat": -0.59792, "Lon": -80.42367}], "Bahia de Kino": [{"Name": "Bah\u00eda de Kino", "Country Code": "MX", "Population": 6050.0, "Lat": 28.82278, "Lon": -111.94083}], "Bahia de Lobos": [{"Name": "Bah\u00eda de Lobos", "Country Code": "MX", "Population": 2867.0, "Lat": 27.35167, "Lon": -110.45472}], "Bahir Dar": [{"Name": "Bahir Dar", "Country Code": "ET", "Population": 350000.0, "Lat": 11.59364, "Lon": 37.39077}], "Bahiry": [{"Name": "Bahiry", "Country Code": "CI", "Population": 3745.0, "Lat": 7.30762, "Lon": -6.73641}], "Bahjoi": [{"Name": "Bahjoi", "Country Code": "IN", "Population": 33752.0, "Lat": 28.39502, "Lon": 78.62659}], "Bahla'": [{"Name": "Bahl\u0101\u2019", "Country Code": "OM", "Population": 54338.0, "Lat": 22.97886, "Lon": 57.3047}], "Bahlingen": [{"Name": "Bahlingen", "Country Code": "DE", "Population": 3709.0, "Lat": 48.12064, "Lon": 7.73982}], "Bahna": [{"Name": "Bahna", "Country Code": "RO", "Population": 3713.0, "Lat": 46.78333, "Lon": 26.78333}, {"Name": "Bahna", "Country Code": "UA", "Population": 1237.0, "Lat": 48.22404, "Lon": 25.2321}], "Bahnea": [{"Name": "Bahnea", "Country Code": "RO", "Population": 3754.0, "Lat": 46.36667, "Lon": 24.48333}], "Bahnhof Reken": [{"Name": "Bahnhof Reken", "Country Code": "DE", "Population": 2325.0, "Lat": 51.8039, "Lon": 7.04434}], "Baho": [{"Name": "Baho", "Country Code": "FR", "Population": 2727.0, "Lat": 42.70084, "Lon": 2.8222}], "Bahoi": [{"Name": "Bahoi", "Country Code": "ID", "Population": 0.0, "Lat": 2.36191, "Lon": 125.37335}], "Bahon": [{"Name": "Bahon", "Country Code": "HT", "Population": 1618.0, "Lat": 19.46959, "Lon": -72.11466}], "Bahori": [{"Name": "Bahor\u00ed", "Country Code": "TJ", "Population": 0.0, "Lat": 37.40195, "Lon": 67.99446}], "Bahraigh": [{"Name": "Bahraigh", "Country Code": "IN", "Population": 182218.0, "Lat": 27.57429, "Lon": 81.59474}], "Bahrdorf": [{"Name": "Bahrdorf", "Country Code": "DE", "Population": 2087.0, "Lat": 52.38587, "Lon": 11.0004}], "Bahrenborstel": [{"Name": "Bahrenborstel", "Country Code": "DE", "Population": 1253.0, "Lat": 52.57009, "Lon": 8.80863}], "Bahrs Scrub": [{"Name": "Bahrs Scrub", "Country Code": "AU", "Population": 1870.0, "Lat": -27.73333, "Lon": 153.16667}], "Bahrynivka": [{"Name": "Bahrynivka", "Country Code": "UA", "Population": 1456.0, "Lat": 47.98272, "Lon": 25.94581}], "Bahsili": [{"Name": "Bah\u015f\u0131l\u0131", "Country Code": "TR", "Population": 0.0, "Lat": 39.80017, "Lon": 33.43701}], "Bahsuma": [{"Name": "Bahs\u016bma", "Country Code": "IN", "Population": 11157.0, "Lat": 29.20063, "Lon": 77.97221}], "Bahua": [{"Name": "Bahua", "Country Code": "IN", "Population": 10243.0, "Lat": 25.83942, "Lon": 80.62255}], "Bahuang": [{"Name": "Bahuang", "Country Code": "CN", "Population": 1021.0, "Lat": 27.71806, "Lon": 109.01889}], "Bahuichivo": [{"Name": "Bahuichivo", "Country Code": "MX", "Population": 1502.0, "Lat": 27.4095, "Lon": -108.0674}], "Bahula": [{"Name": "Bahula", "Country Code": "IN", "Population": 16264.0, "Lat": 23.65176, "Lon": 87.16475}], "Bai'anba": [{"Name": "Bai\u2019anba", "Country Code": "CN", "Population": 91947.0, "Lat": 30.76283, "Lon": 108.43717}], "Baia": [{"Name": "Baia", "Country Code": "IT", "Population": 1145.0, "Lat": 41.30366, "Lon": 14.25016}, {"Name": "Baia", "Country Code": "RO", "Population": 4938.0, "Lat": 44.71667, "Lon": 28.66667}, {"Name": "Baia", "Country Code": "RO", "Population": 6762.0, "Lat": 47.41667, "Lon": 26.21667}], "Baia Farta": [{"Name": "Ba\u00eda Farta", "Country Code": "AO", "Population": 45000.0, "Lat": -12.60417, "Lon": 13.19667}], "Baia Mare": [{"Name": "Baia Mare", "Country Code": "RO", "Population": 136553.0, "Lat": 47.65729, "Lon": 23.56808}], "Baia Sprie": [{"Name": "Baia Sprie", "Country Code": "RO", "Population": 16746.0, "Lat": 47.66189, "Lon": 23.69215}], "Baia de Arama": [{"Name": "Baia de Aram\u0103", "Country Code": "RO", "Population": 2145.0, "Lat": 44.99929, "Lon": 22.80784}], "Baia de Aries": [{"Name": "Baia de Arie\u015f", "Country Code": "RO", "Population": 4566.0, "Lat": 46.38045, "Lon": 23.28115}], "Baia de Cris": [{"Name": "Baia de Cri\u015f", "Country Code": "RO", "Population": 2987.0, "Lat": 46.16667, "Lon": 22.71667}], "Baia de Fier": [{"Name": "Baia de Fier", "Country Code": "RO", "Population": 4328.0, "Lat": 45.16667, "Lon": 23.76667}], "Baiano": [{"Name": "Baiano", "Country Code": "IT", "Population": 4726.0, "Lat": 40.95142, "Lon": 14.6165}], "Baiao": [{"Name": "Bai\u00e3o", "Country Code": "BR", "Population": 12316.0, "Lat": -2.79056, "Lon": -49.67167}, {"Name": "Bai\u00e3o", "Country Code": "PT", "Population": 20522.0, "Lat": 41.16273, "Lon": -8.0347}], "Baibli": [{"Name": "Baibli", "Country Code": "CI", "Population": 16018.0, "Lat": 7.17618, "Lon": -7.29729}], "Baibokoum": [{"Name": "Ba\u00efbokoum", "Country Code": "TD", "Population": 13217.0, "Lat": 7.74231, "Lon": 15.68999}], "Baicheng": [{"Name": "Baicheng", "Country Code": "CN", "Population": 77235.0, "Lat": 36.32743, "Lon": 119.77875}, {"Name": "Baicheng", "Country Code": "CN", "Population": 0.0, "Lat": 41.77389, "Lon": 81.86889}, {"Name": "Baicheng", "Country Code": "CN", "Population": 316970.0, "Lat": 45.61751, "Lon": 122.83302}, {"Name": "Baicheng", "Country Code": "CN", "Population": 0.0, "Lat": 33.38639, "Lon": 114.01583}], "Baichihe": [{"Name": "Baichihe", "Country Code": "CN", "Population": 42913.0, "Lat": 36.11556, "Lon": 119.53333}], "Baicoi": [{"Name": "B\u0103icoi", "Country Code": "RO", "Population": 19869.0, "Lat": 45.03333, "Lon": 25.85}], "Baiculesti": [{"Name": "B\u0103icule\u015fti", "Country Code": "RO", "Population": 6207.0, "Lat": 45.06667, "Lon": 24.7}], "Baides": [{"Name": "Baides", "Country Code": "ES", "Population": 59.0, "Lat": 41.00685, "Lon": -2.7762}], "Baidi": [{"Name": "Baidi", "Country Code": "CN", "Population": 56216.0, "Lat": 31.05761, "Lon": 109.59088}], "Baidland": [{"Name": "Baidland", "Country Code": "US", "Population": 1563.0, "Lat": 40.19479, "Lon": -79.97088}], "Baidoa": [{"Name": "Baidoa", "Country Code": "SO", "Population": 129839.0, "Lat": 3.11383, "Lon": 43.6498}], "Baidyabati": [{"Name": "Baidyab\u0101ti", "Country Code": "IN", "Population": 115504.0, "Lat": 22.78498, "Lon": 88.32586}], "Baie Ste. Anne": [{"Name": "Baie Ste. Anne", "Country Code": "CA", "Population": 1319.0, "Lat": 47.05231, "Lon": -64.95355}], "Baie aux Huitres": [{"Name": "Baie aux Hu\u00eetres", "Country Code": "MU", "Population": 2500.0, "Lat": -19.69444, "Lon": 63.40833}], "Baie de Henne": [{"Name": "Baie de Henne", "Country Code": "HT", "Population": 1660.0, "Lat": 19.66307, "Lon": -73.20943}], "Baie du Tombeau": [{"Name": "Baie du Tombeau", "Country Code": "MU", "Population": 15301.0, "Lat": -20.11944, "Lon": 57.49139}], "Baie-Comeau": [{"Name": "Baie-Comeau", "Country Code": "CA", "Population": 21536.0, "Lat": 49.21679, "Lon": -68.14894}], "Baie-D'Urfe": [{"Name": "Baie-D'Urf\u00e9", "Country Code": "CA", "Population": 3902.0, "Lat": 45.41397, "Lon": -73.91586}], "Baie-Mahault": [{"Name": "Baie-Mahault", "Country Code": "GP", "Population": 30837.0, "Lat": 16.26738, "Lon": -61.58543}], "Baie-Saint-Paul": [{"Name": "Baie-Saint-Paul", "Country Code": "CA", "Population": 7146.0, "Lat": 47.44109, "Lon": -70.49858}], "Baienfurt": [{"Name": "Baienfurt", "Country Code": "DE", "Population": 7342.0, "Lat": 47.82857, "Lon": 9.65157}], "Baierbrunn": [{"Name": "Baierbrunn", "Country Code": "DE", "Population": 2755.0, "Lat": 48.0203, "Lon": 11.48689}], "Baierdorf-Umgebung": [{"Name": "Baierdorf-Umgebung", "Country Code": "AT", "Population": 903.0, "Lat": 47.28511, "Lon": 15.71045}], "Baiersbronn": [{"Name": "Baiersbronn", "Country Code": "DE", "Population": 16248.0, "Lat": 48.50318, "Lon": 8.37699}], "Baiersdorf": [{"Name": "Baiersdorf", "Country Code": "DE", "Population": 7071.0, "Lat": 49.65807, "Lon": 11.03594}], "Baifla": [{"Name": "Ba\u00effla", "Country Code": "CI", "Population": 2470.0, "Lat": 7.18266, "Lon": -6.30266}], "Baignes-Sainte-Radegonde": [{"Name": "Baignes-Sainte-Radegonde", "Country Code": "FR", "Population": 1279.0, "Lat": 45.38451, "Lon": -0.23625}], "Baiguan": [{"Name": "Baiguan", "Country Code": "CN", "Population": 18129.0, "Lat": 33.96617, "Lon": 104.91444}], "Baihar": [{"Name": "Baihar", "Country Code": "IN", "Population": 16168.0, "Lat": 22.10133, "Lon": 80.54967}], "Baihe": [{"Name": "Baihe", "Country Code": "CN", "Population": 40937.0, "Lat": 31.26348, "Lon": 108.46372}, {"Name": "Baihe", "Country Code": "CN", "Population": 18077.0, "Lat": 33.86974, "Lon": 104.85221}], "Baihecun": [{"Name": "Baihecun", "Country Code": "CN", "Population": 63629.0, "Lat": 22.11321, "Lon": 107.23592}], "Baihua": [{"Name": "Baihua", "Country Code": "CN", "Population": 41574.0, "Lat": 29.09422, "Lon": 104.60852}], "Baiima": [{"Name": "Baiima", "Country Code": "SL", "Population": 3771.0, "Lat": 8.10826, "Lon": -11.84772}], "Baijia": [{"Name": "Baijia", "Country Code": "CN", "Population": 14163.0, "Lat": 30.59295, "Lon": 107.90383}, {"Name": "Baijia", "Country Code": "CN", "Population": 19133.0, "Lat": 30.01704, "Lon": 107.32576}], "Baijian": [{"Name": "Baijian", "Country Code": "CN", "Population": 1510.0, "Lat": 39.99417, "Lon": 117.20861}], "Baijiantan": [{"Name": "Baijiantan", "Country Code": "CN", "Population": 93697.0, "Lat": 45.69298, "Lon": 85.13942}], "Baijiawan": [{"Name": "Baijiawan", "Country Code": "CN", "Population": 20486.0, "Lat": 34.69583, "Lon": 105.28889}], "Baikingon": [{"Name": "Baikingon", "Country Code": "PH", "Population": 2164.0, "Lat": 8.47222, "Lon": 124.55361}], "Baikonur": [{"Name": "Baikonur", "Country Code": "KZ", "Population": 70000.0, "Lat": 45.61667, "Lon": 63.31667}], "Baikunthpur": [{"Name": "Baikunthpur", "Country Code": "IN", "Population": 10790.0, "Lat": 23.26206, "Lon": 82.56051}, {"Name": "Baikunthpur", "Country Code": "IN", "Population": 10179.0, "Lat": 24.72768, "Lon": 81.40975}], "Bail": [{"Name": "Bail", "Country Code": "PH", "Population": 2120.0, "Lat": 16.2867, "Lon": 120.4004}], "Bail-Hongal": [{"Name": "Bail-Hongal", "Country Code": "IN", "Population": 47063.0, "Lat": 15.8137, "Lon": 74.85895}], "Bailadores": [{"Name": "Bailadores", "Country Code": "VE", "Population": 20113.0, "Lat": 8.25347, "Lon": -71.82818}], "Bailan": [{"Name": "Bailan", "Country Code": "PH", "Population": 2885.0, "Lat": 11.4584, "Lon": 122.8301}], "Baildon": [{"Name": "Baildon", "Country Code": "GB", "Population": 15710.0, "Lat": 53.84711, "Lon": -1.78785}], "Baile Borsa": [{"Name": "B\u0103ile Bor\u0219a", "Country Code": "RO", "Population": 1175.0, "Lat": 47.68416, "Lon": 24.71391}], "Baile Dranceni": [{"Name": "B\u0103ile Dr\u00e2nceni", "Country Code": "RO", "Population": 4719.0, "Lat": 46.81361, "Lon": 28.10083}], "Baile Govora": [{"Name": "B\u0103ile Govora", "Country Code": "RO", "Population": 2862.0, "Lat": 45.08333, "Lon": 24.18333}], "Baile Herculane": [{"Name": "B\u0103ile Herculane", "Country Code": "RO", "Population": 6022.0, "Lat": 44.87972, "Lon": 22.4125}], "Baile Olanesti": [{"Name": "B\u0103ile Ol\u0103ne\u015fti", "Country Code": "RO", "Population": 4562.0, "Lat": 45.2, "Lon": 24.23333}], "Baile Tusnad": [{"Name": "B\u0103ile Tu\u015fnad", "Country Code": "RO", "Population": 1675.0, "Lat": 46.15, "Lon": 25.85}], "Bailen": [{"Name": "Bail\u00e9n", "Country Code": "ES", "Population": 18785.0, "Lat": 38.09639, "Lon": -3.77786}], "Bailesti": [{"Name": "B\u0103ile\u015fti", "Country Code": "RO", "Population": 19599.0, "Lat": 44.01667, "Lon": 23.35}], "Baileux": [{"Name": "Baileux", "Country Code": "BE", "Population": 1249.0, "Lat": 50.02877, "Lon": 4.37533}], "Bailey": [{"Name": "Bailey", "Country Code": "US", "Population": 8042.0, "Lat": 39.40554, "Lon": -105.47333}], "Baileys Crossroads": [{"Name": "Baileys Crossroads", "Country Code": "US", "Population": 23643.0, "Lat": 38.85039, "Lon": -77.1297}], "Bailieborough": [{"Name": "Bailieborough", "Country Code": "IE", "Population": 2683.0, "Lat": 53.91667, "Lon": -6.96667}], "Bailin": [{"Name": "Bailin", "Country Code": "CN", "Population": 38564.0, "Lat": 28.73599, "Lon": 106.46043}, {"Name": "Bailin", "Country Code": "CN", "Population": 11144.0, "Lat": 33.48488, "Lon": 105.01155}], "Bailingmiao": [{"Name": "Bailingmiao", "Country Code": "CN", "Population": 0.0, "Lat": 41.69194, "Lon": 110.43556}], "Baillargues": [{"Name": "Baillargues", "Country Code": "FR", "Population": 6570.0, "Lat": 43.66126, "Lon": 4.01283}], "Baille": [{"Name": "Baille", "Country Code": "FR", "Population": 11527.0, "Lat": 43.2877, "Lon": 5.39804}], "Bailleau-l'Eveque": [{"Name": "Bailleau-l'\u00c9v\u00eaque", "Country Code": "FR", "Population": 1103.0, "Lat": 48.4896, "Lon": 1.39665}], "Bailleau-le-Pin": [{"Name": "Bailleau-le-Pin", "Country Code": "FR", "Population": 1508.0, "Lat": 48.36698, "Lon": 1.32948}], "Baillet-en-France": [{"Name": "Baillet-en-France", "Country Code": "FR", "Population": 1805.0, "Lat": 49.06187, "Lon": 2.2988}], "Bailleul": [{"Name": "Bailleul", "Country Code": "FR", "Population": 14884.0, "Lat": 50.73592, "Lon": 2.73594}], "Bailleul-Sir-Berthoult": [{"Name": "Bailleul-Sir-Berthoult", "Country Code": "FR", "Population": 1199.0, "Lat": 50.33752, "Lon": 2.85129}], "Bailleul-sur-Therain": [{"Name": "Bailleul-sur-Th\u00e9rain", "Country Code": "FR", "Population": 2045.0, "Lat": 49.38526, "Lon": 2.22279}], "Bailleval": [{"Name": "Bailleval", "Country Code": "FR", "Population": 1489.0, "Lat": 49.34605, "Lon": 2.45695}], "Baillif": [{"Name": "Baillif", "Country Code": "GP", "Population": 5705.0, "Lat": 16.02037, "Lon": -61.74611}], "Bailly": [{"Name": "Bailly", "Country Code": "FR", "Population": 4300.0, "Lat": 48.84168, "Lon": 2.07673}], "Bailly-Carrois": [{"Name": "Bailly-Carrois", "Country Code": "FR", "Population": 1044.0, "Lat": 48.58029, "Lon": 2.99047}], "Bailly-Romainvilliers": [{"Name": "Bailly-Romainvilliers", "Country Code": "FR", "Population": 3692.0, "Lat": 48.84729, "Lon": 2.82352}], "Bailo": [{"Name": "Bailo", "Country Code": "ES", "Population": 243.0, "Lat": 42.50906, "Lon": -0.81136}], "Bailu": [{"Name": "Bailu", "Country Code": "CN", "Population": 14870.0, "Lat": 31.61295, "Lon": 109.67397}], "Bailundo": [{"Name": "Bailundo", "Country Code": "AO", "Population": 70481.0, "Lat": -9.57499, "Lon": 15.99442}], "Bailuquan": [{"Name": "Bailuquan", "Country Code": "CN", "Population": 7779.0, "Lat": 38.07099, "Lon": 114.2694}], "Baima": [{"Name": "Baima", "Country Code": "CN", "Population": 0.0, "Lat": 30.05752, "Lon": 96.91852}, {"Name": "Baima", "Country Code": "CN", "Population": 25629.0, "Lat": 29.39553, "Lon": 107.53939}], "Baimajing": [{"Name": "Baimajing", "Country Code": "CN", "Population": 59585.0, "Lat": 19.71195, "Lon": 109.21801}], "Bain-de-Bretagne": [{"Name": "Bain-de-Bretagne", "Country Code": "FR", "Population": 6098.0, "Lat": 47.84687, "Lon": -1.68579}], "Bainbridge": [{"Name": "Bainbridge", "Country Code": "US", "Population": 3267.0, "Lat": 41.38644, "Lon": -81.33955}, {"Name": "Bainbridge", "Country Code": "US", "Population": 1325.0, "Lat": 42.29341, "Lon": -75.47935}, {"Name": "Bainbridge", "Country Code": "US", "Population": 12507.0, "Lat": 30.9038, "Lon": -84.57547}, {"Name": "Bainbridge", "Country Code": "US", "Population": 1355.0, "Lat": 40.09093, "Lon": -76.66747}], "Bainbridge Island": [{"Name": "Bainbridge Island", "Country Code": "US", "Population": 23840.0, "Lat": 47.62621, "Lon": -122.52124}], "Baincthun": [{"Name": "Baincthun", "Country Code": "FR", "Population": 1340.0, "Lat": 50.70994, "Lon": 1.68075}], "Baindt": [{"Name": "Baindt", "Country Code": "DE", "Population": 4561.0, "Lat": 47.85, "Lon": 9.66667}], "Bains": [{"Name": "Bains", "Country Code": "FR", "Population": 1256.0, "Lat": 45.00956, "Lon": 3.77503}], "Bains-les-Bains": [{"Name": "Bains-les-Bains", "Country Code": "FR", "Population": 1597.0, "Lat": 48.00113, "Lon": 6.26492}], "Bains-sur-Oust": [{"Name": "Bains-sur-Oust", "Country Code": "FR", "Population": 3317.0, "Lat": 47.70335, "Lon": -2.07199}], "Bainton": [{"Name": "Bainton", "Country Code": "GB", "Population": 0.0, "Lat": 53.95, "Lon": -0.53333}], "Bainville-sur-Madon": [{"Name": "Bainville-sur-Madon", "Country Code": "FR", "Population": 1195.0, "Lat": 48.58725, "Lon": 6.0958}], "Baiona": [{"Name": "Baiona", "Country Code": "ES", "Population": 12091.0, "Lat": 42.11667, "Lon": -8.85}], "Baiqi": [{"Name": "Baiqi", "Country Code": "CN", "Population": 2760.0, "Lat": 24.88244, "Lon": 118.70869}], "Baiqiao": [{"Name": "Baiqiao", "Country Code": "CN", "Population": 13796.0, "Lat": 31.28192, "Lon": 108.59375}], "Baiquan": [{"Name": "Baiquan", "Country Code": "CN", "Population": 70472.0, "Lat": 47.60659, "Lon": 126.08231}, {"Name": "Baiquan", "Country Code": "CN", "Population": 8229.0, "Lat": 31.59445, "Lon": 108.78316}, {"Name": "Baiquan", "Country Code": "CN", "Population": 0.0, "Lat": 42.88538, "Lon": 124.95827}], "Bairachky": [{"Name": "Bairachky", "Country Code": "UA", "Population": 1065.0, "Lat": 48.392, "Lon": 38.60174}], "Bairagnia": [{"Name": "Bair\u0101gnia", "Country Code": "IN", "Population": 37465.0, "Lat": 26.74063, "Lon": 85.27323}], "Bairan": [{"Name": "Bairan", "Country Code": "PH", "Population": 4298.0, "Lat": 10.19718, "Lon": 123.7271}], "Baird": [{"Name": "Baird", "Country Code": "US", "Population": 1483.0, "Lat": 32.39402, "Lon": -99.39424}], "Bairiki Village": [{"Name": "Bairiki Village", "Country Code": "KI", "Population": 2766.0, "Lat": 1.32924, "Lon": 172.97522}], "Bairisch Koelldorf": [{"Name": "Bairisch K\u00f6lldorf", "Country Code": "AT", "Population": 1014.0, "Lat": 46.86667, "Lon": 15.93333}], "Bairnsdale": [{"Name": "Bairnsdale", "Country Code": "AU", "Population": 15411.0, "Lat": -37.82289, "Lon": 147.61041}], "Bairo": [{"Name": "Bairo", "Country Code": "IT", "Population": 569.0, "Lat": 45.38606, "Lon": 7.75532}], "Bairoa": [{"Name": "Bairoa", "Country Code": "PR", "Population": 2365.0, "Lat": 18.25912, "Lon": -66.04044}], "Bairro 25 de Junho A": [{"Name": "Bairro 25 de Junho A", "Country Code": "MZ", "Population": 0.0, "Lat": -25.90028, "Lon": 32.55556}], "Bairro 25 de Junho B": [{"Name": "Bairro 25 de Junho B", "Country Code": "MZ", "Population": 0.0, "Lat": -25.90111, "Lon": 32.5775}], "Bais": [{"Name": "Bais", "Country Code": "FR", "Population": 1568.0, "Lat": 48.25334, "Lon": -0.36549}, {"Name": "Bais", "Country Code": "FR", "Population": 2109.0, "Lat": 48.01071, "Lon": -1.29047}, {"Name": "Bais", "Country Code": "PH", "Population": 65594.0, "Lat": 9.59111, "Lon": 123.12278}], "Baise": [{"Name": "Baise", "Country Code": "CN", "Population": 686078.0, "Lat": 23.89013, "Lon": 106.62684}], "Baisesti": [{"Name": "B\u0103i\u0219e\u0219ti", "Country Code": "RO", "Population": 1562.0, "Lat": 47.48024, "Lon": 26.11115}], "Baisha": [{"Name": "Baisha", "Country Code": "CN", "Population": 0.0, "Lat": 28.21971, "Lon": 110.21695}, {"Name": "Baisha", "Country Code": "CN", "Population": 115761.0, "Lat": 29.06226, "Lon": 106.1189}, {"Name": "Baisha", "Country Code": "CN", "Population": 6412.0, "Lat": 29.37222, "Lon": 106.92583}, {"Name": "Baisha", "Country Code": "CN", "Population": 14584.0, "Lat": 34.71111, "Lon": 106.26098}, {"Name": "Baisha", "Country Code": "CN", "Population": 2880.0, "Lat": 26.52222, "Lon": 110.93111}, {"Name": "Baisha", "Country Code": "CN", "Population": 89759.0, "Lat": 21.71667, "Lon": 109.68333}], "Baishan": [{"Name": "Baishan", "Country Code": "CN", "Population": 183880.0, "Lat": 41.93853, "Lon": 126.41965}], "Baisheng": [{"Name": "Baisheng", "Country Code": "CN", "Population": 41114.0, "Lat": 29.81351, "Lon": 107.39261}], "Baishi": [{"Name": "Baishi", "Country Code": "CN", "Population": 1965.0, "Lat": 26.97361, "Lon": 109.44333}, {"Name": "Baishi", "Country Code": "CN", "Population": 11706.0, "Lat": 29.68387, "Lon": 108.56263}], "Baishikante": [{"Name": "Baishikante", "Country Code": "CN", "Population": 39243.0, "Lat": 38.45964, "Lon": 77.47904}], "Baishishan": [{"Name": "Baishishan", "Country Code": "CN", "Population": 56992.0, "Lat": 43.58333, "Lon": 127.56667}], "Baisi": [{"Name": "Baisi", "Country Code": "IN", "Population": 1319.0, "Lat": 25.86302, "Lon": 87.74487}], "Baisieux": [{"Name": "Baisieux", "Country Code": "FR", "Population": 4110.0, "Lat": 50.60841, "Lon": 3.25251}], "Baiso": [{"Name": "Baiso", "Country Code": "IT", "Population": 934.0, "Lat": 44.49668, "Lon": 10.60083}], "Baisoara": [{"Name": "B\u0103i\u015foara", "Country Code": "RO", "Population": 2319.0, "Lat": 46.58333, "Lon": 23.46667}], "Baissa": [{"Name": "Baissa", "Country Code": "NG", "Population": 8911.0, "Lat": 7.23087, "Lon": 10.62444}], "Baisweil": [{"Name": "Baisweil", "Country Code": "DE", "Population": 1352.0, "Lat": 47.94439, "Lon": 10.54007}], "Baisy-Thy": [{"Name": "Baisy-Thy", "Country Code": "BE", "Population": 3185.0, "Lat": 50.59708, "Lon": 4.47598}], "Baita": [{"Name": "B\u0103i\u0163a", "Country Code": "RO", "Population": 4183.0, "Lat": 46.03333, "Lon": 22.9}, {"Name": "B\u0103i\u021ba", "Country Code": "RO", "Population": 1870.0, "Lat": 47.70614, "Lon": 23.49326}], "Baita de sub Codru": [{"Name": "B\u0103i\u0163a de sub Codru", "Country Code": "RO", "Population": 1910.0, "Lat": 47.53333, "Lon": 23.15}], "Baitao": [{"Name": "Baitao", "Country Code": "CN", "Population": 46160.0, "Lat": 29.55083, "Lon": 107.48688}], "Baiti": [{"Name": "Baiti", "Country Code": "NR", "Population": 810.0, "Lat": -0.50803, "Lon": 166.92945}], "Baiting Hollow": [{"Name": "Baiting Hollow", "Country Code": "US", "Population": 1642.0, "Lat": 40.95621, "Lon": -72.74427}], "Baitoa": [{"Name": "Baitoa", "Country Code": "DO", "Population": 2013.0, "Lat": 19.32512, "Lon": -70.70357}], "Baitu": [{"Name": "Baitu", "Country Code": "CN", "Population": 5188.0, "Lat": 29.37954, "Lon": 108.64159}, {"Name": "Baitu", "Country Code": "CN", "Population": 16790.0, "Lat": 30.59722, "Lon": 108.8114}], "Baitugang": [{"Name": "Baitugang", "Country Code": "CN", "Population": 8640.0, "Lat": 37.82934, "Lon": 106.34048}], "Baituo": [{"Name": "Baituo", "Country Code": "CN", "Population": 15555.0, "Lat": 34.85111, "Lon": 106.00167}], "Baiut": [{"Name": "B\u0103iu\u0163", "Country Code": "RO", "Population": 2652.0, "Lat": 47.61667, "Lon": 24.0}], "Baixa Grande": [{"Name": "Baixa Grande", "Country Code": "BR", "Population": 7534.0, "Lat": -11.95972, "Lon": -40.16806}], "Baixas": [{"Name": "Baixas", "Country Code": "FR", "Population": 2419.0, "Lat": 42.75005, "Lon": 2.80911}], "Baixi": [{"Name": "Baixi", "Country Code": "CN", "Population": 88251.0, "Lat": 28.6997, "Lon": 104.54917}], "Baixiang": [{"Name": "Baixiang", "Country Code": "CN", "Population": 0.0, "Lat": 37.48928, "Lon": 114.68271}], "Baixo Guandu": [{"Name": "Baixo Guandu", "Country Code": "BR", "Population": 19292.0, "Lat": -19.51889, "Lon": -41.01583}], "Baiyang": [{"Name": "Baiyang", "Country Code": "CN", "Population": 0.0, "Lat": 35.8511, "Lon": 106.639}, {"Name": "Baiyang", "Country Code": "CN", "Population": 9284.0, "Lat": 29.9611, "Lon": 106.08234}, {"Name": "Baiyang", "Country Code": "CN", "Population": 34962.0, "Lat": 30.8164, "Lon": 108.61098}, {"Name": "Baiyang", "Country Code": "CN", "Population": 5847.0, "Lat": 33.17288, "Lon": 105.78184}], "Baiyashi": [{"Name": "Baiyashi", "Country Code": "CN", "Population": 0.0, "Lat": 26.38883, "Lon": 111.26213}], "Baiyin": [{"Name": "Baiyin", "Country Code": "CN", "Population": 294400.0, "Lat": 36.54696, "Lon": 104.17023}], "Baiyin Chagan": [{"Name": "Baiyin Chagan", "Country Code": "CN", "Population": 0.0, "Lat": 41.45333, "Lon": 113.18333}], "Baiyun": [{"Name": "Baiyun", "Country Code": "CN", "Population": 5457.0, "Lat": 29.31312, "Lon": 107.41845}, {"Name": "Baiyun", "Country Code": "CN", "Population": 2160.0, "Lat": 26.03648, "Lon": 118.90622}], "Baizi": [{"Name": "Baizi", "Country Code": "CN", "Population": 47879.0, "Lat": 30.09403, "Lon": 105.71297}], "Baj": [{"Name": "Baj", "Country Code": "HU", "Population": 2664.0, "Lat": 47.64593, "Lon": 18.3641}], "Baja": [{"Name": "Baja", "Country Code": "HU", "Population": 37714.0, "Lat": 46.18299, "Lon": 18.95307}], "Baja Mar": [{"Name": "Baja Mar", "Country Code": "HN", "Population": 1064.0, "Lat": 15.88851, "Lon": -87.85547}], "Bajadero": [{"Name": "Bajadero", "Country Code": "PR", "Population": 3877.0, "Lat": 18.42661, "Lon": -66.68323}], "Bajandas": [{"Name": "Bajandas", "Country Code": "PR", "Population": 1418.0, "Lat": 18.15774, "Lon": -65.78155}], "Bajardo": [{"Name": "Bajardo", "Country Code": "IT", "Population": 250.0, "Lat": 43.90402, "Lon": 7.72534}], "Bajawa": [{"Name": "Bajawa", "Country Code": "ID", "Population": 0.0, "Lat": -8.7848, "Lon": 120.9744}], "Bajestan": [{"Name": "Bajest\u0101n", "Country Code": "IR", "Population": 0.0, "Lat": 34.51639, "Lon": 58.1845}], "Bajesti": [{"Name": "B\u0103je\u0219ti", "Country Code": "RO", "Population": 1260.0, "Lat": 45.02615, "Lon": 24.94006}], "Bajiao": [{"Name": "Bajiao", "Country Code": "CN", "Population": 5095.0, "Lat": 35.02825, "Lon": 103.69693}], "Bajil": [{"Name": "B\u0101jil", "Country Code": "YE", "Population": 48218.0, "Lat": 15.05898, "Lon": 43.28731}], "Bajina Basta": [{"Name": "Bajina Ba\u0161ta", "Country Code": "RS", "Population": 8533.0, "Lat": 43.97083, "Lon": 19.5675}], "Bajio de Bonillas": [{"Name": "Baj\u00edo de Bonillas", "Country Code": "MX", "Population": 3377.0, "Lat": 20.94944, "Lon": -101.49528}], "Bajio de San Jose": [{"Name": "Baj\u00edo de San Jos\u00e9", "Country Code": "MX", "Population": 4238.0, "Lat": 21.67525, "Lon": -102.11606}], "Bajio de San Nicolas": [{"Name": "Baj\u00edo de San Nicol\u00e1s", "Country Code": "MX", "Population": 1498.0, "Lat": 22.56499, "Lon": -102.00784}], "Bajitpur": [{"Name": "B\u0101jitpur", "Country Code": "BD", "Population": 34560.0, "Lat": 24.21623, "Lon": 90.95002}], "Bajna": [{"Name": "Bajna", "Country Code": "HU", "Population": 2024.0, "Lat": 47.654, "Lon": 18.5972}, {"Name": "B\u0101jna", "Country Code": "IN", "Population": 7673.0, "Lat": 27.89793, "Lon": 77.67836}], "Bajo": [{"Name": "Bajo", "Country Code": "ID", "Population": 0.0, "Lat": -3.3788, "Lon": 120.3102}], "Bajo Boquete": [{"Name": "Bajo Boquete", "Country Code": "PA", "Population": 2257.0, "Lat": 8.77058, "Lon": -82.43306}], "Bajo Corral": [{"Name": "Bajo Corral", "Country Code": "PA", "Population": 192.0, "Lat": 7.60637, "Lon": -80.25857}], "Bajo Naranjillo": [{"Name": "Bajo Naranjillo", "Country Code": "PE", "Population": 0.0, "Lat": -5.81528, "Lon": -77.38278}], "Bajo Pichanaqui": [{"Name": "Bajo Pichanaqui", "Country Code": "PE", "Population": 0.0, "Lat": -10.9275, "Lon": -74.87417}], "Bajo Solis": [{"Name": "Bajo Sol\u00eds", "Country Code": "PA", "Population": 0.0, "Lat": 8.32708, "Lon": -81.53306}], "Bajoga": [{"Name": "Bajoga", "Country Code": "NG", "Population": 0.0, "Lat": 10.85152, "Lon": 11.43169}], "Bajos de Chila": [{"Name": "Bajos de Chila", "Country Code": "MX", "Population": 5425.0, "Lat": 15.92343, "Lon": -97.12113}], "Bajos de Gueera": [{"Name": "Bajos de G\u00fcera", "Country Code": "PA", "Population": 0.0, "Lat": 7.54424, "Lon": -80.62623}], "Bajos de Haina": [{"Name": "Bajos de Haina", "Country Code": "DO", "Population": 66784.0, "Lat": 18.41538, "Lon": -70.03317}], "Bajos del Ejido": [{"Name": "Bajos del Ejido", "Country Code": "MX", "Population": 6165.0, "Lat": 16.96086, "Lon": -99.97169}], "Bajram Curri": [{"Name": "Bajram Curri", "Country Code": "AL", "Population": 5340.0, "Lat": 42.35734, "Lon": 20.07679}], "Bajucu": [{"Name": "Bajucu", "Country Code": "MX", "Population": 1665.0, "Lat": 16.4752, "Lon": -92.06471}], "Bajura": [{"Name": "Bajura", "Country Code": "RO", "Population": 1884.0, "Lat": 48.20119, "Lon": 26.53987}], "Bak Khlang": [{"Name": "Bak Khlang", "Country Code": "KH", "Population": 0.0, "Lat": 11.56903, "Lon": 102.95542}], "Bak'uriani": [{"Name": "Bak\u2019uriani", "Country Code": "GE", "Population": 1879.0, "Lat": 41.75303, "Lon": 43.52907}], "Bak'urianis Andezit'i": [{"Name": "Bak\u2019urianis Andezit\u2019i", "Country Code": "GE", "Population": 1085.0, "Lat": 41.73371, "Lon": 43.47242}], "Baka": [{"Name": "Baka", "Country Code": "PH", "Population": 2404.0, "Lat": 7.27611, "Lon": 124.26417}], "Bakacak": [{"Name": "Bakacak", "Country Code": "TR", "Population": 0.0, "Lat": 40.20499, "Lon": 27.08317}], "Bakadagy": [{"Name": "Bakadagy", "Country Code": "GM", "Population": 1979.0, "Lat": 13.3, "Lon": -14.38333}], "Bakadou I": [{"Name": "Bakadou I", "Country Code": "CI", "Population": 4784.0, "Lat": 5.39787, "Lon": -6.02241}], "Bakai-Ata": [{"Name": "Bakai-Ata", "Country Code": "KG", "Population": 0.0, "Lat": 42.49298, "Lon": 71.9236}], "Bakaiku": [{"Name": "Bakaiku", "Country Code": "ES", "Population": 0.0, "Lat": 42.89244, "Lon": -2.10251}], "Bakal": [{"Name": "Bakal", "Country Code": "RU", "Population": 21762.0, "Lat": 54.9417, "Lon": 58.8083}], "Bakaly": [{"Name": "Bakaly", "Country Code": "RU", "Population": 9532.0, "Lat": 55.17889, "Lon": 53.80278}], "Bakan": [{"Name": "Bakan", "Country Code": "KH", "Population": 0.0, "Lat": 12.60209, "Lon": 103.78579}], "Bakanas": [{"Name": "Bakanas", "Country Code": "KZ", "Population": 6965.0, "Lat": 44.80595, "Lon": 76.27464}], "Bakandesso": [{"Name": "Bakand\u00e9sso", "Country Code": "CI", "Population": 2250.0, "Lat": 7.88545, "Lon": -7.67258}], "Bakani": [{"Name": "Bak\u0101ni", "Country Code": "IN", "Population": 8621.0, "Lat": 24.28624, "Lon": 76.23709}], "Bakanou A": [{"Name": "Bakanou A", "Country Code": "CI", "Population": 9310.0, "Lat": 5.59411, "Lon": -4.63455}], "Bakar": [{"Name": "Bakar", "Country Code": "HR", "Population": 1187.0, "Lat": 45.30861, "Lon": 14.53028}], "Bakau": [{"Name": "Bakau", "Country Code": "GM", "Population": 43098.0, "Lat": 13.47806, "Lon": -16.68194}, {"Name": "Bakau", "Country Code": "ID", "Population": 0.0, "Lat": -2.4105, "Lon": 116.2387}], "Bakau New Town": [{"Name": "Bakau New Town", "Country Code": "GM", "Population": 30325.0, "Lat": 13.47297, "Lon": -16.68514}], "Bakau Wasulun": [{"Name": "Bakau Wasulun", "Country Code": "GM", "Population": 4255.0, "Lat": 13.48373, "Lon": -16.66892}], "Bakayo": [{"Name": "Bakayo", "Country Code": "CI", "Population": 9394.0, "Lat": 5.53272, "Lon": -6.04418}], "Bakchar": [{"Name": "Bakchar", "Country Code": "RU", "Population": 7195.0, "Lat": 57.01861, "Lon": 82.07111}], "Bake": [{"Name": "Bake", "Country Code": "CN", "Population": 36698.0, "Lat": 29.90059, "Lon": 107.0229}], "Bakel": [{"Name": "Bakel", "Country Code": "NL", "Population": 4140.0, "Lat": 51.50333, "Lon": 5.74028}, {"Name": "Bakel", "Country Code": "SN", "Population": 13329.0, "Lat": 14.90238, "Lon": -12.45935}], "Bakenberg": [{"Name": "Bakenberg", "Country Code": "NL", "Population": 1025.0, "Lat": 52.00511, "Lon": 5.8771}], "Baker": [{"Name": "Baker", "Country Code": "US", "Population": 2011.0, "Lat": 46.36695, "Lon": -104.28466}, {"Name": "Baker", "Country Code": "US", "Population": 13695.0, "Lat": 30.58824, "Lon": -91.16816}], "Baker City": [{"Name": "Baker City", "Country Code": "US", "Population": 9752.0, "Lat": 44.77487, "Lon": -117.83438}], "Bakers Creek": [{"Name": "Bakers Creek", "Country Code": "AU", "Population": 1136.0, "Lat": -21.2199, "Lon": 149.14681}], "Bakers Hill": [{"Name": "Bakers Hill", "Country Code": "AU", "Population": 1114.0, "Lat": -31.74692, "Lon": 116.45866}], "Bakersfield": [{"Name": "Bakersfield", "Country Code": "US", "Population": 373640.0, "Lat": 35.37329, "Lon": -119.01871}], "Bakerstown": [{"Name": "Bakerstown", "Country Code": "US", "Population": 1761.0, "Lat": 40.6509, "Lon": -79.93644}], "Bakersville": [{"Name": "Bakersville", "Country Code": "US", "Population": 452.0, "Lat": 36.01567, "Lon": -82.15874}], "Bakewar": [{"Name": "Bakewar", "Country Code": "IN", "Population": 14217.0, "Lat": 26.66226, "Lon": 79.17625}], "Bakewell": [{"Name": "Bakewell", "Country Code": "AU", "Population": 3043.0, "Lat": -12.49684, "Lon": 130.99344}, {"Name": "Bakewell", "Country Code": "GB", "Population": 3949.0, "Lat": 53.21338, "Lon": -1.67481}], "Bakhchivandzhi": [{"Name": "Bakhchivandzhi", "Country Code": "RU", "Population": 2000.0, "Lat": 55.88333, "Lon": 38.08333}], "Bakhchysarai": [{"Name": "Bakhchysarai", "Country Code": "UA", "Population": 27448.0, "Lat": 44.75525, "Lon": 33.85782}], "Bakhilovo": [{"Name": "Bakhilovo", "Country Code": "RU", "Population": 1189.0, "Lat": 53.4011, "Lon": 49.636}], "Bakhmach": [{"Name": "Bakhmach", "Country Code": "UA", "Population": 16862.0, "Lat": 51.18144, "Lon": 32.83463}], "Bakhmut": [{"Name": "Bakhmut", "Country Code": "UA", "Population": 80500.0, "Lat": 48.59441, "Lon": 37.99983}], "Bakhri Ahmad Khan": [{"Name": "Bakhri Ahmad Khan", "Country Code": "PK", "Population": 2000.0, "Lat": 30.73586, "Lon": 70.83796}], "Bakhtiyarpur": [{"Name": "Bakhtiy\u0101rpur", "Country Code": "IN", "Population": 34533.0, "Lat": 25.46179, "Lon": 85.53179}], "Bakhuizen": [{"Name": "Bakhuizen", "Country Code": "NL", "Population": 1060.0, "Lat": 52.86975, "Lon": 5.45926}], "Baki": [{"Name": "Baki", "Country Code": "ID", "Population": 58909.0, "Lat": -7.61278, "Lon": 110.78389}, {"Name": "Baki", "Country Code": "SO", "Population": 20000.0, "Lat": 9.89206, "Lon": 43.38531}], "Bakio": [{"Name": "Bakio", "Country Code": "ES", "Population": 0.0, "Lat": 43.42917, "Lon": -2.80881}], "Bakirdagi": [{"Name": "Bak\u0131rda\u011f\u0131", "Country Code": "TR", "Population": 0.0, "Lat": 38.21597, "Lon": 35.79021}], "Bakixanov": [{"Name": "Bak\u0131xanov", "Country Code": "AZ", "Population": 66686.0, "Lat": 40.41894, "Lon": 49.96693}], "Bakkeveen": [{"Name": "Bakkeveen", "Country Code": "NL", "Population": 1450.0, "Lat": 53.08072, "Lon": 6.25671}], "Baklan": [{"Name": "Baklan", "Country Code": "TR", "Population": 6756.0, "Lat": 37.97694, "Lon": 29.60861}], "Baklashi": [{"Name": "Baklashi", "Country Code": "RU", "Population": 3000.0, "Lat": 52.22509, "Lon": 104.03809}], "Bakloh": [{"Name": "Bakloh", "Country Code": "IN", "Population": 1737.0, "Lat": 32.47939, "Lon": 75.91874}], "Bako": [{"Name": "Bako", "Country Code": "CI", "Population": 2328.0, "Lat": 9.13911, "Lon": -7.61037}, {"Name": "Bako", "Country Code": "ET", "Population": 34100.0, "Lat": 5.78333, "Lon": 36.56667}], "Bakong": [{"Name": "Bakong", "Country Code": "KH", "Population": 0.0, "Lat": 13.34741, "Lon": 103.98756}], "Bakonycsernye": [{"Name": "Bakonycsernye", "Country Code": "HU", "Population": 3177.0, "Lat": 47.32395, "Lon": 18.07509}], "Bakonyszentlaszlo": [{"Name": "Bakonyszentl\u00e1szl\u00f3", "Country Code": "HU", "Population": 1913.0, "Lat": 47.38901, "Lon": 17.80321}], "Bakopla": [{"Name": "Bakopla", "Country Code": "CI", "Population": 1228.0, "Lat": 7.76737, "Lon": -5.88271}], "Bakori": [{"Name": "Bakori", "Country Code": "NG", "Population": 12604.0, "Lat": 11.55559, "Lon": 7.42419}], "Bakoro-Sobara": [{"Name": "Bakoro-Sobara", "Country Code": "CI", "Population": 1476.0, "Lat": 8.38953, "Lon": -4.72695}], "Bakoti": [{"Name": "Bakoti", "Country Code": "GM", "Population": 20314.0, "Lat": 13.43, "Lon": -16.69833}], "Bakoubli": [{"Name": "Bakoubli", "Country Code": "CI", "Population": 1480.0, "Lat": 6.4625, "Lon": -8.40298}], "Bakoumba": [{"Name": "Bakoumba", "Country Code": "GA", "Population": 4861.0, "Lat": -1.82703, "Lon": 13.02052}], "Bakov nad Jizerou": [{"Name": "Bakov nad Jizerou", "Country Code": "CZ", "Population": 4417.0, "Lat": 50.4823, "Lon": 14.94149}], "Bakovci": [{"Name": "Bakovci", "Country Code": "SI", "Population": 1491.0, "Lat": 46.61889, "Lon": 16.15028}], "Bakow": [{"Name": "B\u0105k\u00f3w", "Country Code": "PL", "Population": 1517.0, "Lat": 49.89342, "Lon": 18.71495}], "Bakreswar": [{"Name": "Bakreswar", "Country Code": "IN", "Population": 1739.0, "Lat": 23.8832, "Lon": 87.37265}], "Bakri": [{"Name": "Bakri", "Country Code": "MY", "Population": 30280.0, "Lat": 2.0441, "Lon": 102.6527}], "Bakro": [{"Name": "Bakro", "Country Code": "CI", "Population": 5102.0, "Lat": 5.50681, "Lon": -3.2455}], "Baks": [{"Name": "Baks", "Country Code": "HU", "Population": 2292.0, "Lat": 46.54297, "Lon": 20.10213}], "Baksan": [{"Name": "Baksan", "Country Code": "RU", "Population": 37519.0, "Lat": 43.68374, "Lon": 43.53507}], "Baksanenok": [{"Name": "Baksanenok", "Country Code": "RU", "Population": 7058.0, "Lat": 43.68972, "Lon": 43.65472}], "Baksha": [{"Name": "Baksha", "Country Code": "UA", "Population": 1078.0, "Lat": 48.00944, "Lon": 29.9774}], "Baksheyevo": [{"Name": "Baksheyevo", "Country Code": "RU", "Population": 2296.0, "Lat": 55.7086, "Lon": 39.87666}], "Bakshwaho": [{"Name": "Bakshw\u0101ho", "Country Code": "IN", "Population": 9734.0, "Lat": 24.25106, "Lon": 79.28618}], "Baktaloranthaza": [{"Name": "Baktal\u00f3r\u00e1nth\u00e1za", "Country Code": "HU", "Population": 4265.0, "Lat": 48.0, "Lon": 22.08333}], "Baku": [{"Name": "Baku", "Country Code": "AZ", "Population": 1116513.0, "Lat": 40.37767, "Lon": 49.89201}], "Bakulong": [{"Name": "Bakulong", "Country Code": "PH", "Population": 3655.0, "Lat": 15.5379, "Lon": 120.6385}], "Bakum": [{"Name": "Bakum", "Country Code": "DE", "Population": 5678.0, "Lat": 52.74118, "Lon": 8.19546}], "Bakun": [{"Name": "Bakun", "Country Code": "PH", "Population": 0.0, "Lat": 16.7895, "Lon": 120.6631}], "Bakung": [{"Name": "Bakung", "Country Code": "ID", "Population": 0.0, "Lat": -8.2588, "Lon": 112.0726}, {"Name": "Bakung", "Country Code": "PH", "Population": 3185.0, "Lat": 4.89111, "Lon": 119.79417}], "Bakungan": [{"Name": "Bakungan", "Country Code": "ID", "Population": 0.0, "Lat": 2.92397, "Lon": 97.48311}], "Bakura": [{"Name": "Bakura", "Country Code": "NG", "Population": 0.0, "Lat": 12.71141, "Lon": 5.87367}], "Bakwa": [{"Name": "Bakwa", "Country Code": "CD", "Population": 100575.0, "Lat": 4.1263, "Lon": 27.39527}], "Bal Chiragh": [{"Name": "Bal Chir\u0101gh", "Country Code": "AF", "Population": 0.0, "Lat": 35.84026, "Lon": 65.2309}], "Bal Harbour": [{"Name": "Bal Harbour", "Country Code": "US", "Population": 2877.0, "Lat": 25.89176, "Lon": -80.12699}], "Bal'a": [{"Name": "Bal\u2018\u0101", "Country Code": "PS", "Population": 6545.0, "Lat": 32.33392, "Lon": 35.1116}], "Bal'shavik": [{"Name": "Bal\u2019shavik", "Country Code": "BY", "Population": 3470.0, "Lat": 54.0036, "Lon": 27.5669}], "Bal-os": [{"Name": "Bal-os", "Country Code": "PH", "Population": 3206.0, "Lat": 9.4416, "Lon": 122.6257}], "Bal`ama": [{"Name": "Bal\u2018am\u0101", "Country Code": "JO", "Population": 0.0, "Lat": 32.23649, "Lon": 36.08811}], "Bala": [{"Name": "Bala", "Country Code": "GB", "Population": 1974.0, "Lat": 52.91111, "Lon": -3.59722}, {"Name": "B\u0103la", "Country Code": "RO", "Population": 889.0, "Lat": 46.71667, "Lon": 24.5}, {"Name": "Bala", "Country Code": "RO", "Population": 4580.0, "Lat": 44.88389, "Lon": 22.83333}, {"Name": "Bala", "Country Code": "TR", "Population": 0.0, "Lat": 39.55422, "Lon": 33.12344}], "Bala Cynwyd": [{"Name": "Bala Cynwyd", "Country Code": "US", "Population": 9299.0, "Lat": 40.00761, "Lon": -75.23407}], "Bala Ga'er Gaole": [{"Name": "Bala Ga\u2019er Gaole", "Country Code": "CN", "Population": 0.0, "Lat": 44.59149, "Lon": 117.6237}], "Bala Murghab": [{"Name": "Bala Murghab", "Country Code": "AF", "Population": 0.0, "Lat": 35.58408, "Lon": 63.32886}], "Balabac": [{"Name": "Balabac", "Country Code": "PH", "Population": 9881.0, "Lat": 7.98363, "Lon": 117.04868}], "Balabag": [{"Name": "Balabag", "Country Code": "PH", "Population": 3027.0, "Lat": 10.76333, "Lon": 122.49306}, {"Name": "Balabag", "Country Code": "PH", "Population": 4692.0, "Lat": 11.97, "Lon": 121.91917}], "Balabagan": [{"Name": "Balabagan", "Country Code": "PH", "Population": 2423.0, "Lat": 7.52639, "Lon": 124.11417}], "Balaban": [{"Name": "Balaban", "Country Code": "TR", "Population": 0.0, "Lat": 38.46106, "Lon": 37.57881}], "Balabanesti": [{"Name": "B\u0103l\u0103b\u0103ne\u0219ti", "Country Code": "RO", "Population": 895.0, "Lat": 46.09546, "Lon": 27.72206}], "Balabanovo": [{"Name": "Balabanovo", "Country Code": "RU", "Population": 24232.0, "Lat": 55.18161, "Lon": 36.6606}], "Balabyne": [{"Name": "Balabyne", "Country Code": "UA", "Population": 5850.0, "Lat": 47.73686, "Lon": 35.21361}], "Balaceana": [{"Name": "B\u0103l\u0103ceana", "Country Code": "RO", "Population": 1720.0, "Lat": 47.64338, "Lon": 26.04764}], "Balaceanca": [{"Name": "B\u0103l\u0103ceanca", "Country Code": "RO", "Population": 2129.0, "Lat": 44.39249, "Lon": 26.29009}], "Balaceanu": [{"Name": "B\u0103l\u0103ceanu", "Country Code": "RO", "Population": 1773.0, "Lat": 45.26667, "Lon": 27.15}], "Balachor": [{"Name": "B\u0101l\u0101chor", "Country Code": "IN", "Population": 19166.0, "Lat": 31.06062, "Lon": 76.30166}], "Balaci": [{"Name": "Balaci", "Country Code": "RO", "Population": 2485.0, "Lat": 44.35, "Lon": 24.91667}], "Balacita": [{"Name": "B\u0103l\u0103ci\u0163a", "Country Code": "RO", "Population": 3471.0, "Lat": 44.38333, "Lon": 23.13333}], "Balaciu": [{"Name": "Balaciu", "Country Code": "RO", "Population": 1069.0, "Lat": 44.63333, "Lon": 26.88333}], "Balaclava": [{"Name": "Balaclava", "Country Code": "AU", "Population": 5392.0, "Lat": -37.86667, "Lon": 145.0}, {"Name": "Balaclava", "Country Code": "JM", "Population": 2862.0, "Lat": 18.17228, "Lon": -77.64375}], "Balad": [{"Name": "Balad", "Country Code": "IQ", "Population": 42088.0, "Lat": 34.01485, "Lon": 44.14574}], "Balading": [{"Name": "Balading", "Country Code": "PH", "Population": 2755.0, "Lat": 13.3906, "Lon": 123.7121}], "Baladruz": [{"Name": "Baladr\u016bz", "Country Code": "IQ", "Population": 0.0, "Lat": 33.69631, "Lon": 45.07782}], "Balagansk": [{"Name": "Balagansk", "Country Code": "RU", "Population": 4195.0, "Lat": 54.0057, "Lon": 103.05234}], "Balaghat": [{"Name": "B\u0101l\u0101gh\u0101t", "Country Code": "IN", "Population": 80360.0, "Lat": 21.8156, "Lon": 80.18845}], "Balagny-sur-Therain": [{"Name": "Balagny-sur-Th\u00e9rain", "Country Code": "FR", "Population": 1492.0, "Lat": 49.29605, "Lon": 2.33645}], "Balagon": [{"Name": "Balagon", "Country Code": "PH", "Population": 2691.0, "Lat": 8.0063, "Lon": 123.2396}], "Balagtas": [{"Name": "Balagtas", "Country Code": "PH", "Population": 59826.0, "Lat": 14.81667, "Lon": 120.86667}, {"Name": "Balagtas", "Country Code": "PH", "Population": 2293.0, "Lat": 11.1333, "Lon": 124.5192}], "Balagtasin": [{"Name": "Balagtasin", "Country Code": "PH", "Population": 4050.0, "Lat": 13.9018, "Lon": 121.0889}], "Balaguer": [{"Name": "Balaguer", "Country Code": "ES", "Population": 16779.0, "Lat": 41.79117, "Lon": 0.81094}], "Balagui": [{"Name": "Balagui", "Country Code": "PH", "Population": 2502.0, "Lat": 11.4752, "Lon": 124.5324}], "Balagunan": [{"Name": "Balagunan", "Country Code": "PH", "Population": 4528.0, "Lat": 7.49222, "Lon": 125.52111}], "Balahio": [{"Name": "Balahio", "Country Code": "CI", "Population": 5712.0, "Lat": 6.31448, "Lon": -6.42587}], "Balahovit": [{"Name": "Balahovit", "Country Code": "AM", "Population": 2982.0, "Lat": 40.25153, "Lon": 44.60828}], "Balai Pungut": [{"Name": "Balai Pungut", "Country Code": "ID", "Population": 56452.0, "Lat": 1.05949, "Lon": 101.29054}], "Balaiberkuak": [{"Name": "Balaiberkuak", "Country Code": "ID", "Population": 0.0, "Lat": -0.52609, "Lon": 110.36637}], "Balaka": [{"Name": "Balaka", "Country Code": "MW", "Population": 40950.0, "Lat": -14.97928, "Lon": 34.95575}], "Balakhani": [{"Name": "Balakhani", "Country Code": "AZ", "Population": 10863.0, "Lat": 40.46344, "Lon": 49.91893}], "Balakhninskiy": [{"Name": "Balakhninskiy", "Country Code": "RU", "Population": 1675.0, "Lat": 58.01056, "Lon": 114.27694}], "Balakhonovskoye": [{"Name": "Balakhonovskoye", "Country Code": "RU", "Population": 4377.0, "Lat": 44.7767, "Lon": 41.7842}], "Balakhta": [{"Name": "Balakhta", "Country Code": "RU", "Population": 7721.0, "Lat": 55.38425, "Lon": 91.61872}], "Balakirevo": [{"Name": "Balakirevo", "Country Code": "RU", "Population": 8932.0, "Lat": 56.50588, "Lon": 38.84324}], "Balaklava": [{"Name": "Balaklava", "Country Code": "AU", "Population": 2031.0, "Lat": -34.14542, "Lon": 138.41148}, {"Name": "Balaklava", "Country Code": "UA", "Population": 18649.0, "Lat": 44.51118, "Lon": 33.59942}], "Balakliia": [{"Name": "Balakliia", "Country Code": "UA", "Population": 26334.0, "Lat": 49.45595, "Lon": 36.84433}], "Balakouya": [{"Name": "Balakouya", "Country Code": "CI", "Population": 33150.0, "Lat": 5.20771, "Lon": -6.35163}], "Balakovo": [{"Name": "Balakovo", "Country Code": "RU", "Population": 199572.0, "Lat": 52.02782, "Lon": 47.8007}], "Balally": [{"Name": "Balally", "Country Code": "IE", "Population": 9051.0, "Lat": 53.27504, "Lon": -6.23594}], "Balam": [{"Name": "Balam", "Country Code": "CI", "Population": 1339.0, "Lat": 6.50894, "Lon": -6.29244}], "Balamban": [{"Name": "Balamban", "Country Code": "PH", "Population": 22283.0, "Lat": 10.5039, "Lon": 123.7156}], "Balamutivka": [{"Name": "Balamutivka", "Country Code": "UA", "Population": 1786.0, "Lat": 48.53399, "Lon": 26.05999}], "Balan": [{"Name": "Balan", "Country Code": "FR", "Population": 1621.0, "Lat": 49.68881, "Lon": 4.96478}, {"Name": "Balan", "Country Code": "FR", "Population": 2610.0, "Lat": 45.83416, "Lon": 5.0993}, {"Name": "B\u0103lan", "Country Code": "RO", "Population": 7275.0, "Lat": 46.6505, "Lon": 25.80834}, {"Name": "B\u0103lan", "Country Code": "RO", "Population": 4050.0, "Lat": 47.15599, "Lon": 23.31213}], "Balanacan": [{"Name": "Balanacan", "Country Code": "PH", "Population": 3547.0, "Lat": 13.5289, "Lon": 121.8677}], "Balanbale": [{"Name": "Balanbale", "Country Code": "SO", "Population": 68000.0, "Lat": 5.76897, "Lon": 45.76297}], "Balancan": [{"Name": "Balanc\u00e1n", "Country Code": "MX", "Population": 13030.0, "Lat": 17.80903, "Lon": -91.53682}], "Balanegra": [{"Name": "Balanegra", "Country Code": "ES", "Population": 0.0, "Lat": 36.74886, "Lon": -2.9097}], "Balanesti": [{"Name": "B\u0103l\u0103ne\u0219ti", "Country Code": "RO", "Population": 1588.0, "Lat": 44.2497, "Lon": 24.48216}], "Balanga": [{"Name": "Balanga", "Country Code": "PH", "Population": 72954.0, "Lat": 14.67611, "Lon": 120.53611}], "Balangbalang": [{"Name": "Balangbalang", "Country Code": "PH", "Population": 2135.0, "Lat": 9.05694, "Lon": 125.62278}], "Balangero": [{"Name": "Balangero", "Country Code": "IT", "Population": 2868.0, "Lat": 45.26988, "Lon": 7.51884}], "Balangiga": [{"Name": "Balangiga", "Country Code": "PH", "Population": 5592.0, "Lat": 11.10972, "Lon": 125.3875}], "Balangir": [{"Name": "Bal\u0101ng\u012br", "Country Code": "IN", "Population": 91241.0, "Lat": 20.70419, "Lon": 83.49029}], "Balangkayan": [{"Name": "Balangkayan", "Country Code": "PH", "Population": 3159.0, "Lat": 11.47139, "Lon": 125.51056}], "Balangonan": [{"Name": "Balangonan", "Country Code": "PH", "Population": 2329.0, "Lat": 5.57333, "Lon": 125.35389}], "Balao": [{"Name": "Bal\u00e1o", "Country Code": "EC", "Population": 12205.0, "Lat": -2.911, "Lon": -79.81441}], "Balaoan": [{"Name": "Balaoan", "Country Code": "PH", "Population": 2928.0, "Lat": 16.8219, "Lon": 120.4045}], "Balaoang": [{"Name": "Balaoang", "Country Code": "PH", "Population": 3724.0, "Lat": 15.6633, "Lon": 120.5147}], "Balaogan": [{"Name": "Balaogan", "Country Code": "PH", "Population": 2841.0, "Lat": 13.4328, "Lon": 123.2818}], "Balapulang": [{"Name": "Balapulang", "Country Code": "ID", "Population": 28483.0, "Lat": -7.04858, "Lon": 109.10056}], "Balapur": [{"Name": "B\u0101l\u0101pur", "Country Code": "IN", "Population": 8280.0, "Lat": 17.31018, "Lon": 78.49969}, {"Name": "B\u0101l\u0101pur", "Country Code": "IN", "Population": 42401.0, "Lat": 20.66612, "Lon": 76.77386}], "Balarampur": [{"Name": "Balar\u0101mpur", "Country Code": "IN", "Population": 22847.0, "Lat": 23.09714, "Lon": 86.22292}], "Balaruc-le-Vieux": [{"Name": "Balaruc-le-Vieux", "Country Code": "FR", "Population": 2016.0, "Lat": 43.4614, "Lon": 3.6853}], "Balaruc-les-Bains": [{"Name": "Balaruc-les-Bains", "Country Code": "FR", "Population": 6387.0, "Lat": 43.4417, "Lon": 3.6778}], "Balas": [{"Name": "Balas", "Country Code": "PH", "Population": 2517.0, "Lat": 15.04998, "Lon": 120.58611},