{"Mijares": [{"Name": "Mijares", "Country Code": "ES", "Population": 906.0, "Lat": 40.29655, "Lon": -4.83651}], "Mijas": [{"Name": "Mijas", "Country Code": "ES", "Population": 73787.0, "Lat": 36.59575, "Lon": -4.63728}], "Mijdrecht": [{"Name": "Mijdrecht", "Country Code": "NL", "Population": 15230.0, "Lat": 52.20667, "Lon": 4.8625}], "Mijlocenii Bargaului": [{"Name": "Mijlocenii B\u00e2rg\u0103ului", "Country Code": "RO", "Population": 1736.0, "Lat": 47.21592, "Lon": 24.68936}], "Mijnsheerenland": [{"Name": "Mijnsheerenland", "Country Code": "NL", "Population": 1775.0, "Lat": 51.79667, "Lon": 4.4875}], "Mijo": [{"Name": "Mijo", "Country Code": "KR", "Population": 0.0, "Lat": 34.7128, "Lon": 128.04605}], "Mikasa": [{"Name": "Mikasa", "Country Code": "JP", "Population": 0.0, "Lat": 43.25581, "Lon": 141.88818}], "Mikashevichy": [{"Name": "Mikashevichy", "Country Code": "BY", "Population": 14000.0, "Lat": 52.2173, "Lon": 27.476}], "Mikenaungea": [{"Name": "Mikenaungea", "Country Code": "MM", "Population": 2005.0, "Lat": 15.95846, "Lon": 98.42721}], "Mikepercs": [{"Name": "Mikep\u00e9rcs", "Country Code": "HU", "Population": 3430.0, "Lat": 47.45, "Lon": 21.63333}], "Mikhalkove": [{"Name": "Mikhalkove", "Country Code": "UA", "Population": 2139.0, "Lat": 48.56672, "Lon": 27.29662}], "Mikhalkovo": [{"Name": "Mikhalkovo", "Country Code": "RU", "Population": 30000.0, "Lat": 55.68333, "Lon": 37.43333}], "Mikhaylov": [{"Name": "Mikhaylov", "Country Code": "RU", "Population": 12907.0, "Lat": 54.23227, "Lon": 39.02915}], "Mikhaylovka": [{"Name": "Mikhaylovka", "Country Code": "RU", "Population": 9300.0, "Lat": 43.93283, "Lon": 132.00911}, {"Name": "Mikhaylovka", "Country Code": "RU", "Population": 4344.0, "Lat": 54.805, "Lon": 55.89193}, {"Name": "Mikhaylovka", "Country Code": "RU", "Population": 3012.0, "Lat": 52.2317, "Lon": 35.3767}, {"Name": "Mikhaylovka", "Country Code": "RU", "Population": 58898.0, "Lat": 50.06, "Lon": 43.2379}, {"Name": "Mikhaylovka", "Country Code": "UA", "Population": 2241.0, "Lat": 45.52838, "Lon": 34.64058}, {"Name": "Mikhaylovka", "Country Code": "UA", "Population": 3325.0, "Lat": 45.11325, "Lon": 33.61071}], "Mikhaylovsk": [{"Name": "Mikhaylovsk", "Country Code": "RU", "Population": 59198.0, "Lat": 45.13097, "Lon": 42.02703}, {"Name": "Mikhaylovsk", "Country Code": "RU", "Population": 10209.0, "Lat": 56.43583, "Lon": 59.12}], "Mikhaylovskaya": [{"Name": "Mikhaylovskaya", "Country Code": "RU", "Population": 8050.0, "Lat": 44.99472, "Lon": 40.59639}], "Mikhaylovskoye": [{"Name": "Mikhaylovskoye", "Country Code": "RU", "Population": 11467.0, "Lat": 51.82389, "Lon": 79.71722}, {"Name": "Mikhaylovskoye", "Country Code": "RU", "Population": 10479.0, "Lat": 43.09972, "Lon": 44.63164}], "Mikhmas": [{"Name": "Mikhm\u0101s", "Country Code": "PS", "Population": 1461.0, "Lat": 31.8721, "Lon": 35.27596}], "Mikhmoret": [{"Name": "Mikhmoret", "Country Code": "IL", "Population": 1403.0, "Lat": 32.40535, "Lon": 34.87091}], "Mikhnevo": [{"Name": "Mikhn\u00ebvo", "Country Code": "RU", "Population": 10726.0, "Lat": 55.12747, "Lon": 37.95451}], "Miki": [{"Name": "Miki", "Country Code": "JP", "Population": 75450.0, "Lat": 34.8, "Lon": 134.98333}], "Mikkeli": [{"Name": "Mikkeli", "Country Code": "FI", "Population": 52121.0, "Lat": 61.68857, "Lon": 27.27227}], "Miklavz na Dravskem Polju": [{"Name": "Miklav\u017e na Dravskem Polju", "Country Code": "SI", "Population": 3854.0, "Lat": 46.50583, "Lon": 15.69722}], "Mikleus": [{"Name": "Mikleu\u0161", "Country Code": "HR", "Population": 646.0, "Lat": 45.61861, "Lon": 17.80389}], "Mikolajki": [{"Name": "Miko\u0142ajki", "Country Code": "PL", "Population": 3851.0, "Lat": 53.80288, "Lon": 21.57011}], "Mikolajki Pomorskie": [{"Name": "Miko\u0142ajki Pomorskie", "Country Code": "PL", "Population": 1416.0, "Lat": 53.85131, "Lon": 19.16574}], "Mikolow": [{"Name": "Miko\u0142\u00f3w", "Country Code": "PL", "Population": 38821.0, "Lat": 50.17103, "Lon": 18.9041}], "Mikoma": [{"Name": "Mikoma", "Country Code": "US", "Population": 1209.0, "Lat": 33.95039, "Lon": -90.28398}], "Mikomeseng": [{"Name": "Mikomeseng", "Country Code": "GQ", "Population": 5813.0, "Lat": 2.13609, "Lon": 10.61322}], "Mikro Monastiri": [{"Name": "Mikr\u00f3 Monast\u00edri", "Country Code": "GR", "Population": 1306.0, "Lat": 40.7043, "Lon": 22.54112}], "Mikropolis": [{"Name": "Mikr\u00f3polis", "Country Code": "GR", "Population": 1094.0, "Lat": 41.19351, "Lon": 23.8157}], "Mikstat": [{"Name": "Mikstat", "Country Code": "PL", "Population": 1832.0, "Lat": 51.53236, "Lon": 17.97378}], "Mikulasovice": [{"Name": "Mikul\u00e1\u0161ovice", "Country Code": "CZ", "Population": 2375.0, "Lat": 50.96507, "Lon": 14.36368}], "Mikulcice": [{"Name": "Mikul\u010dice", "Country Code": "CZ", "Population": 1881.0, "Lat": 48.81643, "Lon": 17.05107}], "Mikulino": [{"Name": "Mikulino", "Country Code": "RU", "Population": 1292.0, "Lat": 56.45188, "Lon": 35.60685}], "Mikulov": [{"Name": "Mikulov", "Country Code": "CZ", "Population": 7608.0, "Lat": 48.80556, "Lon": 16.6378}], "Mikulovice": [{"Name": "Mikulovice", "Country Code": "CZ", "Population": 2750.0, "Lat": 50.29854, "Lon": 17.32155}], "Mikumi": [{"Name": "Mikumi", "Country Code": "TZ", "Population": 16780.0, "Lat": -7.40409, "Lon": 36.98309}], "Mikun'": [{"Name": "Mikun\u2019", "Country Code": "RU", "Population": 11502.0, "Lat": 62.35472, "Lon": 50.07714}], "Mikuni": [{"Name": "Mikuni", "Country Code": "JP", "Population": 23480.0, "Lat": 36.21494, "Lon": 136.14832}], "Mil'kovo": [{"Name": "Mil\u2019kovo", "Country Code": "RU", "Population": 8251.0, "Lat": 54.6961, "Lon": 158.62067}], "Mila": [{"Name": "Mila", "Country Code": "DZ", "Population": 63251.0, "Lat": 36.45028, "Lon": 6.26444}], "Mila Doce": [{"Name": "Mila Doce", "Country Code": "US", "Population": 6222.0, "Lat": 26.22618, "Lon": -97.95889}], "Milaca": [{"Name": "Milaca", "Country Code": "US", "Population": 2883.0, "Lat": 45.7558, "Lon": -93.65441}], "Miladinovci": [{"Name": "Miladinovci", "Country Code": "MK", "Population": 1315.0, "Lat": 41.98029, "Lon": 21.64982}], "Milagres": [{"Name": "Milagres", "Country Code": "BR", "Population": 12588.0, "Lat": -7.31333, "Lon": -38.94556}, {"Name": "Milagres", "Country Code": "PT", "Population": 1006.0, "Lat": 39.79002, "Lon": -8.79351}], "Milagro": [{"Name": "Milagro", "Country Code": "AR", "Population": 0.0, "Lat": -31.00831, "Lon": -65.99103}, {"Name": "Milagro", "Country Code": "EC", "Population": 133508.0, "Lat": -2.13404, "Lon": -79.59415}, {"Name": "Milagro", "Country Code": "ES", "Population": 3016.0, "Lat": 42.2416, "Lon": -1.76588}], "Milagros": [{"Name": "Milagros", "Country Code": "ES", "Population": 494.0, "Lat": 41.575, "Lon": -3.69907}, {"Name": "Milagros", "Country Code": "MX", "Population": 1339.0, "Lat": 22.49986, "Lon": -102.18365}, {"Name": "Milagros", "Country Code": "PH", "Population": 6009.0, "Lat": 12.21814, "Lon": 123.50951}], "Milah": [{"Name": "Mil\u0101\u1e29", "Country Code": "YE", "Population": 0.0, "Lat": 14.41617, "Lon": 44.78622}], "Milak": [{"Name": "Milak", "Country Code": "IN", "Population": 28505.0, "Lat": 28.61031, "Lon": 79.16997}], "Milakowo": [{"Name": "Mi\u0142akowo", "Country Code": "PL", "Population": 2691.0, "Lat": 54.00923, "Lon": 20.07125}], "Milam": [{"Name": "Milam", "Country Code": "US", "Population": 1480.0, "Lat": 31.4324, "Lon": -93.84574}], "Milan": [{"Name": "Mil\u00e1n", "Country Code": "CO", "Population": 7507.0, "Lat": 1.29034, "Lon": -75.50757}, {"Name": "Milan", "Country Code": "IT", "Population": 1371498.0, "Lat": 45.46427, "Lon": 9.18951}, {"Name": "Milan", "Country Code": "US", "Population": 1347.0, "Lat": 41.29755, "Lon": -82.60545}, {"Name": "Milan", "Country Code": "US", "Population": 5983.0, "Lat": 42.08532, "Lon": -83.68244}, {"Name": "Milan", "Country Code": "US", "Population": 7813.0, "Lat": 35.91979, "Lon": -88.75895}, {"Name": "Milan", "Country Code": "US", "Population": 5096.0, "Lat": 41.45309, "Lon": -90.57208}, {"Name": "Milan", "Country Code": "US", "Population": 1886.0, "Lat": 39.12117, "Lon": -85.13135}, {"Name": "Milan", "Country Code": "US", "Population": 3250.0, "Lat": 35.16976, "Lon": -107.89089}, {"Name": "Milan", "Country Code": "US", "Population": 1852.0, "Lat": 40.20224, "Lon": -93.12521}, {"Name": "Milan", "Country Code": "US", "Population": 1418.0, "Lat": 44.57339, "Lon": -71.18508}], "Milanere": [{"Name": "Milanere", "Country Code": "IT", "Population": 1136.0, "Lat": 45.10436, "Lon": 7.43373}], "Milange": [{"Name": "Milange", "Country Code": "MZ", "Population": 35146.0, "Lat": -16.09861, "Lon": 35.77}], "Milano Marittima": [{"Name": "Milano Marittima", "Country Code": "IT", "Population": 1524.0, "Lat": 44.27409, "Lon": 12.35172}], "Milanovac": [{"Name": "Milanovac", "Country Code": "HR", "Population": 1515.0, "Lat": 45.79972, "Lon": 17.38694}], "Milanow": [{"Name": "Milan\u00f3w", "Country Code": "PL", "Population": 1105.0, "Lat": 51.70374, "Lon": 22.8883}], "Milanowek": [{"Name": "Milan\u00f3wek", "Country Code": "PL", "Population": 15784.0, "Lat": 52.11879, "Lon": 20.67155}], "Milaor": [{"Name": "Milaor", "Country Code": "PH", "Population": 8809.0, "Lat": 13.5961, "Lon": 123.1772}], "Milas": [{"Name": "Mila\u015f", "Country Code": "RO", "Population": 1546.0, "Lat": 46.81667, "Lon": 24.43333}, {"Name": "Milas", "Country Code": "TR", "Population": 43193.0, "Lat": 37.31639, "Lon": 27.78389}], "Milazzo": [{"Name": "Milazzo", "Country Code": "IT", "Population": 31771.0, "Lat": 38.22008, "Lon": 15.24023}], "Milbank": [{"Name": "Milbank", "Country Code": "US", "Population": 3192.0, "Lat": 45.21913, "Lon": -96.63562}], "Milborne Port": [{"Name": "Milborne Port", "Country Code": "GB", "Population": 2802.0, "Lat": 50.96605, "Lon": -2.46248}], "Milborne St Andrew": [{"Name": "Milborne St Andrew", "Country Code": "GB", "Population": 1062.0, "Lat": 50.77829, "Lon": -2.28114}], "Milbridge": [{"Name": "Milbridge", "Country Code": "US", "Population": 1330.0, "Lat": 44.53536, "Lon": -67.88083}], "Milcoiu": [{"Name": "Milcoiu", "Country Code": "RO", "Population": 1276.0, "Lat": 45.05, "Lon": 24.46667}], "Milcovatu": [{"Name": "Milcov\u0103\u021bu", "Country Code": "RO", "Population": 1405.0, "Lat": 44.2657, "Lon": 25.69882}], "Milcovul": [{"Name": "Milcovul", "Country Code": "RO", "Population": 8547.0, "Lat": 45.65, "Lon": 27.25}], "Mildenau": [{"Name": "Mildenau", "Country Code": "DE", "Population": 3749.0, "Lat": 50.58689, "Lon": 13.07263}], "Mildenhall": [{"Name": "Mildenhall", "Country Code": "GB", "Population": 477.0, "Lat": 51.4256, "Lon": -1.69988}, {"Name": "Mildenhall", "Country Code": "GB", "Population": 14382.0, "Lat": 52.34446, "Lon": 0.51086}], "Mildmay": [{"Name": "Mildmay", "Country Code": "CA", "Population": 1219.0, "Lat": 44.043, "Lon": -81.11889}], "Mildstedt": [{"Name": "Mildstedt", "Country Code": "DE", "Population": 3697.0, "Lat": 54.46667, "Lon": 9.1}], "Mildura": [{"Name": "Mildura", "Country Code": "AU", "Population": 32936.0, "Lat": -34.18551, "Lon": 142.16251}], "Mile": [{"Name": "M\u012bl\u0113", "Country Code": "ET", "Population": 21700.0, "Lat": 11.42172, "Lon": 40.76282}], "Mile 91": [{"Name": "Mile 91", "Country Code": "SL", "Population": 15491.0, "Lat": 8.46596, "Lon": -12.21457}], "Mile End": [{"Name": "Mile End", "Country Code": "AU", "Population": 4353.0, "Lat": -34.92654, "Lon": 138.57033}], "Mileanca": [{"Name": "Mileanca", "Country Code": "RO", "Population": 2985.0, "Lat": 48.08333, "Lon": 26.7}], "Mileb": [{"Name": "Mileb", "Country Code": "PH", "Population": 2758.0, "Lat": 6.89861, "Lon": 124.58389}], "Milejczyce": [{"Name": "Milejczyce", "Country Code": "PL", "Population": 1100.0, "Lat": 52.51967, "Lon": 23.13206}], "Milejow": [{"Name": "Milej\u00f3w", "Country Code": "PL", "Population": 2676.0, "Lat": 51.23226, "Lon": 22.92443}], "Milena": [{"Name": "Milena", "Country Code": "IT", "Population": 2840.0, "Lat": 37.47133, "Lon": 13.73613}], "Miles": [{"Name": "Miles", "Country Code": "AU", "Population": 2030.0, "Lat": -26.65836, "Lon": 150.18822}], "Miles City": [{"Name": "Miles City", "Country Code": "US", "Population": 8796.0, "Lat": 46.40834, "Lon": -105.84056}], "Milesburg": [{"Name": "Milesburg", "Country Code": "US", "Population": 1100.0, "Lat": 40.94173, "Lon": -77.785}], "Miletino": [{"Name": "Miletino", "Country Code": "MK", "Population": 1820.0, "Lat": 41.90753, "Lon": 21.01601}], "Mileto": [{"Name": "Mileto", "Country Code": "IT", "Population": 3258.0, "Lat": 38.6078, "Lon": 16.06751}], "Milevsko": [{"Name": "Milevsko", "Country Code": "CZ", "Population": 9343.0, "Lat": 49.45089, "Lon": 14.36}], "Milford": [{"Name": "Milford", "Country Code": "GB", "Population": 6220.0, "Lat": 51.17272, "Lon": -0.65042}, {"Name": "Milford", "Country Code": "NZ", "Population": 5130.0, "Lat": -36.77158, "Lon": 174.76585}, {"Name": "Milford", "Country Code": "US", "Population": 1242.0, "Lat": 40.62837, "Lon": -87.69614}, {"Name": "Milford", "Country Code": "US", "Population": 6472.0, "Lat": 42.59364, "Lon": -83.59939}, {"Name": "Milford", "Country Code": "US", "Population": 8835.0, "Lat": 42.83536, "Lon": -71.64896}, {"Name": "Milford", "Country Code": "US", "Population": 1116.0, "Lat": 43.10083, "Lon": -88.84677}, {"Name": "Milford", "Country Code": "US", "Population": 1204.0, "Lat": 40.56871, "Lon": -75.09462}, {"Name": "Milford", "Country Code": "US", "Population": 10252.0, "Lat": 38.91261, "Lon": -75.42797}, {"Name": "Milford", "Country Code": "US", "Population": 980.0, "Lat": 41.32232, "Lon": -74.80239}, {"Name": "Milford", "Country Code": "US", "Population": 1562.0, "Lat": 41.40977, "Lon": -85.84555}, {"Name": "Milford", "Country Code": "US", "Population": 6876.0, "Lat": 39.17534, "Lon": -84.29438}, {"Name": "Milford", "Country Code": "US", "Population": 1331.0, "Lat": 38.39691, "Lon": -113.01079}, {"Name": "Milford", "Country Code": "US", "Population": 1222.0, "Lat": 39.95313, "Lon": -79.10419}, {"Name": "Milford", "Country Code": "US", "Population": 2233.0, "Lat": 44.94618, "Lon": -68.64392}, {"Name": "Milford", "Country Code": "US", "Population": 25055.0, "Lat": 42.13982, "Lon": -71.51617}, {"Name": "Milford", "Country Code": "US", "Population": 52759.0, "Lat": 41.22232, "Lon": -73.0565}, {"Name": "Milford", "Country Code": "US", "Population": 3018.0, "Lat": 43.32469, "Lon": -95.15}, {"Name": "Milford", "Country Code": "US", "Population": 2107.0, "Lat": 40.77445, "Lon": -97.05059}], "Milford Haven": [{"Name": "Milford Haven", "Country Code": "GB", "Population": 13582.0, "Lat": 51.71278, "Lon": -5.0341}], "Milford Mill": [{"Name": "Milford Mill", "Country Code": "US", "Population": 29042.0, "Lat": 39.34788, "Lon": -76.76997}], "Milford on Sea": [{"Name": "Milford on Sea", "Country Code": "GB", "Population": 4348.0, "Lat": 50.72561, "Lon": -1.59004}], "Milharado": [{"Name": "Milharado", "Country Code": "PT", "Population": 5935.0, "Lat": 38.94732, "Lon": -9.19914}], "Milhaud": [{"Name": "Milhaud", "Country Code": "FR", "Population": 5321.0, "Lat": 43.78986, "Lon": 4.30737}], "Milheeze": [{"Name": "Milheeze", "Country Code": "NL", "Population": 1400.0, "Lat": 51.50167, "Lon": 5.77917}], "Milheiros": [{"Name": "Milheir\u00f3s", "Country Code": "PT", "Population": 4342.0, "Lat": 41.21478, "Lon": -8.58837}], "Milheiros de Poiares": [{"Name": "Milheir\u00f3s de Poiares", "Country Code": "PT", "Population": 4339.0, "Lat": 40.92163, "Lon": -8.46788}], "Mili": [{"Name": "Mili", "Country Code": "MH", "Population": 854.0, "Lat": 6.0815, "Lon": 171.73502}], "Miliana": [{"Name": "Miliana", "Country Code": "DZ", "Population": 43366.0, "Lat": 36.30554, "Lon": 2.2248}], "Milici": [{"Name": "Mili\u0107i", "Country Code": "BA", "Population": 8210.0, "Lat": 44.17016, "Lon": 19.09195}], "Milicz": [{"Name": "Milicz", "Country Code": "PL", "Population": 11304.0, "Lat": 51.5277, "Lon": 17.27137}], "Milikov": [{"Name": "Mil\u00edkov", "Country Code": "CZ", "Population": 1291.0, "Lat": 49.58565, "Lon": 18.71943}], "Mililani Town": [{"Name": "Mililani Town", "Country Code": "US", "Population": 27629.0, "Lat": 21.4504, "Lon": -158.01503}], "Milin": [{"Name": "Mil\u00edn", "Country Code": "CZ", "Population": 2053.0, "Lat": 49.63192, "Lon": 14.046}], "Milingimbi": [{"Name": "Milingimbi", "Country Code": "AU", "Population": 1279.0, "Lat": -12.10188, "Lon": 134.91901}], "Miliroc": [{"Name": "Miliroc", "Country Code": "PH", "Population": 4324.0, "Lat": 13.3449, "Lon": 123.702}], "Milis": [{"Name": "Milis", "Country Code": "IT", "Population": 1584.0, "Lat": 40.05045, "Lon": 8.63702}], "Milisauti": [{"Name": "Mili\u015f\u0103u\u0163i", "Country Code": "RO", "Population": 8399.0, "Lat": 47.78333, "Lon": 26.0}], "Militello Rosmarino": [{"Name": "Militello Rosmarino", "Country Code": "IT", "Population": 646.0, "Lat": 38.04575, "Lon": 14.67584}], "Militello in Val di Catania": [{"Name": "Militello in Val di Catania", "Country Code": "IT", "Population": 7798.0, "Lat": 37.27594, "Lon": 14.79342}], "Miliyeve": [{"Name": "Miliyeve", "Country Code": "UA", "Population": 2071.0, "Lat": 48.32731, "Lon": 25.28925}], "Milizac": [{"Name": "Milizac", "Country Code": "FR", "Population": 3038.0, "Lat": 48.46698, "Lon": -4.56675}], "Milkowice": [{"Name": "Mi\u0142kowice", "Country Code": "PL", "Population": 2000.0, "Lat": 51.25601, "Lon": 16.07231}], "Mill": [{"Name": "Mill", "Country Code": "NL", "Population": 6289.0, "Lat": 51.68833, "Lon": 5.77917}], "Mill City": [{"Name": "Mill City", "Country Code": "US", "Population": 1875.0, "Lat": 44.75401, "Lon": -122.47814}], "Mill Creek": [{"Name": "Mill Creek", "Country Code": "US", "Population": 20043.0, "Lat": 47.8601, "Lon": -122.2043}], "Mill Creek East": [{"Name": "Mill Creek East", "Country Code": "US", "Population": 15709.0, "Lat": 47.83602, "Lon": -122.18766}], "Mill Hall": [{"Name": "Mill Hall", "Country Code": "US", "Population": 1615.0, "Lat": 41.10729, "Lon": -77.48443}], "Mill Neck": [{"Name": "Mill Neck", "Country Code": "US", "Population": 1015.0, "Lat": 40.88704, "Lon": -73.55512}], "Mill Park": [{"Name": "Mill Park", "Country Code": "AU", "Population": 28712.0, "Lat": -37.66667, "Lon": 145.06667}], "Mill Plain": [{"Name": "Mill Plain", "Country Code": "US", "Population": 7874.0, "Lat": 45.6429, "Lon": -122.49398}], "Mill Valley": [{"Name": "Mill Valley", "Country Code": "US", "Population": 14394.0, "Lat": 37.90604, "Lon": -122.54498}], "Mill Woods Town Centre": [{"Name": "Mill Woods Town Centre", "Country Code": "CA", "Population": 1247.0, "Lat": 53.45639, "Lon": -113.42751}], "Millana": [{"Name": "Millana", "Country Code": "ES", "Population": 165.0, "Lat": 40.50717, "Lon": -2.57116}], "Millanes": [{"Name": "Millanes", "Country Code": "ES", "Population": 182.0, "Lat": 39.84917, "Lon": -5.58079}], "Millares": [{"Name": "Millares", "Country Code": "ES", "Population": 567.0, "Lat": 39.25, "Lon": -0.76667}], "Millars Well": [{"Name": "Millars Well", "Country Code": "AU", "Population": 1794.0, "Lat": -20.74168, "Lon": 116.81731}], "Millas": [{"Name": "Millas", "Country Code": "FR", "Population": 3789.0, "Lat": 42.69203, "Lon": 2.69508}], "Millau": [{"Name": "Millau", "Country Code": "FR", "Population": 23307.0, "Lat": 44.09973, "Lon": 3.07848}], "Millbank": [{"Name": "Millbank", "Country Code": "AU", "Population": 2526.0, "Lat": -24.87536, "Lon": 152.32217}], "Millbourne": [{"Name": "Millbourne", "Country Code": "US", "Population": 1162.0, "Lat": 39.96345, "Lon": -75.25018}], "Millbrae": [{"Name": "Millbrae", "Country Code": "US", "Population": 22795.0, "Lat": 37.59855, "Lon": -122.38719}], "Millbridge": [{"Name": "Millbridge", "Country Code": "AU", "Population": 2296.0, "Lat": -33.30617, "Lon": 115.735}], "Millbrook": [{"Name": "Millbrook", "Country Code": "CA", "Population": 1695.0, "Lat": 44.15012, "Lon": -78.44954}, {"Name": "Millbrook", "Country Code": "GB", "Population": 0.0, "Lat": 50.34925, "Lon": -4.21506}, {"Name": "Millbrook", "Country Code": "GB", "Population": 130.0, "Lat": 52.03882, "Lon": -0.52438}, {"Name": "Millbrook", "Country Code": "US", "Population": 15314.0, "Lat": 32.47986, "Lon": -86.36192}, {"Name": "Millbrook", "Country Code": "US", "Population": 1425.0, "Lat": 41.78509, "Lon": -73.69402}], "Millburn": [{"Name": "Millburn", "Country Code": "US", "Population": 20149.0, "Lat": 40.72482, "Lon": -74.30404}], "Millbury": [{"Name": "Millbury", "Country Code": "US", "Population": 13606.0, "Lat": 42.19398, "Lon": -71.76007}, {"Name": "Millbury", "Country Code": "US", "Population": 1249.0, "Lat": 41.56616, "Lon": -83.42465}], "Millcreek": [{"Name": "Millcreek", "Country Code": "US", "Population": 62139.0, "Lat": 40.68689, "Lon": -111.87549}], "Milledgeville": [{"Name": "Milledgeville", "Country Code": "US", "Population": 18931.0, "Lat": 33.08014, "Lon": -83.2321}], "Millen": [{"Name": "Millen", "Country Code": "BE", "Population": 1603.0, "Lat": 50.78619, "Lon": 5.55616}, {"Name": "Millen", "Country Code": "US", "Population": 2925.0, "Lat": 32.80405, "Lon": -81.94928}], "Millena": [{"Name": "Millena", "Country Code": "ES", "Population": 173.0, "Lat": 38.73082, "Lon": -0.36274}], "Millepini": [{"Name": "Millepini", "Country Code": "IT", "Population": 2098.0, "Lat": 45.46967, "Lon": 9.33763}], "Miller": [{"Name": "Miller", "Country Code": "AU", "Population": 3250.0, "Lat": -33.92089, "Lon": 150.88469}, {"Name": "Miller", "Country Code": "US", "Population": 1437.0, "Lat": 44.51831, "Lon": -98.98843}], "Miller Place": [{"Name": "Miller Place", "Country Code": "US", "Population": 12339.0, "Lat": 40.95982, "Lon": -72.99621}], "Millerovo": [{"Name": "Millerovo", "Country Code": "RU", "Population": 38527.0, "Lat": 48.92265, "Lon": 40.39673}], "Millers Creek": [{"Name": "Millers Creek", "Country Code": "US", "Population": 2112.0, "Lat": 36.1893, "Lon": -81.23759}], "Millers Falls": [{"Name": "Millers Falls", "Country Code": "US", "Population": 1139.0, "Lat": 42.58203, "Lon": -72.49259}], "Millers Point": [{"Name": "Millers Point", "Country Code": "AU", "Population": 1599.0, "Lat": -33.85957, "Lon": 151.20406}], "Millersburg": [{"Name": "Millersburg", "Country Code": "US", "Population": 1539.0, "Lat": 44.68095, "Lon": -123.06148}, {"Name": "Millersburg", "Country Code": "US", "Population": 2536.0, "Lat": 40.53953, "Lon": -76.96081}, {"Name": "Millersburg", "Country Code": "US", "Population": 3151.0, "Lat": 40.55451, "Lon": -81.91792}], "Millersport": [{"Name": "Millersport", "Country Code": "US", "Population": 1049.0, "Lat": 39.90006, "Lon": -82.53405}], "Millersville": [{"Name": "Millersville", "Country Code": "US", "Population": 6700.0, "Lat": 36.37116, "Lon": -86.71}, {"Name": "Millersville", "Country Code": "US", "Population": 8420.0, "Lat": 39.99788, "Lon": -76.35413}], "Millery": [{"Name": "Millery", "Country Code": "FR", "Population": 3604.0, "Lat": 45.63232, "Lon": 4.78207}], "Milles de la Polvorosa": [{"Name": "Milles de la Polvorosa", "Country Code": "ES", "Population": 263.0, "Lat": 41.92339, "Lon": -5.73309}], "Millesimo": [{"Name": "Millesimo", "Country Code": "IT", "Population": 3132.0, "Lat": 44.36695, "Lon": 8.20354}], "Millet": [{"Name": "Millet", "Country Code": "CA", "Population": 1905.0, "Lat": 53.09415, "Lon": -113.47056}], "Millgrove": [{"Name": "Millgrove", "Country Code": "AU", "Population": 1666.0, "Lat": -37.75527, "Lon": 145.65347}], "Millicent": [{"Name": "Millicent", "Country Code": "AU", "Population": 4924.0, "Lat": -37.59389, "Lon": 140.34947}], "Milliken": [{"Name": "Milliken", "Country Code": "CA", "Population": 26572.0, "Lat": 43.82499, "Lon": -79.29872}, {"Name": "Milliken", "Country Code": "US", "Population": 6388.0, "Lat": 40.32943, "Lon": -104.85525}], "Millington": [{"Name": "Millington", "Country Code": "GB", "Population": 0.0, "Lat": 53.95, "Lon": -0.73333}, {"Name": "Millington", "Country Code": "US", "Population": 11027.0, "Lat": 35.34147, "Lon": -89.89731}, {"Name": "Millington", "Country Code": "US", "Population": 1037.0, "Lat": 43.28141, "Lon": -83.52968}], "Millinocket": [{"Name": "Millinocket", "Country Code": "US", "Population": 4466.0, "Lat": 45.65727, "Lon": -68.70976}], "Millis": [{"Name": "Millis", "Country Code": "US", "Population": 8040.0, "Lat": 42.1676, "Lon": -71.35784}], "Millis-Clicquot": [{"Name": "Millis-Clicquot", "Country Code": "US", "Population": 4403.0, "Lat": 42.1648, "Lon": -71.35442}], "Millisle": [{"Name": "Millisle", "Country Code": "GB", "Population": 1914.0, "Lat": 54.60638, "Lon": -5.52973}], "Millmerran": [{"Name": "Millmerran", "Country Code": "AU", "Population": 1548.0, "Lat": -27.87913, "Lon": 151.27058}], "Millner": [{"Name": "Millner", "Country Code": "AU", "Population": 2512.0, "Lat": -12.39186, "Lon": 130.86252}], "Millom": [{"Name": "Millom", "Country Code": "GB", "Population": 5980.0, "Lat": 54.21072, "Lon": -3.272}], "Millport": [{"Name": "Millport", "Country Code": "GB", "Population": 1280.0, "Lat": 55.75348, "Lon": -4.92559}], "Mills": [{"Name": "Mills", "Country Code": "US", "Population": 3785.0, "Lat": 42.84052, "Lon": -106.36586}], "Mills River": [{"Name": "Mills River", "Country Code": "US", "Population": 7162.0, "Lat": 35.38845, "Lon": -82.56679}], "Millsboro": [{"Name": "Millsboro", "Country Code": "US", "Population": 4216.0, "Lat": 38.5915, "Lon": -75.2913}], "Millstadt": [{"Name": "Millstadt", "Country Code": "US", "Population": 3896.0, "Lat": 38.46144, "Lon": -90.09178}], "Millstatt": [{"Name": "Millstatt", "Country Code": "AT", "Population": 889.0, "Lat": 46.80417, "Lon": 13.58056}], "Millstream": [{"Name": "Millstream", "Country Code": "AU", "Population": 1204.0, "Lat": -17.65318, "Lon": 145.41401}], "Millstreet": [{"Name": "Millstreet", "Country Code": "IE", "Population": 1555.0, "Lat": 52.05935, "Lon": -9.06031}], "Millswood": [{"Name": "Millswood", "Country Code": "AU", "Population": 2086.0, "Lat": -34.95505, "Lon": 138.58888}], "Millthorpe": [{"Name": "Millthorpe", "Country Code": "AU", "Population": 1208.0, "Lat": -33.44601, "Lon": 149.18539}], "Milltimber": [{"Name": "Milltimber", "Country Code": "GB", "Population": 2660.0, "Lat": 57.10424, "Lon": -2.24099}], "Milltown": [{"Name": "Milltown", "Country Code": "IE", "Population": 4049.0, "Lat": 53.31301, "Lon": -6.2453}, {"Name": "Milltown", "Country Code": "US", "Population": 7049.0, "Lat": 40.45622, "Lon": -74.44321}], "Millvale": [{"Name": "Millvale", "Country Code": "US", "Population": 3689.0, "Lat": 40.48007, "Lon": -79.97839}], "Millville": [{"Name": "Millville", "Country Code": "US", "Population": 1970.0, "Lat": 41.6816, "Lon": -111.823}, {"Name": "Millville", "Country Code": "US", "Population": 2772.0, "Lat": 42.02788, "Lon": -71.5809}, {"Name": "Millville", "Country Code": "US", "Population": 28230.0, "Lat": 39.40206, "Lon": -75.03934}], "Millwood": [{"Name": "Millwood", "Country Code": "US", "Population": 1783.0, "Lat": 47.68128, "Lon": -117.28271}], "Milly-la-Foret": [{"Name": "Milly-la-For\u00eat", "Country Code": "FR", "Population": 4860.0, "Lat": 48.404, "Lon": 2.47015}], "Milly-sur-Therain": [{"Name": "Milly-sur-Th\u00e9rain", "Country Code": "FR", "Population": 1615.0, "Lat": 49.5024, "Lon": 1.99605}], "Milmarcos": [{"Name": "Milmarcos", "Country Code": "ES", "Population": 116.0, "Lat": 41.08622, "Lon": -1.87652}], "Milmersdorf": [{"Name": "Milmersdorf", "Country Code": "DE", "Population": 1814.0, "Lat": 53.11185, "Lon": 13.6415}], "Milmort": [{"Name": "Milmort", "Country Code": "BE", "Population": 2507.0, "Lat": 50.69037, "Lon": 5.59323}], "Milna": [{"Name": "Milna", "Country Code": "HR", "Population": 775.0, "Lat": 43.32667, "Lon": 16.45083}], "Milnathort": [{"Name": "Milnathort", "Country Code": "GB", "Population": 1910.0, "Lat": 56.22688, "Lon": -3.4193}], "Milngavie": [{"Name": "Milngavie", "Country Code": "GB", "Population": 13110.0, "Lat": 55.94071, "Lon": -4.32311}], "Milnrow": [{"Name": "Milnrow", "Country Code": "GB", "Population": 13061.0, "Lat": 53.61115, "Lon": -2.11266}], "Milnthorpe": [{"Name": "Milnthorpe", "Country Code": "GB", "Population": 2199.0, "Lat": 54.22785, "Lon": -2.76939}], "Milo": [{"Name": "Milo", "Country Code": "IT", "Population": 619.0, "Lat": 37.7245, "Lon": 15.11554}, {"Name": "Milo", "Country Code": "US", "Population": 1847.0, "Lat": 45.25366, "Lon": -68.98587}], "Milomlyn": [{"Name": "Mi\u0142om\u0142yn", "Country Code": "PL", "Population": 2336.0, "Lat": 53.76449, "Lon": 19.838}], "Miloradz": [{"Name": "Mi\u0142oradz", "Country Code": "PL", "Population": 1114.0, "Lat": 54.01392, "Lon": 18.91846}], "Milos": [{"Name": "M\u00edlos", "Country Code": "GR", "Population": 819.0, "Lat": 36.74536, "Lon": 24.4265}], "Milosesti": [{"Name": "Milo\u015fe\u015fti", "Country Code": "RO", "Population": 3056.0, "Lat": 44.73333, "Lon": 27.23333}], "Miloslavskoye": [{"Name": "Miloslavskoye", "Country Code": "RU", "Population": 4693.0, "Lat": 53.58121, "Lon": 39.4476}], "Miloslaw": [{"Name": "Mi\u0142os\u0142aw", "Country Code": "PL", "Population": 3560.0, "Lat": 52.20318, "Lon": 17.48955}], "Milot": [{"Name": "Milot", "Country Code": "AL", "Population": 2157.0, "Lat": 41.68389, "Lon": 19.71556}, {"Name": "Milot", "Country Code": "HT", "Population": 5534.0, "Lat": 19.60837, "Lon": -72.21319}], "Milotice": [{"Name": "Milotice", "Country Code": "CZ", "Population": 1941.0, "Lat": 48.95528, "Lon": 17.14241}], "Milove": [{"Name": "Milove", "Country Code": "UA", "Population": 5418.0, "Lat": 49.37361, "Lon": 40.14641}], "Milovice": [{"Name": "Milovice", "Country Code": "CZ", "Population": 5461.0, "Lat": 50.22596, "Lon": 14.88863}], "Milowka": [{"Name": "Mil\u00f3wka", "Country Code": "PL", "Population": 4448.0, "Lat": 49.5554, "Lon": 19.09072}], "Milpa Alta": [{"Name": "Milpa Alta", "Country Code": "MX", "Population": 18274.0, "Lat": 19.19251, "Lon": -99.02317}], "Milpas Viejas": [{"Name": "Milpas Viejas", "Country Code": "MX", "Population": 1712.0, "Lat": 22.36478, "Lon": -105.47549}], "Milperra": [{"Name": "Milperra", "Country Code": "AU", "Population": 3961.0, "Lat": -33.93934, "Lon": 150.98148}], "Milpillas": [{"Name": "Milpillas", "Country Code": "MX", "Population": 1826.0, "Lat": 20.50111, "Lon": -102.53418}, {"Name": "Milpillas", "Country Code": "MX", "Population": 1025.0, "Lat": 27.20534, "Lon": -108.64493}], "Milpitas": [{"Name": "Milpitas", "Country Code": "US", "Population": 77604.0, "Lat": 37.42827, "Lon": -121.90662}], "Milpuc": [{"Name": "Milpuc", "Country Code": "PE", "Population": 386.0, "Lat": -6.49361, "Lon": -77.435}], "Milroy": [{"Name": "Milroy", "Country Code": "US", "Population": 1498.0, "Lat": 40.71396, "Lon": -77.59055}], "Mils bei Imst": [{"Name": "Mils bei Imst", "Country Code": "AT", "Population": 559.0, "Lat": 47.20616, "Lon": 10.67485}], "Mils bei Solbad Hall": [{"Name": "Mils bei Solbad Hall", "Country Code": "AT", "Population": 4377.0, "Lat": 47.28333, "Lon": 11.53333}], "Milsbeek": [{"Name": "Milsbeek", "Country Code": "NL", "Population": 2055.0, "Lat": 51.725, "Lon": 5.94861}], "Milson": [{"Name": "Milson", "Country Code": "NZ", "Population": 6246.0, "Lat": -40.32825, "Lon": 175.61021}], "Milsons Point": [{"Name": "Milsons Point", "Country Code": "AU", "Population": 2170.0, "Lat": -33.846, "Lon": 151.21192}], "Milston": [{"Name": "Milston", "Country Code": "GB", "Population": 0.0, "Lat": 51.20621, "Lon": -1.76901}], "Miltach": [{"Name": "Miltach", "Country Code": "DE", "Population": 2359.0, "Lat": 49.16196, "Lon": 12.76843}], "Miltenberg": [{"Name": "Miltenberg", "Country Code": "DE", "Population": 9613.0, "Lat": 49.70452, "Lon": 9.26725}], "Milton": [{"Name": "Milton", "Country Code": "AU", "Population": 1616.0, "Lat": -35.31644, "Lon": 150.4361}, {"Name": "Milton", "Country Code": "AU", "Population": 2300.0, "Lat": -27.47039, "Lon": 153.00312}, {"Name": "Milton", "Country Code": "CA", "Population": 132979.0, "Lat": 43.51681, "Lon": -79.88294}, {"Name": "Milton", "Country Code": "NZ", "Population": 2009.0, "Lat": -46.12083, "Lon": 169.96944}, {"Name": "Milton", "Country Code": "US", "Population": 3087.0, "Lat": 43.03369, "Lon": -73.85262}, {"Name": "Milton", "Country Code": "US", "Population": 3030.0, "Lat": 30.10381, "Lon": -92.07651}, {"Name": "Milton", "Country Code": "US", "Population": 8697.0, "Lat": 47.24816, "Lon": -122.3129}, {"Name": "Milton", "Country Code": "US", "Population": 1403.0, "Lat": 41.65982, "Lon": -73.95708}, {"Name": "Milton", "Country Code": "US", "Population": 2824.0, "Lat": 38.77761, "Lon": -75.30991}, {"Name": "Milton", "Country Code": "US", "Population": 27003.0, "Lat": 42.24954, "Lon": -71.06616}, {"Name": "Milton", "Country Code": "US", "Population": 37547.0, "Lat": 34.13216, "Lon": -84.30067}, {"Name": "Milton", "Country Code": "US", "Population": 9628.0, "Lat": 30.63241, "Lon": -87.03969}, {"Name": "Milton", "Country Code": "US", "Population": 1861.0, "Lat": 44.63977, "Lon": -73.11041}, {"Name": "Milton", "Country Code": "US", "Population": 5593.0, "Lat": 42.77556, "Lon": -88.944}, {"Name": "Milton", "Country Code": "US", "Population": 2637.0, "Lat": 38.43453, "Lon": -82.13236}, {"Name": "Milton", "Country Code": "US", "Population": 6928.0, "Lat": 41.01203, "Lon": -76.84774}], "Milton Bryan": [{"Name": "Milton Bryan", "Country Code": "GB", "Population": 0.0, "Lat": 51.95, "Lon": -0.58333}], "Milton Keynes": [{"Name": "Milton Keynes", "Country Code": "GB", "Population": 256385.0, "Lat": 52.04172, "Lon": -0.75583}], "Milton of Campsie": [{"Name": "Milton of Campsie", "Country Code": "GB", "Population": 3950.0, "Lat": 55.9612, "Lon": -4.16508}], "Milton of Leys": [{"Name": "Milton of Leys", "Country Code": "GB", "Population": 1740.0, "Lat": 57.45125, "Lon": -4.17592}], "Milton-Freewater": [{"Name": "Milton-Freewater", "Country Code": "US", "Population": 7035.0, "Lat": 45.93263, "Lon": -118.38774}], "Miluo Chengguanzhen": [{"Name": "Miluo Chengguanzhen", "Country Code": "CN", "Population": 0.0, "Lat": 28.8107, "Lon": 113.06616}], "Milverton": [{"Name": "Milverton", "Country Code": "GB", "Population": 1112.0, "Lat": 51.02333, "Lon": -3.25222}], "Milwaukee": [{"Name": "Milwaukee", "Country Code": "US", "Population": 600155.0, "Lat": 43.0389, "Lon": -87.90647}], "Milwaukie": [{"Name": "Milwaukie", "Country Code": "US", "Population": 20830.0, "Lat": 45.44623, "Lon": -122.63926}], "Milyutinskaya": [{"Name": "Milyutinskaya", "Country Code": "RU", "Population": 2743.0, "Lat": 48.62788, "Lon": 41.66788}], "Milz": [{"Name": "Milz", "Country Code": "DE", "Population": 1091.0, "Lat": 50.3776, "Lon": 10.53757}], "Milzano": [{"Name": "Milzano", "Country Code": "IT", "Population": 1748.0, "Lat": 45.27358, "Lon": 10.19927}], "Mim": [{"Name": "Mim", "Country Code": "GH", "Population": 36211.0, "Lat": 6.90412, "Lon": -2.56114}], "Mima": [{"Name": "Mima", "Country Code": "JP", "Population": 0.0, "Lat": 34.05493, "Lon": 134.13963}], "Mimarsinan": [{"Name": "Mimarsinan", "Country Code": "TR", "Population": 31002.0, "Lat": 41.0179, "Lon": 28.56176}], "Mimasaka": [{"Name": "Mimasaka", "Country Code": "JP", "Population": 0.0, "Lat": 35.04138, "Lon": 134.22443}], "Mimbaste": [{"Name": "Mimbaste", "Country Code": "FR", "Population": 1089.0, "Lat": 43.64887, "Lon": -0.97383}], "Mimet": [{"Name": "Mimet", "Country Code": "FR", "Population": 4505.0, "Lat": 43.41427, "Lon": 5.50579}], "Mimia": [{"Name": "Mimia", "Country Code": "CI", "Population": 2460.0, "Lat": 6.65042, "Lon": -6.51316}], "Mimico": [{"Name": "Mimico", "Country Code": "CA", "Population": 33964.0, "Lat": 43.61616, "Lon": -79.51269}], "Mimizan": [{"Name": "Mimizan", "Country Code": "FR", "Population": 6565.0, "Lat": 44.20135, "Lon": -1.22873}], "Mimon": [{"Name": "Mimo\u0148", "Country Code": "CZ", "Population": 6692.0, "Lat": 50.65869, "Lon": 14.72474}], "Mimongo": [{"Name": "Mimongo", "Country Code": "GA", "Population": 3307.0, "Lat": -1.61952, "Lon": 11.60675}], "Mimosa-Poggio Verde-Nuova Comunita": [{"Name": "Mimosa-Poggio Verde-Nuova Comunit\u00e0", "Country Code": "IT", "Population": 1268.0, "Lat": 41.53871, "Lon": 14.66879}], "Mimoso do Sul": [{"Name": "Mimoso do Sul", "Country Code": "BR", "Population": 14044.0, "Lat": -21.06417, "Lon": -41.36639}], "Mims": [{"Name": "Mims", "Country Code": "US", "Population": 7058.0, "Lat": 28.66527, "Lon": -80.84478}], "Min Buri": [{"Name": "Min Buri", "Country Code": "TH", "Population": 0.0, "Lat": 13.81407, "Lon": 100.73135}], "Min'an": [{"Name": "Min\u2019an", "Country Code": "CN", "Population": 0.0, "Lat": 29.4595, "Lon": 109.437}], "Min'ancun": [{"Name": "Min\u2019ancun", "Country Code": "CN", "Population": 5000.0, "Lat": 26.05022, "Lon": 119.50002}], "Mina": [{"Name": "Mina", "Country Code": "MX", "Population": 4495.0, "Lat": 26.0011, "Lon": -100.52988}, {"Name": "Mina", "Country Code": "PH", "Population": 2665.0, "Lat": 10.9313, "Lon": 122.5745}], "Mina Clavero": [{"Name": "Mina Clavero", "Country Code": "AR", "Population": 6855.0, "Lat": -31.72945, "Lon": -65.00501}], "Mina Mexico": [{"Name": "Mina M\u00e9xico", "Country Code": "MX", "Population": 3479.0, "Lat": 19.41014, "Lon": -99.72771}], "Mina Vieja": [{"Name": "Mina Vieja", "Country Code": "MX", "Population": 1771.0, "Lat": 19.5525, "Lon": -99.94389}], "Minab": [{"Name": "M\u012bn\u0101b", "Country Code": "IR", "Population": 70790.0, "Lat": 27.13104, "Lon": 57.08716}], "Minabe": [{"Name": "Minabe", "Country Code": "JP", "Population": 12561.0, "Lat": 33.76857, "Lon": 135.31845}], "Minabo": [{"Name": "Minabo", "Country Code": "CI", "Population": 1441.0, "Lat": 7.97247, "Lon": -5.45366}], "Minacu": [{"Name": "Mina\u00e7u", "Country Code": "BR", "Population": 31041.0, "Lat": -13.53306, "Lon": -48.22}], "Minador do Negrao": [{"Name": "Minador do Negr\u00e3o", "Country Code": "BR", "Population": 1986.0, "Lat": -9.30528, "Lon": -36.86472}], "Minakuchicho-matoba": [{"Name": "Minakuchich\u014d-matoba", "Country Code": "JP", "Population": 38986.0, "Lat": 34.96667, "Lon": 136.16667}], "Minalabac": [{"Name": "Minalabac", "Country Code": "PH", "Population": 4724.0, "Lat": 13.5687, "Lon": 123.1838}], "Minalin": [{"Name": "Minalin", "Country Code": "PH", "Population": 13527.0, "Lat": 14.9676, "Lon": 120.6828}], "Minallo": [{"Name": "Minallo", "Country Code": "PH", "Population": 2490.0, "Lat": 16.98685, "Lon": 121.85394}], "Minamata": [{"Name": "Minamata", "Country Code": "JP", "Population": 29428.0, "Lat": 32.21667, "Lon": 130.4}], "Minami-Alps": [{"Name": "Minami-Alps", "Country Code": "JP", "Population": 71618.0, "Lat": 35.616, "Lon": 138.46344}], "Minami-Soma": [{"Name": "Minami-S\u014dma", "Country Code": "JP", "Population": 59005.0, "Lat": 37.62908, "Lon": 140.97868}], "Minamiashigara": [{"Name": "Minamiashigara", "Country Code": "JP", "Population": 0.0, "Lat": 35.31947, "Lon": 139.1096}], "Minamiawaji": [{"Name": "Minamiawaji", "Country Code": "JP", "Population": 45489.0, "Lat": 34.27396, "Lon": 134.77512}], "Minamiboso": [{"Name": "Minamib\u014ds\u014d", "Country Code": "JP", "Population": 0.0, "Lat": 35.03126, "Lon": 139.92651}], "Minamiise": [{"Name": "Minamiise", "Country Code": "JP", "Population": 0.0, "Lat": 34.34967, "Lon": 136.69945}], "Minamikyushu": [{"Name": "Minamikyushu", "Country Code": "JP", "Population": 0.0, "Lat": 31.34689, "Lon": 130.45612}], "Minamirinkan": [{"Name": "Minamirinkan", "Country Code": "JP", "Population": 224015.0, "Lat": 35.49527, "Lon": 139.44279}], "Minamisatsuma": [{"Name": "Minamisatsuma", "Country Code": "JP", "Population": 0.0, "Lat": 31.38999, "Lon": 130.28343}], "Minamishibetsucho": [{"Name": "Minamishibetsuch\u014d", "Country Code": "JP", "Population": 19794.0, "Lat": 44.15399, "Lon": 142.37307}], "Minamishimabara": [{"Name": "Minamishimabara", "Country Code": "JP", "Population": 0.0, "Lat": 32.67334, "Lon": 130.26747}], "Minamiuonuma": [{"Name": "Minamiuonuma", "Country Code": "JP", "Population": 55354.0, "Lat": 37.08259, "Lon": 138.87413}], "Minanga Norte": [{"Name": "Minanga Norte", "Country Code": "PH", "Population": 2191.0, "Lat": 17.45233, "Lon": 121.78533}, {"Name": "Minanga Norte", "Country Code": "PH", "Population": 2111.0, "Lat": 17.7604, "Lon": 121.72944}], "Minano": [{"Name": "Minano", "Country Code": "JP", "Population": 9497.0, "Lat": 36.07356, "Lon": 139.09994}], "Minante Segundo": [{"Name": "Minante Segundo", "Country Code": "PH", "Population": 6697.0, "Lat": 16.9022, "Lon": 121.76191}], "Minapan": [{"Name": "Minapan", "Country Code": "PH", "Population": 3055.0, "Lat": 6.815, "Lon": 124.85861}], "Minapasoc": [{"Name": "Minapasoc", "Country Code": "PH", "Population": 6885.0, "Lat": 10.69885, "Lon": 123.349}], "Minare": [{"Name": "Minare", "Country Code": "TR", "Population": 1240.0, "Lat": 36.93083, "Lon": 39.00444}], "Minas": [{"Name": "Minas", "Country Code": "CU", "Population": 20863.0, "Lat": 21.48802, "Lon": -77.61033}, {"Name": "Minas", "Country Code": "UY", "Population": 38025.0, "Lat": -34.37589, "Lon": -55.23771}], "Minas Novas": [{"Name": "Minas Novas", "Country Code": "BR", "Population": 7365.0, "Lat": -17.21861, "Lon": -42.59028}], "Minas de Barroteran": [{"Name": "Minas de Barroter\u00e1n", "Country Code": "MX", "Population": 7842.0, "Lat": 27.65407, "Lon": -101.28369}], "Minas de Corrales": [{"Name": "Minas de Corrales", "Country Code": "UY", "Population": 3788.0, "Lat": -31.57375, "Lon": -55.47075}], "Minas de Marcona": [{"Name": "Minas de Marcona", "Country Code": "PE", "Population": 15478.0, "Lat": -15.21194, "Lon": -75.11028}], "Minas de Matahambre": [{"Name": "Minas de Matahambre", "Country Code": "CU", "Population": 34419.0, "Lat": 22.58691, "Lon": -83.94551}], "Minas de Oro": [{"Name": "Minas de Oro", "Country Code": "HN", "Population": 3554.0, "Lat": 14.79611, "Lon": -87.34654}], "Minas de Sao Domingos": [{"Name": "Minas de S\u00e3o Domingos", "Country Code": "PT", "Population": 2500.0, "Lat": 37.67322, "Lon": -7.49765}], "Minatitlan": [{"Name": "Minatitl\u00e1n", "Country Code": "MX", "Population": 4691.0, "Lat": 19.36667, "Lon": -104.06667}, {"Name": "Minatitl\u00e1n", "Country Code": "MX", "Population": 112046.0, "Lat": 18.00011, "Lon": -94.5569}, {"Name": "Minatitl\u00e1n", "Country Code": "MX", "Population": 4588.0, "Lat": 19.38757, "Lon": -104.04986}], "Minato": [{"Name": "Minato", "Country Code": "JP", "Population": 375339.0, "Lat": 34.2152, "Lon": 135.1501}], "Minaya": [{"Name": "Minaya", "Country Code": "ES", "Population": 1701.0, "Lat": 39.27052, "Lon": -2.32176}], "Minbu": [{"Name": "Minbu", "Country Code": "MM", "Population": 57342.0, "Lat": 20.18059, "Lon": 94.87595}], "Minchianabad": [{"Name": "Minchianabad", "Country Code": "PK", "Population": 29253.0, "Lat": 30.16356, "Lon": 73.56858}], "Minchinbury": [{"Name": "Minchinbury", "Country Code": "AU", "Population": 5627.0, "Lat": -33.78724, "Lon": 150.82956}], "Minchinhampton": [{"Name": "Minchinhampton", "Country Code": "GB", "Population": 2500.0, "Lat": 51.70675, "Lon": -2.18502}], "Mincivan": [{"Name": "Mincivan", "Country Code": "AZ", "Population": 6353.0, "Lat": 39.03023, "Lon": 46.72329}], "Minco": [{"Name": "Minco", "Country Code": "US", "Population": 1656.0, "Lat": 35.31284, "Lon": -97.94449}], "Mindarie": [{"Name": "Mindarie", "Country Code": "AU", "Population": 7326.0, "Lat": -31.68932, "Lon": 115.70698}], "Minde": [{"Name": "Minde", "Country Code": "PT", "Population": 3293.0, "Lat": 39.51631, "Lon": -8.68799}], "Mindelheim": [{"Name": "Mindelheim", "Country Code": "DE", "Population": 14122.0, "Lat": 48.04578, "Lon": 10.49222}], "Mindelo": [{"Name": "Mindelo", "Country Code": "CV", "Population": 69013.0, "Lat": 16.89014, "Lon": -24.98042}, {"Name": "Mindelo", "Country Code": "PT", "Population": 3491.0, "Lat": 41.31527, "Lon": -8.72124}], "Minden": [{"Name": "Minden", "Country Code": "AU", "Population": 1212.0, "Lat": -27.55965, "Lon": 152.54493}, {"Name": "Minden", "Country Code": "DE", "Population": 82879.0, "Lat": 52.28953, "Lon": 8.91455}, {"Name": "Minden", "Country Code": "US", "Population": 12690.0, "Lat": 32.61543, "Lon": -93.28684}, {"Name": "Minden", "Country Code": "US", "Population": 3006.0, "Lat": 40.49863, "Lon": -98.94786}, {"Name": "Minden", "Country Code": "US", "Population": 3001.0, "Lat": 38.95407, "Lon": -119.76573}], "Minderhout": [{"Name": "Minderhout", "Country Code": "BE", "Population": 4264.0, "Lat": 51.41709, "Lon": 4.76292}], "Mindif": [{"Name": "Mindif", "Country Code": "CM", "Population": 10538.0, "Lat": 10.39757, "Lon": 14.43626}], "Mindiloglion": [{"Name": "Mindil\u00f3glion", "Country Code": "GR", "Population": 2120.0, "Lat": 38.18387, "Lon": 21.70133}], "Mindiptana": [{"Name": "Mindiptana", "Country Code": "ID", "Population": 0.0, "Lat": -5.86386, "Lon": 140.69253}], "Mindouli": [{"Name": "Mindouli", "Country Code": "CG", "Population": 20985.0, "Lat": 3.10278, "Lon": 18.51111}], "Mindresti": [{"Name": "M\u00eendre\u015fti", "Country Code": "MD", "Population": 9280.0, "Lat": 47.50525, "Lon": 28.27687}], "Mindszent": [{"Name": "Mindszent", "Country Code": "HU", "Population": 7243.0, "Lat": 46.52362, "Lon": 20.19038}], "Mindupok": [{"Name": "Mindupok", "Country Code": "PH", "Population": 3437.0, "Lat": 6.09056, "Lon": 124.42333}], "Mindyak": [{"Name": "Mindyak", "Country Code": "RU", "Population": 2955.0, "Lat": 54.0231, "Lon": 58.7891}], "Mine": [{"Name": "Mine", "Country Code": "JP", "Population": 0.0, "Lat": 34.18681, "Lon": 131.21624}], "Minehead": [{"Name": "Minehead", "Country Code": "GB", "Population": 11981.0, "Lat": 51.20452, "Lon": -3.48284}], "Mineiros": [{"Name": "Mineiros", "Country Code": "BR", "Population": 38951.0, "Lat": -17.56944, "Lon": -52.55111}], "Mineo": [{"Name": "Mineo", "Country Code": "IT", "Population": 4567.0, "Lat": 37.26494, "Lon": 14.69381}], "Mineola": [{"Name": "Mineola", "Country Code": "US", "Population": 19139.0, "Lat": 40.74927, "Lon": -73.64068}, {"Name": "Mineola", "Country Code": "US", "Population": 4625.0, "Lat": 32.66319, "Lon": -95.48829}], "Mineral Point": [{"Name": "Mineral Point", "Country Code": "US", "Population": 2494.0, "Lat": 42.86, "Lon": -90.17985}], "Mineral Ridge": [{"Name": "Mineral Ridge", "Country Code": "US", "Population": 3892.0, "Lat": 41.14006, "Lon": -80.76897}], "Mineral Springs": [{"Name": "Mineral Springs", "Country Code": "US", "Population": 2908.0, "Lat": 34.93793, "Lon": -80.66868}, {"Name": "Mineral Springs", "Country Code": "US", "Population": 1161.0, "Lat": 33.87512, "Lon": -93.9138}], "Mineral Wells": [{"Name": "Mineral Wells", "Country Code": "US", "Population": 1950.0, "Lat": 39.178, "Lon": -81.51207}, {"Name": "Mineral Wells", "Country Code": "US", "Population": 14754.0, "Lat": 32.80846, "Lon": -98.11282}], "Mineral de Angangueo": [{"Name": "Mineral de Angangueo", "Country Code": "MX", "Population": 4601.0, "Lat": 19.62056, "Lon": -100.28436}], "Mineral de la Luz": [{"Name": "Mineral de la Luz", "Country Code": "MX", "Population": 1040.0, "Lat": 21.06456, "Lon": -101.33806}], "Mineral del Monte": [{"Name": "Mineral del Monte", "Country Code": "MX", "Population": 11015.0, "Lat": 20.1383, "Lon": -98.67364}], "Mineralni Bani": [{"Name": "Mineralni Bani", "Country Code": "BG", "Population": 1367.0, "Lat": 41.91667, "Lon": 25.35}], "Mineralnye Vody": [{"Name": "Mineralnye Vody", "Country Code": "RU", "Population": 76280.0, "Lat": 44.21028, "Lon": 43.13528}], "Minerbe": [{"Name": "Minerbe", "Country Code": "IT", "Population": 4112.0, "Lat": 45.23198, "Lon": 11.35249}], "Minerbio": [{"Name": "Minerbio", "Country Code": "IT", "Population": 4903.0, "Lat": 44.61811, "Lon": 11.47257}], "Mineri": [{"Name": "Mineri", "Country Code": "RO", "Population": 1512.0, "Lat": 45.16472, "Lon": 28.71573}], "Mineros": [{"Name": "Mineros", "Country Code": "BO", "Population": 14385.0, "Lat": -17.11918, "Lon": -63.23226}], "Miners Rest": [{"Name": "Miners Rest", "Country Code": "AU", "Population": 3042.0, "Lat": -37.4808, "Lon": 143.80107}], "Minersville": [{"Name": "Minersville", "Country Code": "US", "Population": 4258.0, "Lat": 40.69065, "Lon": -76.26217}], "Minerva": [{"Name": "Minerva", "Country Code": "US", "Population": 3678.0, "Lat": 40.72978, "Lon": -81.10538}], "Minerva Park": [{"Name": "Minerva Park", "Country Code": "US", "Population": 1318.0, "Lat": 40.07645, "Lon": -82.94379}], "Minervino Murge": [{"Name": "Minervino Murge", "Country Code": "IT", "Population": 9242.0, "Lat": 41.08264, "Lon": 16.07861}], "Minervino di Lecce": [{"Name": "Minervino di Lecce", "Country Code": "IT", "Population": 2268.0, "Lat": 40.09025, "Lon": 18.42139}], "Minetto": [{"Name": "Minetto", "Country Code": "US", "Population": 1069.0, "Lat": 43.39812, "Lon": -76.47744}], "Minety": [{"Name": "Minety", "Country Code": "GB", "Population": 854.0, "Lat": 51.61667, "Lon": -1.95}], "Mineville": [{"Name": "Mineville", "Country Code": "US", "Population": 1269.0, "Lat": 44.09283, "Lon": -73.51818}], "Minfeld": [{"Name": "Minfeld", "Country Code": "DE", "Population": 1637.0, "Lat": 49.07167, "Lon": 8.14528}], "Minfla": [{"Name": "Minfla", "Country Code": "CI", "Population": 5602.0, "Lat": 7.52299, "Lon": -6.04404}], "Ming Wah Dai Ha": [{"Name": "Ming Wah Dai Ha", "Country Code": "HK", "Population": 5299.0, "Lat": 22.27778, "Lon": 114.23108}], "Ming'antu": [{"Name": "Ming\u2019antu", "Country Code": "CN", "Population": 0.0, "Lat": 42.30278, "Lon": 114.99333}], "Minga Pora": [{"Name": "Minga Por\u00e1", "Country Code": "PY", "Population": 1770.0, "Lat": -24.87544, "Lon": -54.93395}], "Mingajik": [{"Name": "Mingajik", "Country Code": "AF", "Population": 0.0, "Lat": 37.0279, "Lon": 66.12817}], "Mingcun": [{"Name": "Mingcun", "Country Code": "CN", "Population": 53926.0, "Lat": 36.75361, "Lon": 119.64083}], "Mingda": [{"Name": "Mingda", "Country Code": "CN", "Population": 22686.0, "Lat": 30.7263, "Lon": 107.65726}], "Mingelchaur": [{"Name": "Mingelchaur", "Country Code": "AZ", "Population": 106048.0, "Lat": 40.76395, "Lon": 47.05953}], "Mingfeng": [{"Name": "Mingfeng", "Country Code": "CN", "Population": 0.0, "Lat": 31.06167, "Lon": 111.64278}], "Minggang": [{"Name": "Minggang", "Country Code": "CN", "Population": 67945.0, "Lat": 32.45861, "Lon": 114.04861}], "Mingguang": [{"Name": "Mingguang", "Country Code": "CN", "Population": 40221.0, "Lat": 25.49314, "Lon": 98.54153}, {"Name": "Mingguang", "Country Code": "CN", "Population": 68351.0, "Lat": 32.78017, "Lon": 117.96378}], "Minglanilla": [{"Name": "Minglanilla", "Country Code": "ES", "Population": 2300.0, "Lat": 39.53333, "Lon": -1.6}, {"Name": "Minglanilla", "Country Code": "PH", "Population": 62058.0, "Lat": 10.24498, "Lon": 123.7964}], "Mingo Junction": [{"Name": "Mingo Junction", "Country Code": "US", "Population": 3324.0, "Lat": 40.32174, "Lon": -80.6098}], "Mingora": [{"Name": "Mingora", "Country Code": "PK", "Population": 279914.0, "Lat": 34.7795, "Lon": 72.36265}], "Mingorria": [{"Name": "Mingorr\u00eda", "Country Code": "ES", "Population": 465.0, "Lat": 40.75192, "Lon": -4.66583}], "Mingoyo": [{"Name": "Mingoyo", "Country Code": "TZ", "Population": 10480.0, "Lat": -10.10526, "Lon": 39.61859}], "Mingshan": [{"Name": "Mingshan", "Country Code": "CN", "Population": 39897.0, "Lat": 29.87832, "Lon": 107.69921}], "Mingshui": [{"Name": "Mingshui", "Country Code": "CN", "Population": 59369.0, "Lat": 47.17944, "Lon": 125.90284}, {"Name": "Mingshui", "Country Code": "CN", "Population": 114858.0, "Lat": 36.71667, "Lon": 117.5}], "Mingtong": [{"Name": "Mingtong", "Country Code": "CN", "Population": 6437.0, "Lat": 31.77319, "Lon": 108.54104}], "Mingxi": [{"Name": "Mingxi", "Country Code": "CN", "Population": 0.0, "Lat": 26.35885, "Lon": 117.19694}], "Mingxing": [{"Name": "Mingxing", "Country Code": "CN", "Population": 0.0, "Lat": 37.42639, "Lon": 112.54417}], "Mingyu": [{"Name": "Mingyu", "Country Code": "CN", "Population": 11934.0, "Lat": 29.3069, "Lon": 107.11792}], "Mingzhong": [{"Name": "Mingzhong", "Country Code": "CN", "Population": 4173.0, "Lat": 31.73313, "Lon": 108.81515}], "Mingzhou": [{"Name": "Mingzhou", "Country Code": "CN", "Population": 0.0, "Lat": 36.9761, "Lon": 115.25663}], "Minh Long": [{"Name": "Minh Long", "Country Code": "VN", "Population": 0.0, "Lat": 14.93218, "Lon": 108.70328}], "Minh Luong": [{"Name": "Minh L\u01b0\u01a1ng", "Country Code": "VN", "Population": 0.0, "Lat": 9.90248, "Lon": 105.1595}], "Miniac-Morvan": [{"Name": "Miniac-Morvan", "Country Code": "FR", "Population": 3045.0, "Lat": 48.51425, "Lon": -1.89976}], "Minicoy": [{"Name": "Minicoy", "Country Code": "IN", "Population": 10447.0, "Lat": 8.28899, "Lon": 73.0617}], "Minien East": [{"Name": "Minien East", "Country Code": "PH", "Population": 6111.0, "Lat": 15.97723, "Lon": 120.48127}], "Minier": [{"Name": "Minier", "Country Code": "US", "Population": 1224.0, "Lat": 40.43365, "Lon": -89.31315}], "Minieri": [{"Name": "Minieri", "Country Code": "RO", "Population": 1470.0, "Lat": 44.98372, "Lon": 25.76083}], "Minignan": [{"Name": "Minignan", "Country Code": "CI", "Population": 8855.0, "Lat": 9.99744, "Lon": -7.83593}], "Minihy-Treguier": [{"Name": "Minihy-Tr\u00e9guier", "Country Code": "FR", "Population": 1128.0, "Lat": 48.77543, "Lon": -3.22877}], "Minj": [{"Name": "Minj", "Country Code": "PG", "Population": 0.0, "Lat": -5.90752, "Lon": 144.69159}], "Minjian": [{"Name": "Minjian", "Country Code": "CN", "Population": 0.0, "Lat": 28.84622, "Lon": 103.54575}], "Minjibir": [{"Name": "Minjibir", "Country Code": "NG", "Population": 0.0, "Lat": 12.17765, "Lon": 8.65782}], "Minjur": [{"Name": "M\u012bnj\u016br", "Country Code": "IN", "Population": 24674.0, "Lat": 13.27951, "Lon": 80.25815}], "Minkler": [{"Name": "Minkler", "Country Code": "US", "Population": 1003.0, "Lat": 36.72384, "Lon": -119.45818}], "Minlagas": [{"Name": "Minlagas", "Country Code": "PH", "Population": 4235.0, "Lat": 8.87833, "Lon": 125.03889}], "Minlaton": [{"Name": "Minlaton", "Country Code": "AU", "Population": 1060.0, "Lat": -34.77101, "Lon": 137.59576}], "Minna": [{"Name": "Minna", "Country Code": "NG", "Population": 425000.0, "Lat": 9.61524, "Lon": 6.54776}], "Minneapolis": [{"Name": "Minneapolis", "Country Code": "US", "Population": 410939.0, "Lat": 44.97997, "Lon": -93.26384}, {"Name": "Minneapolis", "Country Code": "US", "Population": 2002.0, "Lat": 39.12194, "Lon": -97.7067}], "Minnedosa": [{"Name": "Minnedosa", "Country Code": "CA", "Population": 2449.0, "Lat": 50.24532, "Lon": -99.84364}], "Minnehaha": [{"Name": "Minnehaha", "Country Code": "US", "Population": 9771.0, "Lat": 45.65901, "Lon": -122.6271}], "Minneola": [{"Name": "Minneola", "Country Code": "US", "Population": 10735.0, "Lat": 28.57444, "Lon": -81.74619}], "Minneota": [{"Name": "Minneota", "Country Code": "US", "Population": 1363.0, "Lat": 44.55885, "Lon": -95.98559}], "Minnertsga": [{"Name": "Minnertsga", "Country Code": "NL", "Population": 1625.0, "Lat": 53.25104, "Lon": 5.59513}], "Minnetonka": [{"Name": "Minnetonka", "Country Code": "US", "Population": 51669.0, "Lat": 44.9133, "Lon": -93.50329}], "Minnetonka Mills": [{"Name": "Minnetonka Mills", "Country Code": "US", "Population": 50117.0, "Lat": 44.94107, "Lon": -93.4419}], "Minnetrista": [{"Name": "Minnetrista", "Country Code": "US", "Population": 7178.0, "Lat": 44.9383, "Lon": -93.71774}], "Minnewaukan": [{"Name": "Minnewaukan", "Country Code": "US", "Population": 224.0, "Lat": 48.07139, "Lon": -99.25236}], "Minning": [{"Name": "Minning", "Country Code": "CN", "Population": 24696.0, "Lat": 38.2487, "Lon": 105.97068}], "Mino": [{"Name": "Mi\u00f1o", "Country Code": "ES", "Population": 5092.0, "Lat": 43.35, "Lon": -8.2}, {"Name": "Mino", "Country Code": "JP", "Population": 129127.0, "Lat": 34.82691, "Lon": 135.47057}, {"Name": "Mino", "Country Code": "JP", "Population": 20749.0, "Lat": 35.53333, "Lon": 136.91667}], "Mino de San Esteban": [{"Name": "Mi\u00f1o de San Esteban", "Country Code": "ES", "Population": 76.0, "Lat": 41.53584, "Lon": -3.34579}], "Minoa": [{"Name": "Minoa", "Country Code": "US", "Population": 3523.0, "Lat": 43.07618, "Lon": -76.00075}], "Minokamo": [{"Name": "Minokamo", "Country Code": "JP", "Population": 56972.0, "Lat": 35.48199, "Lon": 137.02166}], "Minolos": [{"Name": "Minolos", "Country Code": "PH", "Population": 2355.0, "Lat": 10.1019, "Lon": 123.4727}], "Minonk": [{"Name": "Minonk", "Country Code": "US", "Population": 2053.0, "Lat": 40.90448, "Lon": -89.03452}], "Minooka": [{"Name": "Minooka", "Country Code": "US", "Population": 11243.0, "Lat": 41.45531, "Lon": -88.26173}], "Minor": [{"Name": "Minor", "Country Code": "US", "Population": 1094.0, "Lat": 33.53733, "Lon": -86.94055}], "Minorca": [{"Name": "Minorca", "Country Code": "US", "Population": 2317.0, "Lat": 31.57933, "Lon": -91.48179}], "Minori": [{"Name": "Minori", "Country Code": "IT", "Population": 2822.0, "Lat": 40.6503, "Lon": 14.62684}], "Minot": [{"Name": "Minot", "Country Code": "US", "Population": 2337.0, "Lat": 44.08563, "Lon": -70.32006}, {"Name": "Minot", "Country Code": "US", "Population": 49450.0, "Lat": 48.23251, "Lon": -101.29627}], "Minot Air Force Base": [{"Name": "Minot Air Force Base", "Country Code": "US", "Population": 5521.0, "Lat": 48.42087, "Lon": -101.33914}], "Minqing": [{"Name": "Minqing", "Country Code": "CN", "Population": 0.0, "Lat": 26.22482, "Lon": 118.85968}], "Minquan Chengguanzhen": [{"Name": "Minquan Chengguanzhen", "Country Code": "CN", "Population": 0.0, "Lat": 34.66449, "Lon": 115.13299}], "Minsk": [{"Name": "Minsk", "Country Code": "BY", "Population": 1742124.0, "Lat": 53.9, "Lon": 27.56667}], "Minsk Mazowiecki": [{"Name": "Mi\u0144sk Mazowiecki", "Country Code": "PL", "Population": 37027.0, "Lat": 52.17935, "Lon": 21.57251}], "Minster": [{"Name": "Minster", "Country Code": "US", "Population": 2845.0, "Lat": 40.3931, "Lon": -84.37606}], "Minster Lovell": [{"Name": "Minster Lovell", "Country Code": "GB", "Population": 1236.0, "Lat": 51.79274, "Lon": -1.5483}], "Minsterley": [{"Name": "Minsterley", "Country Code": "GB", "Population": 1532.0, "Lat": 52.63989, "Lon": -2.92807}], "Mint Hill": [{"Name": "Mint Hill", "Country Code": "US", "Population": 25627.0, "Lat": 35.17959, "Lon": -80.64729}], "Minta": [{"Name": "Minta", "Country Code": "CM", "Population": 4934.0, "Lat": 4.58333, "Lon": 12.8}], "Mintiu Gherlii": [{"Name": "Mintiu Gherlii", "Country Code": "RO", "Population": 3806.0, "Lat": 47.05, "Lon": 23.95}], "Mintlaw": [{"Name": "Mintlaw", "Country Code": "GB", "Population": 2720.0, "Lat": 57.52414, "Lon": -2.00099}], "Minto": [{"Name": "Minto", "Country Code": "AU", "Population": 12461.0, "Lat": -34.03333, "Lon": 150.85}], "Mintraching": [{"Name": "Mintraching", "Country Code": "DE", "Population": 4668.0, "Lat": 48.95357, "Lon": 12.24209}], "Minturn": [{"Name": "Minturn", "Country Code": "US", "Population": 1026.0, "Lat": 39.58637, "Lon": -106.43086}], "Minturno": [{"Name": "Minturno", "Country Code": "IT", "Population": 16236.0, "Lat": 41.26294, "Lon": 13.74583}], "Minucciano": [{"Name": "Minucciano", "Country Code": "IT", "Population": 123.0, "Lat": 44.17, "Lon": 10.20807}], "Minudasht": [{"Name": "M\u012bn\u016bdasht", "Country Code": "IR", "Population": 0.0, "Lat": 37.23015, "Lon": 55.37211}], "Minuri": [{"Name": "Minuri", "Country Code": "PH", "Population": 2546.0, "Lat": 16.53233, "Lon": 121.85532}], "Minusinsk": [{"Name": "Minusinsk", "Country Code": "RU", "Population": 72781.0, "Lat": 53.71028, "Lon": 91.6875}], "Minusio": [{"Name": "Minusio", "Country Code": "CH", "Population": 6653.0, "Lat": 46.17769, "Lon": 8.81473}], "Minuwangoda": [{"Name": "Minuwangoda", "Country Code": "LK", "Population": 7772.0, "Lat": 7.1663, "Lon": 79.9533}], "Minuyan": [{"Name": "Minuyan", "Country Code": "PH", "Population": 7771.0, "Lat": 10.51366, "Lon": 123.1049}], "Minvoul": [{"Name": "Minvoul", "Country Code": "GA", "Population": 4469.0, "Lat": 2.15161, "Lon": 12.132}], "Minwakh": [{"Name": "Minwakh", "Country Code": "YE", "Population": 0.0, "Lat": 16.80035, "Lon": 48.10854}], "Minya": [{"Name": "Minya", "Country Code": "EG", "Population": 283605.0, "Lat": 28.09193, "Lon": 30.75813}], "Minya al Qamh": [{"Name": "Miny\u0101 al Qam\u1e29", "Country Code": "EG", "Population": 99284.0, "Lat": 30.51552, "Lon": 31.34629}], "Minyama": [{"Name": "Minyama", "Country Code": "AU", "Population": 2524.0, "Lat": -26.69573, "Lon": 153.12353}], "Minyat an Nasr": [{"Name": "Minyat an Na\u015fr", "Country Code": "EG", "Population": 82429.0, "Lat": 31.12624, "Lon": 31.64313}], "Minyaylivka": [{"Name": "Minyaylivka", "Country Code": "UA", "Population": 1645.0, "Lat": 46.37824, "Lon": 29.52021}], "Minyininba": [{"Name": "Minyininba", "Country Code": "CI", "Population": 1004.0, "Lat": 8.80694, "Lon": -6.81361}], "Minzapan": [{"Name": "Minzapan", "Country Code": "MX", "Population": 1900.0, "Lat": 18.13873, "Lon": -94.72733}], "Minzhu": [{"Name": "Minzhu", "Country Code": "CN", "Population": 7092.0, "Lat": 29.36306, "Lon": 107.16714}], "Mio": [{"Name": "Mio", "Country Code": "US", "Population": 1826.0, "Lat": 44.65224, "Lon": -84.12973}], "Mioglia": [{"Name": "Mioglia", "Country Code": "IT", "Population": 282.0, "Lat": 44.49214, "Lon": 8.41435}], "Miola di Pine": [{"Name": "Miola di Pin\u00e8", "Country Code": "IT", "Population": 1038.0, "Lat": 46.12668, "Lon": 11.2485}], "Mionica": [{"Name": "Mionica", "Country Code": "BA", "Population": 8701.0, "Lat": 44.86646, "Lon": 18.46603}, {"Name": "Mionica", "Country Code": "RS", "Population": 0.0, "Lat": 44.25194, "Lon": 20.08167}], "Mionnay": [{"Name": "Mionnay", "Country Code": "FR", "Population": 2293.0, "Lat": 45.89824, "Lon": 4.92808}], "Mions": [{"Name": "Mions", "Country Code": "FR", "Population": 11424.0, "Lat": 45.66302, "Lon": 4.95292}], "Miorcani": [{"Name": "Miorcani", "Country Code": "RO", "Population": 2248.0, "Lat": 48.20223, "Lon": 26.85279}], "Miory": [{"Name": "Miory", "Country Code": "BY", "Population": 10649.0, "Lat": 55.62195, "Lon": 27.62464}], "Mios": [{"Name": "Mios", "Country Code": "FR", "Population": 5002.0, "Lat": 44.6056, "Lon": -0.93721}], "Mioveni": [{"Name": "Mioveni", "Country Code": "RO", "Population": 29062.0, "Lat": 44.95905, "Lon": 24.94198}], "Miquelon": [{"Name": "Miquelon", "Country Code": "PM", "Population": 1141.0, "Lat": 47.0975, "Lon": -56.38139}], "Miquihuana": [{"Name": "Miquihuana", "Country Code": "MX", "Population": 1565.0, "Lat": 23.57575, "Lon": -99.75438}], "Mir": [{"Name": "Mir", "Country Code": "BY", "Population": 2500.0, "Lat": 53.4544, "Lon": 26.467}], "Mir Bachah Kot": [{"Name": "M\u012br Bachah K\u014d\u1e6f", "Country Code": "AF", "Population": 5405.0, "Lat": 34.74999, "Lon": 69.11899}], "Mira": [{"Name": "Mira", "Country Code": "ES", "Population": 1208.0, "Lat": 39.71667, "Lon": -1.43333}, {"Name": "Mira", "Country Code": "PT", "Population": 3775.0, "Lat": 39.54315, "Lon": -8.71505}, {"Name": "Mira", "Country Code": "PT", "Population": 7682.0, "Lat": 40.42892, "Lon": -8.73746}], "Mira Mar": [{"Name": "Mira Mar", "Country Code": "AU", "Population": 1644.0, "Lat": -35.01517, "Lon": 117.90096}], "Mira Mesa": [{"Name": "Mira Mesa", "Country Code": "US", "Population": 70000.0, "Lat": 32.9156, "Lon": -117.14392}], "Mira Monte": [{"Name": "Mira Monte", "Country Code": "US", "Population": 6854.0, "Lat": 34.43361, "Lon": -119.28511}], "Mira Taglio": [{"Name": "Mira Taglio", "Country Code": "IT", "Population": 32881.0, "Lat": 45.4346, "Lon": 12.12942}], "Mirabad": [{"Name": "M\u012br\u0101b\u0101d", "Country Code": "AF", "Population": 14160.0, "Lat": 30.43624, "Lon": 61.8383}], "Mirabel": [{"Name": "Mirabel", "Country Code": "CA", "Population": 34626.0, "Lat": 45.65008, "Lon": -74.08251}, {"Name": "Mirabel", "Country Code": "ES", "Population": 742.0, "Lat": 39.8623, "Lon": -6.23274}], "Mirabel-aux-Baronnies": [{"Name": "Mirabel-aux-Baronnies", "Country Code": "FR", "Population": 1439.0, "Lat": 44.31002, "Lon": 5.09962}], "Mirabela": [{"Name": "Mirabela", "Country Code": "BR", "Population": 8934.0, "Lat": -16.26278, "Lon": -44.16444}], "Mirabella Eclano": [{"Name": "Mirabella Eclano", "Country Code": "IT", "Population": 2375.0, "Lat": 41.04496, "Lon": 15.00022}], "Mirabella Imbaccari": [{"Name": "Mirabella Imbaccari", "Country Code": "IT", "Population": 5085.0, "Lat": 37.32702, "Lon": 14.44605}], "Mirabello": [{"Name": "Mirabello", "Country Code": "IT", "Population": 3306.0, "Lat": 44.82295, "Lon": 11.45669}], "Mirabello Monferrato": [{"Name": "Mirabello Monferrato", "Country Code": "IT", "Population": 1239.0, "Lat": 45.03496, "Lon": 8.52385}], "Mirabello Sannitico": [{"Name": "Mirabello Sannitico", "Country Code": "IT", "Population": 1538.0, "Lat": 41.51628, "Lon": 14.67315}], "Mirabueno": [{"Name": "Mirabueno", "Country Code": "ES", "Population": 106.0, "Lat": 40.94479, "Lon": -2.72438}], "Miracatu": [{"Name": "Miracatu", "Country Code": "BR", "Population": 19643.0, "Lat": -24.28139, "Lon": -47.45972}], "Miracema": [{"Name": "Miracema", "Country Code": "BR", "Population": 26684.0, "Lat": -21.41222, "Lon": -42.19667}], "Miracema do Tocantins": [{"Name": "Miracema do Tocantins", "Country Code": "BR", "Population": 19634.0, "Lat": -9.56722, "Lon": -48.39167}], "Miracosta": [{"Name": "Miracosta", "Country Code": "PE", "Population": 180.0, "Lat": -6.40417, "Lon": -79.28444}], "Miradolo Terme": [{"Name": "Miradolo Terme", "Country Code": "IT", "Population": 2702.0, "Lat": 45.17094, "Lon": 9.44442}], "Mirador": [{"Name": "Mirador", "Country Code": "BR", "Population": 6955.0, "Lat": -6.37083, "Lon": -44.36306}], "Miraflores": [{"Name": "Miraflores", "Country Code": "CO", "Population": 5007.0, "Lat": 1.33667, "Lon": -71.95111}, {"Name": "Miraflores", "Country Code": "CO", "Population": 8274.0, "Lat": 5.19608, "Lon": -73.14504}, {"Name": "Miraflores", "Country Code": "MX", "Population": 1384.0, "Lat": 23.36975, "Lon": -109.77436}, {"Name": "Miraflores", "Country Code": "MX", "Population": 9904.0, "Lat": 19.2221, "Lon": -98.80741}, {"Name": "Miraflores", "Country Code": "PE", "Population": 0.0, "Lat": -9.49396, "Lon": -76.8187}, {"Name": "Miraflores", "Country Code": "PE", "Population": 322.0, "Lat": -12.27417, "Lon": -75.85024}], "Miraflores de la Sierra": [{"Name": "Miraflores de la Sierra", "Country Code": "ES", "Population": 5105.0, "Lat": 40.8155, "Lon": -3.76213}], "Mirafuentes": [{"Name": "Mirafuentes", "Country Code": "ES", "Population": 60.0, "Lat": 42.62297, "Lon": -2.27966}], "Miragoane": [{"Name": "Mirago\u00e2ne", "Country Code": "HT", "Population": 89202.0, "Lat": 18.44599, "Lon": -73.08957}], "Mirai": [{"Name": "Mira\u00ed", "Country Code": "BR", "Population": 8499.0, "Lat": -21.19528, "Lon": -42.61417}], "Miralcamp": [{"Name": "Miralcamp", "Country Code": "ES", "Population": 1307.0, "Lat": 41.60516, "Lon": 0.87987}], "Miralrio": [{"Name": "Miralr\u00edo", "Country Code": "ES", "Population": 68.0, "Lat": 40.88901, "Lon": -2.9434}], "Miramar": [{"Name": "Miramar", "Country Code": "AR", "Population": 0.0, "Lat": -38.27161, "Lon": -57.8389}, {"Name": "Miramar", "Country Code": "AR", "Population": 1979.0, "Lat": -30.91859, "Lon": -62.67814}, {"Name": "Miramar", "Country Code": "CR", "Population": 6540.0, "Lat": 10.0925, "Lon": -84.72978}, {"Name": "Miramar", "Country Code": "ES", "Population": 1675.0, "Lat": 38.95036, "Lon": -0.14007}, {"Name": "Miramar", "Country Code": "MX", "Population": 118614.0, "Lat": 22.36094, "Lon": -97.89997}, {"Name": "Miramar", "Country Code": "PA", "Population": 154.0, "Lat": 9.57544, "Lon": -79.33573}, {"Name": "Miramar", "Country Code": "PA", "Population": 346.0, "Lat": 8.9975, "Lon": -82.24344}, {"Name": "Miramar", "Country Code": "PE", "Population": 9614.0, "Lat": -8.17945, "Lon": -78.99381}, {"Name": "Miramar", "Country Code": "US", "Population": 137132.0, "Lat": 25.98731, "Lon": -80.23227}], "Miramar Beach": [{"Name": "Miramar Beach", "Country Code": "US", "Population": 6146.0, "Lat": 30.37437, "Lon": -86.35856}], "Miramas": [{"Name": "Miramas", "Country Code": "FR", "Population": 24173.0, "Lat": 43.58508, "Lon": 5.00268}], "Mirambeau": [{"Name": "Mirambeau", "Country Code": "FR", "Population": 1453.0, "Lat": 45.37332, "Lon": -0.57078}], "Mirambel": [{"Name": "Mirambel", "Country Code": "ES", "Population": 132.0, "Lat": 40.58733, "Lon": -0.34266}], "Miramichi": [{"Name": "Miramichi", "Country Code": "CA", "Population": 17537.0, "Lat": 47.02895, "Lon": -65.50186}], "Miramont-de-Guyenne": [{"Name": "Miramont-de-Guyenne", "Country Code": "FR", "Population": 3247.0, "Lat": 44.60182, "Lon": 0.36078}], "Miran": [{"Name": "M\u012br\u0101n", "Country Code": "AF", "Population": 0.0, "Lat": 34.22037, "Lon": 68.31259}], "Miran Shah": [{"Name": "Miran Shah", "Country Code": "PK", "Population": 3334.0, "Lat": 33.00059, "Lon": 70.07117}], "Miranda": [{"Name": "Miranda", "Country Code": "AU", "Population": 15111.0, "Lat": -34.03857, "Lon": 151.10005}, {"Name": "Miranda", "Country Code": "BR", "Population": 13189.0, "Lat": -20.24056, "Lon": -56.37833}, {"Name": "Miranda", "Country Code": "CO", "Population": 43333.0, "Lat": 3.25283, "Lon": -76.22924}, {"Name": "Miranda", "Country Code": "IT", "Population": 961.0, "Lat": 41.64434, "Lon": 14.24643}, {"Name": "Miranda", "Country Code": "PH", "Population": 8040.0, "Lat": 10.3047, "Lon": 122.8778}, {"Name": "Miranda", "Country Code": "PR", "Population": 2057.0, "Lat": 18.38662, "Lon": -66.38378}, {"Name": "Miranda", "Country Code": "VE", "Population": 32907.0, "Lat": 10.15077, "Lon": -68.39325}], "Miranda de Arga": [{"Name": "Miranda de Arga", "Country Code": "ES", "Population": 993.0, "Lat": 42.48337, "Lon": -1.82759}], "Miranda de Azan": [{"Name": "Miranda de Az\u00e1n", "Country Code": "ES", "Population": 384.0, "Lat": 40.88752, "Lon": -5.68182}], "Miranda de Ebro": [{"Name": "Miranda de Ebro", "Country Code": "ES", "Population": 39264.0, "Lat": 42.6865, "Lon": -2.94695}], "Miranda del Castanar": [{"Name": "Miranda del Casta\u00f1ar", "Country Code": "ES", "Population": 558.0, "Lat": 40.48448, "Lon": -5.99581}], "Miranda do Corvo": [{"Name": "Miranda do Corvo", "Country Code": "PT", "Population": 7857.0, "Lat": 40.09318, "Lon": -8.33261}], "Miranda do Douro": [{"Name": "Miranda do Douro", "Country Code": "PT", "Population": 7482.0, "Lat": 41.49692, "Lon": -6.27308}], "Mirande": [{"Name": "Mirande", "Country Code": "FR", "Population": 4135.0, "Lat": 43.51443, "Lon": 0.40389}], "Mirandela": [{"Name": "Mirandela", "Country Code": "PT", "Population": 12504.0, "Lat": 41.48739, "Lon": -7.18695}], "Mirandilla": [{"Name": "Mirandilla", "Country Code": "ES", "Population": 1363.0, "Lat": 39.002, "Lon": -6.28893}], "Mirandol-Bourgnounac": [{"Name": "Mirandol-Bourgnounac", "Country Code": "FR", "Population": 1067.0, "Lat": 44.14193, "Lon": 2.16676}], "Mirandola": [{"Name": "Mirandola", "Country Code": "IT", "Population": 17380.0, "Lat": 44.88515, "Lon": 11.06902}], "Mirandopolis": [{"Name": "Mirandop\u00f3lis", "Country Code": "BR", "Population": 23378.0, "Lat": -21.13361, "Lon": -51.10167}], "Mirani": [{"Name": "Mirani", "Country Code": "AU", "Population": 1504.0, "Lat": -21.15729, "Lon": 148.86217}], "Mirano": [{"Name": "Mirano", "Country Code": "IT", "Population": 15139.0, "Lat": 45.49458, "Lon": 12.10775}], "Miranpur": [{"Name": "M\u012br\u0101npur", "Country Code": "IN", "Population": 27390.0, "Lat": 29.29026, "Lon": 77.94939}], "Miranpur Katra": [{"Name": "M\u012br\u0101npur Katra", "Country Code": "IN", "Population": 29626.0, "Lat": 28.02963, "Lon": 79.66778}], "Mirante do Paranapanema": [{"Name": "Mirante do Paranapanema", "Country Code": "BR", "Population": 9387.0, "Lat": -22.29194, "Lon": -51.90639}], "Miras": [{"Name": "Miras", "Country Code": "AL", "Population": 0.0, "Lat": 40.50917, "Lon": 20.92833}], "Miraslau": [{"Name": "Mir\u0103sl\u0103u", "Country Code": "RO", "Population": 2298.0, "Lat": 46.36667, "Lon": 23.71667}], "Miratovac": [{"Name": "Miratovac", "Country Code": "RS", "Population": 2872.0, "Lat": 42.25846, "Lon": 21.66456}], "Miravalle": [{"Name": "Miravalle", "Country Code": "MX", "Population": 1071.0, "Lat": 21.9725, "Lon": -102.31139}], "Miravalles": [{"Name": "Miravalles", "Country Code": "MX", "Population": 1222.0, "Lat": 19.3413, "Lon": -97.53854}], "Miravci": [{"Name": "Miravci", "Country Code": "MK", "Population": 2573.0, "Lat": 41.30925, "Lon": 22.43641}], "Miraveche": [{"Name": "Miraveche", "Country Code": "ES", "Population": 103.0, "Lat": 42.67396, "Lon": -3.19947}], "Miravet": [{"Name": "Miravet", "Country Code": "ES", "Population": 797.0, "Lat": 41.0393, "Lon": 0.59665}], "Miray": [{"Name": "M\u012bray", "Country Code": "AF", "Population": 0.0, "Lat": 33.32462, "Lon": 68.44068}], "Mirboo North": [{"Name": "Mirboo North", "Country Code": "AU", "Population": 2120.0, "Lat": -38.40101, "Lon": 146.16135}], "Mircea Voda": [{"Name": "Mircea Vod\u0103", "Country Code": "RO", "Population": 3594.0, "Lat": 45.11667, "Lon": 27.38333}, {"Name": "Mircea Vod\u0103", "Country Code": "RO", "Population": 6983.0, "Lat": 44.28333, "Lon": 28.16667}], "Mircesti": [{"Name": "Mirce\u015fti", "Country Code": "RO", "Population": 6797.0, "Lat": 47.08333, "Lon": 26.83333}], "Mircestii Noi": [{"Name": "Mirce\u0219tii Noi", "Country Code": "RO", "Population": 1091.0, "Lat": 45.75072, "Lon": 27.2726}], "Mircze": [{"Name": "Mircze", "Country Code": "PL", "Population": 1480.0, "Lat": 50.65164, "Lon": 23.89604}], "Mirdad Muafi": [{"Name": "Mirdad Muafi", "Country Code": "PK", "Population": 9933.0, "Lat": 30.67676, "Lon": 72.92855}], "Mire": [{"Name": "Mir\u00e9", "Country Code": "FR", "Population": 1019.0, "Lat": 47.75752, "Lon": -0.49177}], "Mirebalais": [{"Name": "Mirebalais", "Country Code": "HT", "Population": 9082.0, "Lat": 18.83455, "Lon": -72.1048}], "Mirebeau": [{"Name": "Mirebeau", "Country Code": "FR", "Population": 2408.0, "Lat": 46.78541, "Lon": 0.18184}], "Mirebeau-sur-Beze": [{"Name": "Mirebeau-sur-B\u00e8ze", "Country Code": "FR", "Population": 1639.0, "Lat": 47.39828, "Lon": 5.32093}], "Mirecourt": [{"Name": "Mirecourt", "Country Code": "FR", "Population": 6998.0, "Lat": 48.30089, "Lon": 6.13282}], "Mirefleurs": [{"Name": "Mirefleurs", "Country Code": "FR", "Population": 1887.0, "Lat": 45.69319, "Lon": 3.2237}], "Miremont": [{"Name": "Miremont", "Country Code": "FR", "Population": 1617.0, "Lat": 43.37042, "Lon": 1.41697}], "Miren": [{"Name": "Miren", "Country Code": "SI", "Population": 1460.0, "Lat": 45.89556, "Lon": 13.6075}], "Mirepeix": [{"Name": "Mirepeix", "Country Code": "FR", "Population": 1040.0, "Lat": 43.18949, "Lon": -0.25067}], "Mirepoix": [{"Name": "Mirepoix", "Country Code": "FR", "Population": 3062.0, "Lat": 43.0884, "Lon": 1.87367}], "Mirereni": [{"Name": "Mir\u00e9r\u00e9ni", "Country Code": "YT", "Population": 3364.0, "Lat": -12.78867, "Lon": 45.14113}, {"Name": "Mir\u00e9r\u00e9ni", "Country Code": "YT", "Population": 1372.0, "Lat": -12.90708, "Lon": 45.15295}], "Miresu Mare": [{"Name": "Mire\u015fu Mare", "Country Code": "RO", "Population": 5054.0, "Lat": 47.5, "Lon": 23.33333}, {"Name": "Mire\u0219u Mare", "Country Code": "RO", "Population": 1702.0, "Lat": 45.13508, "Lon": 26.37714}], "Miretice": [{"Name": "Mi\u0159etice", "Country Code": "CZ", "Population": 1205.0, "Lat": 49.84126, "Lon": 15.88472}], "Mireval": [{"Name": "Mireval", "Country Code": "FR", "Population": 3413.0, "Lat": 43.5086, "Lon": 3.8017}], "Mirfield": [{"Name": "Mirfield", "Country Code": "GB", "Population": 18800.0, "Lat": 53.67343, "Lon": -1.69636}], "Mirganj": [{"Name": "M\u012brganj", "Country Code": "IN", "Population": 15335.0, "Lat": 28.54012, "Lon": 79.20817}], "Miri": [{"Name": "Miri", "Country Code": "MY", "Population": 300543.0, "Lat": 4.39928, "Lon": 113.99163}], "Mirialguda": [{"Name": "Miri\u0101lg\u016bda", "Country Code": "IN", "Population": 101234.0, "Lat": 16.8722, "Lon": 79.56247}], "Miribel": [{"Name": "Miribel", "Country Code": "FR", "Population": 9282.0, "Lat": 45.8258, "Lon": 4.9544}], "Miribel-les-Echelles": [{"Name": "Miribel-les-\u00c9chelles", "Country Code": "FR", "Population": 1849.0, "Lat": 45.43155, "Lon": 5.7081}], "Mirik": [{"Name": "Mirik", "Country Code": "IN", "Population": 10109.0, "Lat": 26.88817, "Lon": 88.19007}], "Mirimire": [{"Name": "Mirimire", "Country Code": "VE", "Population": 0.0, "Lat": 11.1602, "Lon": -68.72604}], "Miringa": [{"Name": "Miringa", "Country Code": "NG", "Population": 12117.0, "Lat": 10.73115, "Lon": 12.14626}], "Mirissa city": [{"Name": "Mirissa city", "Country Code": "LK", "Population": 4695.0, "Lat": 5.94655, "Lon": 80.45831}], "Mirjaveh": [{"Name": "M\u012brj\u0101veh", "Country Code": "IR", "Population": 0.0, "Lat": 29.0148, "Lon": 61.44959}], "Mirkah": [{"Name": "Mirkah", "Country Code": "PS", "Population": 1592.0, "Lat": 32.39583, "Lon": 35.23807}], "Mirkovci": [{"Name": "Mirkovci", "Country Code": "HR", "Population": 2731.0, "Lat": 45.26972, "Lon": 18.85111}], "Mirkovo": [{"Name": "Mirkovo", "Country Code": "BG", "Population": 1882.0, "Lat": 42.7, "Lon": 23.98333}], "Mirkow": [{"Name": "Mirk\u00f3w", "Country Code": "PL", "Population": 1200.0, "Lat": 51.16105, "Lon": 17.17026}], "Mirleft": [{"Name": "Mirleft", "Country Code": "MA", "Population": 5092.0, "Lat": 29.57829, "Lon": -10.03245}], "Mirna": [{"Name": "Mirna", "Country Code": "SI", "Population": 1398.0, "Lat": 45.95528, "Lon": 15.06194}], "Mirna Pec": [{"Name": "Mirna Pe\u010d", "Country Code": "SI", "Population": 990.0, "Lat": 45.86028, "Lon": 15.08333}], "Mirnovka": [{"Name": "Mirnovka", "Country Code": "UA", "Population": 1259.0, "Lat": 45.69083, "Lon": 34.30966}], "Mirnoye": [{"Name": "Mirnoye", "Country Code": "UA", "Population": 9284.0, "Lat": 44.9833, "Lon": 34.0616}], "Mirny": [{"Name": "Mirny", "Country Code": "RU", "Population": 40308.0, "Lat": 62.53528, "Lon": 113.96111}, {"Name": "Mirny", "Country Code": "UA", "Population": 4209.0, "Lat": 45.30788, "Lon": 33.03501}], "Mirnyy": [{"Name": "Mirnyy", "Country Code": "RU", "Population": 7393.0, "Lat": 53.50642, "Lon": 50.27658}, {"Name": "Mirnyy", "Country Code": "RU", "Population": 3171.0, "Lat": 54.36607, "Lon": 48.72939}, {"Name": "Mirnyy", "Country Code": "RU", "Population": 3508.0, "Lat": 58.49333, "Lon": 47.65389}, {"Name": "Mirnyy", "Country Code": "RU", "Population": 28000.0, "Lat": 62.76437, "Lon": 40.33855}], "Miro Khan": [{"Name": "Miro Khan", "Country Code": "PK", "Population": 10590.0, "Lat": 27.75985, "Lon": 68.09195}], "Mirocin": [{"Name": "Mirocin", "Country Code": "PL", "Population": 1405.0, "Lat": 50.04237, "Lon": 22.55596}], "Miron Costin": [{"Name": "Miron Costin", "Country Code": "RO", "Population": 1939.0, "Lat": 46.9203, "Lon": 26.80567}], "Mironcillo": [{"Name": "Mironcillo", "Country Code": "ES", "Population": 136.0, "Lat": 40.55435, "Lon": -4.82449}], "Mironeasa": [{"Name": "Mironeasa", "Country Code": "RO", "Population": 4324.0, "Lat": 46.96667, "Lon": 27.41667}], "Mirones": [{"Name": "Mirones", "Country Code": "PA", "Population": 0.0, "Lat": 8.55735, "Lon": -81.7275}], "Mirontsi": [{"Name": "Mirontsi", "Country Code": "KM", "Population": 11955.0, "Lat": -12.1604, "Lon": 44.40986}], "Mironu": [{"Name": "Mironu", "Country Code": "RO", "Population": 1445.0, "Lat": 47.48799, "Lon": 26.00952}], "Mirosi": [{"Name": "Miro\u015fi", "Country Code": "RO", "Population": 2789.0, "Lat": 44.41667, "Lon": 24.93333}], "Miroslav": [{"Name": "Miroslav", "Country Code": "CZ", "Population": 3017.0, "Lat": 48.94767, "Lon": 16.31252}], "Miroslava": [{"Name": "Miroslava", "Country Code": "RO", "Population": 8127.0, "Lat": 47.15, "Lon": 27.51667}], "Miroslavesti": [{"Name": "Mirosl\u0103ve\u0219ti", "Country Code": "RO", "Population": 2005.0, "Lat": 44.80383, "Lon": 26.08689}], "Miroslawiec": [{"Name": "Miros\u0142awiec", "Country Code": "PL", "Population": 2616.0, "Lat": 53.34071, "Lon": 16.08793}], "Miroslovesti": [{"Name": "Miroslove\u0219ti", "Country Code": "RO", "Population": 1912.0, "Lat": 47.15, "Lon": 26.65}], "Mirosov": [{"Name": "Miro\u0161ov", "Country Code": "CZ", "Population": 2237.0, "Lat": 49.68782, "Lon": 13.65807}], "Mirotice": [{"Name": "Mirotice", "Country Code": "CZ", "Population": 1114.0, "Lat": 49.42908, "Lon": 14.03697}], "Mirovice": [{"Name": "Mirovice", "Country Code": "CZ", "Population": 1658.0, "Lat": 49.51555, "Lon": 14.03582}], "Mirow": [{"Name": "Mirow", "Country Code": "DE", "Population": 3609.0, "Lat": 53.5051, "Lon": 11.50294}, {"Name": "Mir\u00f3w", "Country Code": "PL", "Population": 0.0, "Lat": 51.1972, "Lon": 21.0329}], "Mirpur Bhtoro": [{"Name": "Mirpur Bhtoro", "Country Code": "PK", "Population": 8866.0, "Lat": 24.72852, "Lon": 68.2601}], "Mirpur Khas": [{"Name": "Mirpur Khas", "Country Code": "PK", "Population": 215657.0, "Lat": 25.5276, "Lon": 69.01255}], "Mirpur Mathelo": [{"Name": "Mirpur Mathelo", "Country Code": "PK", "Population": 49311.0, "Lat": 28.02136, "Lon": 69.54914}], "Mirpur Sakro": [{"Name": "Mirpur Sakro", "Country Code": "PK", "Population": 8371.0, "Lat": 24.54692, "Lon": 67.62797}], "Mirrabooka": [{"Name": "Mirrabooka", "Country Code": "AU", "Population": 8085.0, "Lat": -31.85963, "Lon": 115.86587}], "Mirriah": [{"Name": "Mirriah", "Country Code": "NE", "Population": 38446.0, "Lat": 13.70727, "Lon": 9.15013}], "Mirrormont": [{"Name": "Mirrormont", "Country Code": "US", "Population": 3659.0, "Lat": 47.46232, "Lon": -121.99567}], "Mirsid": [{"Name": "Mir\u015fid", "Country Code": "RO", "Population": 2246.0, "Lat": 47.23333, "Lon": 23.13333}], "Mirsk": [{"Name": "Mirsk", "Country Code": "PL", "Population": 4150.0, "Lat": 50.97054, "Lon": 15.38567}], "Mirskoy": [{"Name": "Mirskoy", "Country Code": "RU", "Population": 3095.0, "Lat": 45.5439, "Lon": 40.3998}], "Mirto": [{"Name": "Mirto", "Country Code": "IT", "Population": 8684.0, "Lat": 39.60069, "Lon": 16.7739}, {"Name": "Mirto", "Country Code": "IT", "Population": 874.0, "Lat": 38.08439, "Lon": 14.74609}], "Mirwah Gorchani": [{"Name": "Mirwah Gorchani", "Country Code": "PK", "Population": 12139.0, "Lat": 25.30981, "Lon": 69.05019}], "Miryang": [{"Name": "Miryang", "Country Code": "KR", "Population": 53103.0, "Lat": 35.49333, "Lon": 128.74889}], "Miryeok": [{"Name": "Miryeok", "Country Code": "KR", "Population": 0.0, "Lat": 34.80134, "Lon": 127.08749}], "Mirzapur": [{"Name": "Mirz\u0101pur", "Country Code": "BD", "Population": 41137.0, "Lat": 24.10287, "Lon": 90.09841}, {"Name": "Mirz\u0101pur", "Country Code": "IN", "Population": 220029.0, "Lat": 25.1449, "Lon": 82.56534}], "Mirzec": [{"Name": "Mirzec", "Country Code": "PL", "Population": 2100.0, "Lat": 51.13466, "Lon": 21.0571}], "Misano Adriatico": [{"Name": "Misano Adriatico", "Country Code": "IT", "Population": 4325.0, "Lat": 43.97714, "Lon": 12.69805}], "Misano di Gera d'Adda": [{"Name": "Misano di Gera d'Adda", "Country Code": "IT", "Population": 2806.0, "Lat": 45.46946, "Lon": 9.62129}], "Misantla": [{"Name": "Misantla", "Country Code": "MX", "Population": 26827.0, "Lat": 19.92992, "Lon": -96.85194}], "Misasa": [{"Name": "Misasa", "Country Code": "JP", "Population": 6407.0, "Lat": 35.41, "Lon": 133.89472}], "Misasi": [{"Name": "Misasi", "Country Code": "TZ", "Population": 14170.0, "Lat": -3.0, "Lon": 33.08333}], "Misato": [{"Name": "Misato", "Country Code": "JP", "Population": 0.0, "Lat": 35.84373, "Lon": 139.88347}], "Misau": [{"Name": "Misau", "Country Code": "NG", "Population": 13957.0, "Lat": 11.3137, "Lon": 10.46664}], "Misawa": [{"Name": "Misawa", "Country Code": "JP", "Population": 42805.0, "Lat": 40.68682, "Lon": 141.38969}], "Misca": [{"Name": "Mi\u0219ca", "Country Code": "RO", "Population": 1017.0, "Lat": 47.26291, "Lon": 22.25914}, {"Name": "Mi\u0219ca", "Country Code": "RO", "Population": 1165.0, "Lat": 46.6028, "Lon": 21.59998}], "Mischendorf": [{"Name": "Mischendorf", "Country Code": "AT", "Population": 551.0, "Lat": 47.19277, "Lon": 16.31444}], "Mischii": [{"Name": "Mischii", "Country Code": "RO", "Population": 1841.0, "Lat": 44.38333, "Lon": 23.85}], "Misentea": [{"Name": "Misentea", "Country Code": "RO", "Population": 1029.0, "Lat": 46.32714, "Lon": 25.89506}], "Miserey-Salines": [{"Name": "Miserey-Salines", "Country Code": "FR", "Population": 2252.0, "Lat": 47.28638, "Lon": 5.97387}], "Miserieux": [{"Name": "Mis\u00e9rieux", "Country Code": "FR", "Population": 1965.0, "Lat": 45.97433, "Lon": 4.8134}], "Mishan": [{"Name": "Mishan", "Country Code": "CN", "Population": 0.0, "Lat": 45.52812, "Lon": 131.84}, {"Name": "Mishan", "Country Code": "CN", "Population": 87257.0, "Lat": 45.55, "Lon": 131.88333}], "Mishawaka": [{"Name": "Mishawaka", "Country Code": "US", "Population": 48261.0, "Lat": 41.66199, "Lon": -86.15862}], "Mishelevka": [{"Name": "Mishelevka", "Country Code": "RU", "Population": 7529.0, "Lat": 52.8575, "Lon": 103.17194}], "Misheronskiy": [{"Name": "Misheronskiy", "Country Code": "RU", "Population": 3790.0, "Lat": 55.71927, "Lon": 39.73835}], "Mishicot": [{"Name": "Mishicot", "Country Code": "US", "Population": 1407.0, "Lat": 44.23916, "Lon": -87.64119}], "Mishima": [{"Name": "Mishima", "Country Code": "JP", "Population": 107851.0, "Lat": 35.11667, "Lon": 138.91667}], "Mishkino": [{"Name": "Mishkino", "Country Code": "RU", "Population": 8712.0, "Lat": 55.33889, "Lon": 63.9175}, {"Name": "Mishkino", "Country Code": "RU", "Population": 5808.0, "Lat": 53.9997, "Lon": 59.1064}], "Mishkovo-Pohorilove": [{"Name": "Mishkovo-Pohorilove", "Country Code": "UA", "Population": 5484.0, "Lat": 46.99447, "Lon": 32.10997}], "Mishmar Ha'Emeq": [{"Name": "Mishmar Ha\u2018Emeq", "Country Code": "IL", "Population": 1271.0, "Lat": 32.61045, "Lon": 35.14227}], "Mishmar HaNegev": [{"Name": "Mishmar HaNegev", "Country Code": "IL", "Population": 1005.0, "Lat": 31.36416, "Lon": 34.7187}], "Mishmarot": [{"Name": "Mishmarot", "Country Code": "IL", "Population": 1024.0, "Lat": 32.48718, "Lon": 34.98324}], "Mishmeret": [{"Name": "Mishmeret", "Country Code": "IL", "Population": 1059.0, "Lat": 32.22818, "Lon": 34.91835}], "Misija": [{"Name": "Misija", "Country Code": "MX", "Population": 1087.0, "Lat": 17.26611, "Lon": -92.38167}], "Misilmeri": [{"Name": "Misilmeri", "Country Code": "IT", "Population": 19171.0, "Lat": 38.03183, "Lon": 13.44795}], "Misinto": [{"Name": "Misinto", "Country Code": "IT", "Population": 4250.0, "Lat": 45.66142, "Lon": 9.08129}], "Mision San Pablo": [{"Name": "Misi\u00f3n San Pablo", "Country Code": "MX", "Population": 8174.0, "Lat": 25.74, "Lon": -100.14417}], "Mision de Chichimecas": [{"Name": "Misi\u00f3n de Chichimecas", "Country Code": "MX", "Population": 6716.0, "Lat": 21.28496, "Lon": -100.48658}], "Miskindzha": [{"Name": "Miskindzha", "Country Code": "RU", "Population": 3611.0, "Lat": 41.42402, "Lon": 47.84669}], "Miskolc": [{"Name": "Miskolc", "Country Code": "HU", "Population": 154521.0, "Lat": 48.10306, "Lon": 20.77806}], "Mislata": [{"Name": "Mislata", "Country Code": "ES", "Population": 43756.0, "Lat": 39.47523, "Lon": -0.41825}], "Mislea": [{"Name": "Mislea", "Country Code": "RO", "Population": 2110.0, "Lat": 45.09668, "Lon": 25.82444}], "Mislesevo": [{"Name": "Mislesevo", "Country Code": "MK", "Population": 1988.0, "Lat": 41.185, "Lon": 20.70861}], "Mislinja": [{"Name": "Mislinja", "Country Code": "SI", "Population": 1862.0, "Lat": 46.44141, "Lon": 15.20027}], "Misliyah": [{"Name": "Misl\u012byah", "Country Code": "PS", "Population": 2187.0, "Lat": 32.38613, "Lon": 35.2878}, {"Name": "Misl\u012byah", "Country Code": "SA", "Population": 6117.0, "Lat": 17.45988, "Lon": 42.5572}], "Mismaloya (Fraccionamiento Pedregal de Santa Martha)": [{"Name": "Mismaloya (Fraccionamiento Pedregal de Santa Martha)", "Country Code": "MX", "Population": 2356.0, "Lat": 20.60694, "Lon": -103.17139}], "Mismiyah": [{"Name": "Mism\u012byah", "Country Code": "SY", "Population": 0.0, "Lat": 33.12902, "Lon": 36.39402}], "Misratah": [{"Name": "Misratah", "Country Code": "LY", "Population": 355657.0, "Lat": 32.37535, "Lon": 15.09254}], "Misrikh": [{"Name": "Misrikh", "Country Code": "IN", "Population": 15007.0, "Lat": 27.43137, "Lon": 80.53157}], "Missaglia": [{"Name": "Missaglia", "Country Code": "IT", "Population": 5781.0, "Lat": 45.70656, "Lon": 9.33471}], "Missan": [{"Name": "Missan", "Country Code": "SA", "Population": 0.0, "Lat": 20.73333, "Lon": 40.83333}], "Missanello": [{"Name": "Missanello", "Country Code": "IT", "Population": 523.0, "Lat": 40.28311, "Lon": 16.1665}], "Missao Velha": [{"Name": "Miss\u00e3o Velha", "Country Code": "BR", "Population": 13106.0, "Lat": -7.24972, "Lon": -39.14306}], "Missen-Wilhams": [{"Name": "Missen-Wilhams", "Country Code": "DE", "Population": 1441.0, "Lat": 47.6, "Lon": 10.11667}], "Misserete": [{"Name": "Miss\u00e9r\u00e9t\u00e9", "Country Code": "BJ", "Population": 41657.0, "Lat": 6.55872, "Lon": 2.59063}], "Missidougou": [{"Name": "Missidougou", "Country Code": "CI", "Population": 3336.0, "Lat": 8.56102, "Lon": -6.07221}], "Missillac": [{"Name": "Missillac", "Country Code": "FR", "Population": 4180.0, "Lat": 47.48217, "Lon": -2.15926}], "Mission": [{"Name": "Mission", "Country Code": "CA", "Population": 33261.0, "Lat": 49.13298, "Lon": -122.30258}, {"Name": "Mission", "Country Code": "US", "Population": 1215.0, "Lat": 43.30584, "Lon": -100.65819}, {"Name": "Mission", "Country Code": "US", "Population": 9491.0, "Lat": 39.02778, "Lon": -94.65579}, {"Name": "Mission", "Country Code": "US", "Population": 83298.0, "Lat": 26.21591, "Lon": -98.32529}, {"Name": "Mission", "Country Code": "US", "Population": 1037.0, "Lat": 45.67041, "Lon": -118.68359}], "Mission Bay": [{"Name": "Mission Bay", "Country Code": "NZ", "Population": 4450.0, "Lat": -36.85472, "Lon": 174.83167}], "Mission Beach": [{"Name": "Mission Beach", "Country Code": "AU", "Population": 1271.0, "Lat": -17.86885, "Lon": 146.10392}], "Mission Bend": [{"Name": "Mission Bend", "Country Code": "US", "Population": 36501.0, "Lat": 29.69384, "Lon": -95.66495}], "Mission Canyon": [{"Name": "Mission Canyon", "Country Code": "US", "Population": 2381.0, "Lat": 34.45083, "Lon": -119.71291}], "Mission District": [{"Name": "Mission District", "Country Code": "US", "Population": 47234.0, "Lat": 37.75993, "Lon": -122.41914}], "Mission Hills": [{"Name": "Mission Hills", "Country Code": "US", "Population": 3601.0, "Lat": 39.01778, "Lon": -94.6169}, {"Name": "Mission Hills", "Country Code": "US", "Population": 3576.0, "Lat": 34.68609, "Lon": -120.43683}], "Mission River": [{"Name": "Mission River", "Country Code": "AU", "Population": 1160.0, "Lat": -12.59509, "Lon": 141.9576}], "Mission Viejo": [{"Name": "Mission Viejo", "Country Code": "US", "Population": 97156.0, "Lat": 33.60002, "Lon": -117.672}], "Missirikoro": [{"Name": "Missirikoro", "Country Code": "CI", "Population": 1271.0, "Lat": 8.50728, "Lon": -6.14183}], "Mississauga": [{"Name": "Mississauga", "Country Code": "CA", "Population": 668549.0, "Lat": 43.5789, "Lon": -79.6583}], "Mississauga Beach": [{"Name": "Mississauga Beach", "Country Code": "CA", "Population": 4662.0, "Lat": 43.25876, "Lon": -79.08625}], "Missoula": [{"Name": "Missoula", "Country Code": "US", "Population": 71022.0, "Lat": 46.87215, "Lon": -113.994}], "Missour": [{"Name": "Missour", "Country Code": "MA", "Population": 27937.0, "Lat": 33.04893, "Lon": -3.98947}], "Missouri City": [{"Name": "Missouri City", "Country Code": "US", "Population": 74139.0, "Lat": 29.61857, "Lon": -95.53772}], "Missouri Valley": [{"Name": "Missouri Valley", "Country Code": "US", "Population": 2695.0, "Lat": 41.55638, "Lon": -95.88779}], "Mistelbach": [{"Name": "Mistelbach", "Country Code": "AT", "Population": 6463.0, "Lat": 48.57, "Lon": 16.57667}], "Mistelgau": [{"Name": "Mistelgau", "Country Code": "DE", "Population": 3858.0, "Lat": 49.9126, "Lon": 11.46586}], "Misterbianco": [{"Name": "Misterbianco", "Country Code": "IT", "Population": 45542.0, "Lat": 37.51803, "Lon": 15.00913}], "Misterton": [{"Name": "Misterton", "Country Code": "GB", "Population": 1862.0, "Lat": 53.44492, "Lon": -0.85032}], "Mistissini": [{"Name": "Mistissini", "Country Code": "CA", "Population": 2869.0, "Lat": 50.41832, "Lon": -73.86895}], "Mistley": [{"Name": "Mistley", "Country Code": "GB", "Population": 1696.0, "Lat": 51.94331, "Lon": 1.08254}], "Mistrato": [{"Name": "Mistrat\u00f3", "Country Code": "CO", "Population": 6263.0, "Lat": 5.29622, "Lon": -75.8839}], "Mistretta": [{"Name": "Mistretta", "Country Code": "IT", "Population": 4976.0, "Lat": 37.92823, "Lon": 14.3578}], "Mistrice": [{"Name": "Mist\u0159ice", "Country Code": "CZ", "Population": 1169.0, "Lat": 49.08668, "Lon": 17.53597}], "Misungwi": [{"Name": "Misungwi", "Country Code": "TZ", "Population": 35530.0, "Lat": -2.85, "Lon": 33.08333}], "Mit Abu Ghalib": [{"Name": "M\u012bt Ab\u016b Gh\u0101lib", "Country Code": "EG", "Population": 20470.0, "Lat": 31.28837, "Lon": 31.67719}], "Mit Ghamr": [{"Name": "M\u012bt Ghamr", "Country Code": "EG", "Population": 153754.0, "Lat": 30.71524, "Lon": 31.2592}], "Mit Salsil": [{"Name": "M\u012bt Sals\u012bl", "Country Code": "EG", "Population": 48166.0, "Lat": 31.16757, "Lon": 31.80125}], "Mitaka": [{"Name": "Mitaka", "Country Code": "JP", "Population": 0.0, "Lat": 35.68361, "Lon": 139.56002}], "Mitake": [{"Name": "Mitake", "Country Code": "JP", "Population": 18363.0, "Lat": 35.41667, "Lon": 137.13333}], "Mitcham": [{"Name": "Mitcham", "Country Code": "AU", "Population": 16795.0, "Lat": -37.81667, "Lon": 145.2}, {"Name": "Mitcham", "Country Code": "AU", "Population": 1792.0, "Lat": -34.97892, "Lon": 138.62184}, {"Name": "Mitcham", "Country Code": "GB", "Population": 63393.0, "Lat": 51.40322, "Lon": -0.16831}], "Mitchel Troy": [{"Name": "Mitchel Troy", "Country Code": "GB", "Population": 0.0, "Lat": 51.78728, "Lon": -2.73731}], "Mitcheldean": [{"Name": "Mitcheldean", "Country Code": "GB", "Population": 2783.0, "Lat": 51.8644, "Lon": -2.4895}], "Mitchell": [{"Name": "Mitchell", "Country Code": "AU", "Population": 1799.0, "Lat": -33.42732, "Lon": 149.55674}, {"Name": "Mitchell", "Country Code": "AU", "Population": 1178.0, "Lat": -26.4849, "Lon": 147.9742}, {"Name": "Mitchell", "Country Code": "US", "Population": 1666.0, "Lat": 41.94024, "Lon": -103.80856}, {"Name": "Mitchell", "Country Code": "US", "Population": 4252.0, "Lat": 38.73283, "Lon": -86.4736}, {"Name": "Mitchell", "Country Code": "US", "Population": 1356.0, "Lat": 38.76199, "Lon": -90.08538}, {"Name": "Mitchell", "Country Code": "US", "Population": 15669.0, "Lat": 43.70943, "Lon": -98.0298}], "Mitchell Park": [{"Name": "Mitchell Park", "Country Code": "AU", "Population": 5384.0, "Lat": -35.01031, "Lon": 138.56266}], "Mitchellville": [{"Name": "Mitchellville", "Country Code": "US", "Population": 10967.0, "Lat": 38.92, "Lon": -76.808}, {"Name": "Mitchellville", "Country Code": "US", "Population": 2304.0, "Lat": 41.6686, "Lon": -93.35771}], "Mitchelstown": [{"Name": "Mitchelstown", "Country Code": "IE", "Population": 3740.0, "Lat": 52.26583, "Lon": -8.26806}], "Mitchelton": [{"Name": "Mitchelton", "Country Code": "AU", "Population": 8387.0, "Lat": -27.41667, "Lon": 152.96667}], "Miteguekaha": [{"Name": "Mit\u00e9gu\u00e9kaha", "Country Code": "CI", "Population": 1126.0, "Lat": 9.62545, "Lon": -5.45519}], "Mitha Tiwana": [{"Name": "Mitha Tiwana", "Country Code": "PK", "Population": 26390.0, "Lat": 32.2454, "Lon": 72.10615}], "Mithi": [{"Name": "Mithi", "Country Code": "PK", "Population": 23431.0, "Lat": 24.73701, "Lon": 69.79707}], "Mithymna": [{"Name": "M\u00edthymna", "Country Code": "GR", "Population": 1558.0, "Lat": 39.36781, "Lon": 26.17639}], "Mito": [{"Name": "Mito", "Country Code": "JP", "Population": 246538.0, "Lat": 36.35, "Lon": 140.45}], "Mitoc": [{"Name": "Mitoc", "Country Code": "RO", "Population": 2023.0, "Lat": 48.1, "Lon": 27.03333}], "Mitocu Dragomirnei": [{"Name": "Mitocu Dragomirnei", "Country Code": "RO", "Population": 3976.0, "Lat": 47.73333, "Lon": 26.25}], "Mitoma": [{"Name": "Mitoma", "Country Code": "UG", "Population": 0.0, "Lat": -0.68417, "Lon": 30.07}], "Mitoyo": [{"Name": "Mitoyo", "Country Code": "JP", "Population": 65713.0, "Lat": 34.21052, "Lon": 133.6746}], "Mitras Poniente": [{"Name": "Mitras Poniente", "Country Code": "MX", "Population": 18246.0, "Lat": 25.77583, "Lon": -100.42583}], "Mitreni": [{"Name": "Mitreni", "Country Code": "RO", "Population": 4831.0, "Lat": 44.16667, "Lon": 26.6}], "Mitrofani": [{"Name": "Mitrofani", "Country Code": "RO", "Population": 866.0, "Lat": 44.73268, "Lon": 24.2091}], "Mitrofanovka": [{"Name": "Mitrofanovka", "Country Code": "RU", "Population": 5643.0, "Lat": 49.97083, "Lon": 39.69389},