{"Manchioneal": [{"Name": "Manchioneal", "Country Code": "JM", "Population": 2321.0, "Lat": 18.04444, "Lon": -76.27735}], "Manchita": [{"Name": "Manchita", "Country Code": "ES", "Population": 748.0, "Lat": 38.81404, "Lon": -6.02041}], "Manchones": [{"Name": "Manchones", "Country Code": "ES", "Population": 146.0, "Lat": 41.15, "Lon": -1.46667}], "Manciano": [{"Name": "Manciano", "Country Code": "IT", "Population": 3104.0, "Lat": 42.58875, "Lon": 11.51806}], "Mancieulles": [{"Name": "Mancieulles", "Country Code": "FR", "Population": 1448.0, "Lat": 49.28231, "Lon": 5.89612}], "Mancilang": [{"Name": "Mancilang", "Country Code": "PH", "Population": 4091.0, "Lat": 11.2835, "Lon": 123.7462}], "Manciles": [{"Name": "Manciles", "Country Code": "ES", "Population": 32.0, "Lat": 42.45728, "Lon": -3.94461}], "Mancio Lima": [{"Name": "M\u00e2ncio Lima", "Country Code": "BR", "Population": 7086.0, "Lat": -7.61417, "Lon": -72.89583}], "Mancor de la Vall": [{"Name": "Mancor de la Vall", "Country Code": "ES", "Population": 980.0, "Lat": 39.74966, "Lon": 2.87284}], "Mancora": [{"Name": "M\u00e1ncora", "Country Code": "PE", "Population": 9101.0, "Lat": -4.10778, "Lon": -81.0475}], "Mancos": [{"Name": "Mancos", "Country Code": "PE", "Population": 0.0, "Lat": -9.19111, "Lon": -77.71333}, {"Name": "Mancos", "Country Code": "US", "Population": 1380.0, "Lat": 37.345, "Lon": -108.28925}], "Mancuernas": [{"Name": "Mancuernas", "Country Code": "MX", "Population": 1825.0, "Lat": 16.3894, "Lon": -98.11018}], "Manda": [{"Name": "Manda", "Country Code": "TZ", "Population": 8393.0, "Lat": -10.46667, "Lon": 34.58333}], "Mandaguacu": [{"Name": "Mandagua\u00e7u", "Country Code": "BR", "Population": 14866.0, "Lat": -23.34722, "Lon": -52.09528}], "Mandaguari": [{"Name": "Mandaguari", "Country Code": "BR", "Population": 38238.0, "Lat": -23.5475, "Lon": -51.67083}], "Mandal": [{"Name": "M\u0101ndal", "Country Code": "IN", "Population": 13345.0, "Lat": 23.28865, "Lon": 71.91854}, {"Name": "M\u0101ndal", "Country Code": "IN", "Population": 23478.0, "Lat": 25.44126, "Lon": 74.56979}, {"Name": "Mandal", "Country Code": "MN", "Population": 0.0, "Lat": 48.63111, "Lon": 103.52917}, {"Name": "Mandal", "Country Code": "MN", "Population": 0.0, "Lat": 49.9, "Lon": 99.43333}, {"Name": "Mandal", "Country Code": "MN", "Population": 0.0, "Lat": 48.37062, "Lon": 106.74076}, {"Name": "Mandal", "Country Code": "NO", "Population": 11053.0, "Lat": 58.0274, "Lon": 7.45342}], "Mandalawangi": [{"Name": "Mandalawangi", "Country Code": "ID", "Population": 0.0, "Lat": -6.3102, "Lon": 105.9886}], "Mandalay": [{"Name": "Mandalay", "Country Code": "MM", "Population": 1208099.0, "Lat": 21.97473, "Lon": 96.08359}], "Mandalgarh": [{"Name": "M\u0101ndalgarh", "Country Code": "IN", "Population": 21569.0, "Lat": 25.19407, "Lon": 75.07215}], "Mandalgovi": [{"Name": "Mandalgovi", "Country Code": "MN", "Population": 12339.0, "Lat": 45.7625, "Lon": 106.27083}], "Mandali": [{"Name": "Mandal\u012b", "Country Code": "IQ", "Population": 29785.0, "Lat": 33.7481, "Lon": 45.55503}], "Mandalo": [{"Name": "M\u00e1ndalo", "Country Code": "GR", "Population": 1204.0, "Lat": 40.85677, "Lon": 22.21264}], "Mandalt": [{"Name": "Mandalt", "Country Code": "CN", "Population": 0.0, "Lat": 43.84028, "Lon": 113.71556}], "Mandaluyong City": [{"Name": "Mandaluyong City", "Country Code": "PH", "Population": 425758.0, "Lat": 14.5832, "Lon": 121.0409}], "Mandamarri": [{"Name": "Mandamarri", "Country Code": "IN", "Population": 66176.0, "Lat": 18.96506, "Lon": 79.47475}], "Mandan": [{"Name": "Mandan", "Country Code": "US", "Population": 21382.0, "Lat": 46.82666, "Lon": -100.88958}], "Mandangoa": [{"Name": "Mandangoa", "Country Code": "PH", "Population": 2740.0, "Lat": 8.77278, "Lon": 124.79111}], "Mandanici": [{"Name": "Mandanici", "Country Code": "IT", "Population": 585.0, "Lat": 38.00356, "Lon": 15.31669}], "Mandanou": [{"Name": "Mandanou", "Country Code": "CI", "Population": 1797.0, "Lat": 7.54009, "Lon": -5.54093}], "Mandaon": [{"Name": "Mandaon", "Country Code": "PH", "Population": 3540.0, "Lat": 12.22594, "Lon": 123.28421}], "Mandapam": [{"Name": "Mandapam", "Country Code": "IN", "Population": 15073.0, "Lat": 9.27571, "Lon": 79.12362}], "Mandapeta": [{"Name": "Mandapeta", "Country Code": "IN", "Population": 48852.0, "Lat": 16.86254, "Lon": 81.92921}], "Mandarahan": [{"Name": "Mandarahan", "Country Code": "ID", "Population": 0.0, "Lat": -1.7961, "Lon": 100.8295}], "Mandas": [{"Name": "Mandas", "Country Code": "IT", "Population": 2209.0, "Lat": 39.65514, "Lon": 9.12955}], "Mandasa": [{"Name": "Mandasa", "Country Code": "IN", "Population": 9287.0, "Lat": 18.8683, "Lon": 84.46296}], "Mandatoriccio": [{"Name": "Mandatoriccio", "Country Code": "IT", "Population": 2182.0, "Lat": 39.46675, "Lon": 16.8342}], "Mandaue City": [{"Name": "Mandaue City", "Country Code": "PH", "Population": 331320.0, "Lat": 10.32361, "Lon": 123.92222}], "Mandawar": [{"Name": "Mand\u0101war", "Country Code": "IN", "Population": 21339.0, "Lat": 29.48655, "Lon": 78.12732}, {"Name": "Mand\u0101war", "Country Code": "IN", "Population": 10979.0, "Lat": 27.86374, "Lon": 76.54999}], "Mandayona": [{"Name": "Mandayona", "Country Code": "ES", "Population": 394.0, "Lat": 40.9561, "Lon": -2.75021}], "Mandela": [{"Name": "Mandela", "Country Code": "GH", "Population": 77371.0, "Lat": 5.55221, "Lon": -0.33912}, {"Name": "Mandela", "Country Code": "IT", "Population": 635.0, "Lat": 42.02795, "Lon": 12.92089}], "Mandelia": [{"Name": "Mandelia", "Country Code": "TD", "Population": 19373.0, "Lat": 11.73017, "Lon": 15.24468}], "Mandelieu-la-Napoule": [{"Name": "Mandelieu-la-Napoule", "Country Code": "FR", "Population": 19292.0, "Lat": 43.54577, "Lon": 6.93734}], "Mandello Vitta": [{"Name": "Mandello Vitta", "Country Code": "IT", "Population": 220.0, "Lat": 45.49567, "Lon": 8.45983}], "Mandello del Lario": [{"Name": "Mandello del Lario", "Country Code": "IT", "Population": 10255.0, "Lat": 45.92199, "Lon": 9.31974}], "Mandeni": [{"Name": "Mandeni", "Country Code": "ZA", "Population": 0.0, "Lat": -29.14691, "Lon": 31.41403}], "Mandera": [{"Name": "Mandera", "Country Code": "KE", "Population": 114718.0, "Lat": 3.93726, "Lon": 41.85688}], "Manderfeld": [{"Name": "Manderfeld", "Country Code": "BE", "Population": 1150.0, "Lat": 50.3312, "Lon": 6.33919}], "Manderscheid": [{"Name": "Manderscheid", "Country Code": "DE", "Population": 1323.0, "Lat": 50.09672, "Lon": 6.80981}], "Mandeure": [{"Name": "Mandeure", "Country Code": "FR", "Population": 5416.0, "Lat": 47.44921, "Lon": 6.80762}], "Mandeville": [{"Name": "Mandeville", "Country Code": "CA", "Population": 2043.0, "Lat": 46.36677, "Lon": -73.34915}, {"Name": "Mandeville", "Country Code": "JM", "Population": 47115.0, "Lat": 18.04168, "Lon": -77.50714}, {"Name": "Mandeville", "Country Code": "US", "Population": 12345.0, "Lat": 30.35825, "Lon": -90.06563}], "Mandholi Kalan": [{"Name": "Mandholi Kal\u0101n", "Country Code": "IN", "Population": 4500.0, "Lat": 28.7085, "Lon": 75.68296}], "Mandi": [{"Name": "Mandi", "Country Code": "IN", "Population": 28217.0, "Lat": 31.71194, "Lon": 76.93273}], "Mandi Bahauddin": [{"Name": "Mandi Bahauddin", "Country Code": "PK", "Population": 129733.0, "Lat": 32.58704, "Lon": 73.49123}], "Mandiana": [{"Name": "Mandiana", "Country Code": "GN", "Population": 19110.0, "Lat": 10.62577, "Lon": -8.69413}], "Mandideep": [{"Name": "Mandideep", "Country Code": "IN", "Population": 39898.0, "Lat": 23.08166, "Lon": 77.53328}], "Mandih": [{"Name": "Mandih", "Country Code": "PH", "Population": 3420.0, "Lat": 8.2087, "Lon": 123.0141}], "Mandili": [{"Name": "Mandili", "Country Code": "PH", "Population": 4532.0, "Lat": 15.17912, "Lon": 120.87726}], "Mandimba": [{"Name": "Mandimba", "Country Code": "MZ", "Population": 118922.0, "Lat": -14.3525, "Lon": 35.65056}], "Mandinari": [{"Name": "Mandinari", "Country Code": "GM", "Population": 10273.0, "Lat": 13.37278, "Lon": -16.60278}], "Manding": [{"Name": "Manding", "Country Code": "ID", "Population": 0.0, "Lat": -6.953, "Lon": 113.8717}], "Mandla": [{"Name": "Mandl\u0101", "Country Code": "IN", "Population": 45184.0, "Lat": 22.59879, "Lon": 80.37115}], "Mandleshwar": [{"Name": "M\u0101ndleshwar", "Country Code": "IN", "Population": 12049.0, "Lat": 22.17598, "Lon": 75.65995}], "Mando": [{"Name": "Mando", "Country Code": "NG", "Population": 7500.0, "Lat": 10.71667, "Lon": 6.56667}], "Mandok": [{"Name": "M\u00e1ndok", "Country Code": "HU", "Population": 4566.0, "Lat": 48.32149, "Lon": 22.19107}], "Mandol": [{"Name": "Mand\u014dl", "Country Code": "AF", "Population": 0.0, "Lat": 35.28403, "Lon": 70.17017}], "Mandor": [{"Name": "Mandor", "Country Code": "ID", "Population": 0.0, "Lat": 0.32243, "Lon": 109.33795}], "Mandougou": [{"Name": "Mandougou", "Country Code": "CI", "Population": 1470.0, "Lat": 8.1617, "Lon": -7.80334}], "Mandra": [{"Name": "M\u00e1ndra", "Country Code": "GR", "Population": 11327.0, "Lat": 38.06667, "Lon": 23.5}, {"Name": "M\u00e2ndra", "Country Code": "RO", "Population": 2856.0, "Lat": 45.81667, "Lon": 25.05}], "Mandraki": [{"Name": "Mandr\u00e1ki", "Country Code": "GR", "Population": 682.0, "Lat": 36.61139, "Lon": 27.13333}], "Mandres-les-Roses": [{"Name": "Mandres-les-Roses", "Country Code": "FR", "Population": 4243.0, "Lat": 48.70198, "Lon": 2.54662}], "Mandresti": [{"Name": "M\u00e2ndre\u0219ti", "Country Code": "RO", "Population": 1037.0, "Lat": 47.73333, "Lon": 26.48333}, {"Name": "M\u00e2ndre\u0219ti", "Country Code": "RO", "Population": 1113.0, "Lat": 45.88333, "Lon": 27.7}], "Mandriola-Sant'Agostino": [{"Name": "Mandriola-Sant'Agostino", "Country Code": "IT", "Population": 5908.0, "Lat": 45.36926, "Lon": 11.85101}], "Mandritsara": [{"Name": "Mandritsara", "Country Code": "MG", "Population": 0.0, "Lat": -15.85744, "Lon": 48.82824}], "Mandrogne": [{"Name": "Mandrogne", "Country Code": "IT", "Population": 1545.0, "Lat": 44.86308, "Lon": 8.74676}], "Mandruloc": [{"Name": "M\u00e2ndruloc", "Country Code": "RO", "Population": 1106.0, "Lat": 46.14863, "Lon": 21.4657}], "Mandsaur": [{"Name": "Mandsaur", "Country Code": "IN", "Population": 124988.0, "Lat": 24.07184, "Lon": 75.06986}], "Manduel": [{"Name": "Manduel", "Country Code": "FR", "Population": 6260.0, "Lat": 43.81855, "Lon": 4.47247}], "Mandurah": [{"Name": "Mandurah", "Country Code": "AU", "Population": 107641.0, "Lat": -32.5269, "Lon": 115.7217}], "Mandurah city centre": [{"Name": "Mandurah city centre", "Country Code": "AU", "Population": 7784.0, "Lat": -32.52644, "Lon": 115.73361}], "Manduria": [{"Name": "Manduria", "Country Code": "IT", "Population": 27411.0, "Lat": 40.39899, "Lon": 17.63726}], "Mandvi": [{"Name": "M\u0101ndvi", "Country Code": "IN", "Population": 47853.0, "Lat": 22.83282, "Lon": 69.35237}, {"Name": "M\u0101ndvi", "Country Code": "IN", "Population": 18669.0, "Lat": 21.25526, "Lon": 73.30412}], "Mandya": [{"Name": "Mandya", "Country Code": "IN", "Population": 134845.0, "Lat": 12.5223, "Lon": 76.89746}], "Mandza": [{"Name": "Mandza", "Country Code": "KM", "Population": 1602.0, "Lat": -11.41806, "Lon": 43.29528}], "Mane": [{"Name": "Man\u00e9", "Country Code": "BF", "Population": 0.0, "Lat": 12.98836, "Lon": -1.34434}, {"Name": "Man\u00e9", "Country Code": "CI", "Population": 3506.0, "Lat": 4.67736, "Lon": -7.39294}, {"Name": "Mane", "Country Code": "FR", "Population": 1243.0, "Lat": 43.93795, "Lon": 5.76718}, {"Name": "Mane", "Country Code": "ID", "Population": 0.0, "Lat": 4.93789, "Lon": 96.0063}], "Manea": [{"Name": "Manea", "Country Code": "GB", "Population": 2088.0, "Lat": 52.48487, "Lon": 0.1793}], "Maneah": [{"Name": "Man\u00e9ah", "Country Code": "GN", "Population": 194297.0, "Lat": 9.73333, "Lon": -13.41667}], "Maneciu-Ungureni": [{"Name": "M\u0103neciu-Ungureni", "Country Code": "RO", "Population": 2401.0, "Lat": 45.31667, "Lon": 25.98333}], "Maneglise": [{"Name": "Man\u00e9glise", "Country Code": "FR", "Population": 1172.0, "Lat": 49.56578, "Lon": 0.25572}], "Maner": [{"Name": "Maner", "Country Code": "IN", "Population": 27901.0, "Lat": 25.64602, "Lon": 84.87291}], "Manera": [{"Name": "Manera", "Country Code": "IT", "Population": 1338.0, "Lat": 45.67346, "Lon": 9.04058}], "Manerba del Garda": [{"Name": "Manerba del Garda", "Country Code": "IT", "Population": 3761.0, "Lat": 45.54988, "Lon": 10.55228}], "Manerbio": [{"Name": "Manerbio", "Country Code": "IT", "Population": 12228.0, "Lat": 45.3539, "Lon": 10.13803}], "Maneromango": [{"Name": "Maneromango", "Country Code": "TZ", "Population": 9402.0, "Lat": -7.1988, "Lon": 38.78478}], "Maneru": [{"Name": "Ma\u00f1eru", "Country Code": "ES", "Population": 378.0, "Lat": 42.67001, "Lon": -1.86297}], "Manesseno": [{"Name": "Manesseno", "Country Code": "IT", "Population": 2383.0, "Lat": 44.47816, "Lon": 8.92784}], "Manesti": [{"Name": "M\u0103ne\u015fti", "Country Code": "RO", "Population": 7186.0, "Lat": 44.86667, "Lon": 25.85}, {"Name": "M\u0103ne\u015fti", "Country Code": "RO", "Population": 4612.0, "Lat": 44.96667, "Lon": 25.28333}], "Manetin": [{"Name": "Man\u011bt\u00edn", "Country Code": "CZ", "Population": 1240.0, "Lat": 49.99177, "Lon": 13.23319}], "Manfalut": [{"Name": "Manfal\u016b\u0163", "Country Code": "EG", "Population": 117925.0, "Lat": 27.3126, "Lon": 30.96987}], "Manfla": [{"Name": "Manfla", "Country Code": "CI", "Population": 12151.0, "Lat": 7.41135, "Lon": -5.91127}], "Manfredonia": [{"Name": "Manfredonia", "Country Code": "IT", "Population": 56932.0, "Lat": 41.63065, "Lon": 15.91876}], "Mang GJen": [{"Name": "M\u0103ng \u0110en", "Country Code": "VN", "Population": 0.0, "Lat": 14.60064, "Lon": 108.29088}], "Mang`it Shahri": [{"Name": "Mang\u2018it Shahri", "Country Code": "UZ", "Population": 0.0, "Lat": 42.12215, "Lon": 60.06276}], "Manga": [{"Name": "Manga", "Country Code": "BF", "Population": 28615.0, "Lat": 11.66361, "Lon": -1.07306}, {"Name": "Manga", "Country Code": "BR", "Population": 11732.0, "Lat": -14.75583, "Lon": -43.93222}, {"Name": "Manga", "Country Code": "PH", "Population": 3681.0, "Lat": 6.29083, "Lon": 125.30833}, {"Name": "Manga", "Country Code": "PH", "Population": 2211.0, "Lat": 17.70123, "Lon": 121.86048}, {"Name": "Manga", "Country Code": "PH", "Population": 2433.0, "Lat": 13.2719, "Lon": 123.4623}], "Mangai": [{"Name": "Mangai", "Country Code": "CD", "Population": 63713.0, "Lat": -4.02328, "Lon": 19.53385}], "Mangajou": [{"Name": "Mangajou", "Country Code": "YT", "Population": 1588.0, "Lat": -12.84404, "Lon": 45.11716}], "Mangalagiri": [{"Name": "Mangalagiri", "Country Code": "IN", "Population": 59391.0, "Lat": 16.43083, "Lon": 80.56815}], "Mangalam": [{"Name": "Mangalam", "Country Code": "IN", "Population": 11379.0, "Lat": 9.76473, "Lon": 78.64037}], "Mangaldai": [{"Name": "Mangaldai", "Country Code": "IN", "Population": 24871.0, "Lat": 26.44212, "Lon": 92.03047}], "Mangaldan": [{"Name": "Mangaldan", "Country Code": "PH", "Population": 88818.0, "Lat": 16.07, "Lon": 120.4025}], "Mangalia": [{"Name": "Mangalia", "Country Code": "RO", "Population": 39619.0, "Lat": 43.81623, "Lon": 28.57656}], "Mangalme": [{"Name": "Mangalm\u00e9", "Country Code": "TD", "Population": 15939.0, "Lat": 12.3546, "Lon": 19.6139}], "Mangalore": [{"Name": "Mangalore", "Country Code": "IN", "Population": 417387.0, "Lat": 12.91723, "Lon": 74.85603}], "Mangan": [{"Name": "Mangan", "Country Code": "IN", "Population": 1464.0, "Lat": 27.50965, "Lon": 88.52206}], "Manganeses de la Lampreana": [{"Name": "Manganeses de la Lampreana", "Country Code": "ES", "Population": 679.0, "Lat": 41.75085, "Lon": -5.71048}], "Manganeses de la Polvorosa": [{"Name": "Manganeses de la Polvorosa", "Country Code": "ES", "Population": 799.0, "Lat": 42.03563, "Lon": -5.74694}], "Manganitu": [{"Name": "Manganitu", "Country Code": "ID", "Population": 0.0, "Lat": 3.57622, "Lon": 125.51849}], "Mangapapa": [{"Name": "Mangapapa", "Country Code": "NZ", "Population": 4530.0, "Lat": -38.63824, "Lon": 178.01021}], "Mangaran": [{"Name": "Mangaran", "Country Code": "ID", "Population": 0.0, "Lat": -7.6597, "Lon": 114.04216}, {"Name": "Mangaran", "Country Code": "ID", "Population": 0.0, "Lat": 3.8148, "Lon": 126.74719}], "Mangaratiba": [{"Name": "Mangaratiba", "Country Code": "BR", "Population": 27022.0, "Lat": -22.95972, "Lon": -44.04056}], "Mangarine": [{"Name": "Mangarine", "Country Code": "PH", "Population": 3246.0, "Lat": 12.35115, "Lon": 121.09801}], "Mangas": [{"Name": "Mangas", "Country Code": "MX", "Population": 3776.0, "Lat": 20.18647, "Lon": -99.24799}, {"Name": "Mangas", "Country Code": "PE", "Population": 454.0, "Lat": -10.37411, "Lon": -77.10205}, {"Name": "Mangas", "Country Code": "PH", "Population": 4911.0, "Lat": 14.11769, "Lon": 120.86661}], "Mangatainoka": [{"Name": "Mangatainoka", "Country Code": "NZ", "Population": 1940.0, "Lat": -40.41513, "Lon": 175.86352}], "Mangatarem": [{"Name": "Mangatarem", "Country Code": "PH", "Population": 12392.0, "Lat": 15.7874, "Lon": 120.2921}], "Mangawan": [{"Name": "Mangaw\u0101n", "Country Code": "IN", "Population": 12503.0, "Lat": 24.66754, "Lon": 81.54644}], "Mangbang": [{"Name": "Mangbang", "Country Code": "CN", "Population": 39273.0, "Lat": 24.9319, "Lon": 98.6701}], "Mangbara": [{"Name": "Mangbara", "Country Code": "CI", "Population": 2170.0, "Lat": 8.10768, "Lon": -6.7061}], "Mangbwalu": [{"Name": "Mangbwalu", "Country Code": "CD", "Population": 45318.0, "Lat": 1.94468, "Lon": 30.03861}], "Mange": [{"Name": "Mange", "Country Code": "SL", "Population": 3339.0, "Lat": 8.92262, "Lon": -12.85688}], "Manger": [{"Name": "Manger", "Country Code": "NO", "Population": 814.0, "Lat": 60.64145, "Lon": 5.04136}], "Mangere": [{"Name": "Mangere", "Country Code": "NZ", "Population": 24060.0, "Lat": -36.96807, "Lon": 174.79875}], "Mangere East": [{"Name": "Mangere East", "Country Code": "NZ", "Population": 29740.0, "Lat": -36.96587, "Lon": 174.82389}], "Mangero": [{"Name": "Mangero", "Country Code": "PH", "Population": 3874.0, "Lat": 13.2705, "Lon": 122.6774}], "Mangerton": [{"Name": "Mangerton", "Country Code": "AU", "Population": 2765.0, "Lat": -34.43667, "Lon": 150.87167}], "Mangga": [{"Name": "Mangga", "Country Code": "PH", "Population": 2247.0, "Lat": 15.25041, "Lon": 120.90876}], "Manggahan": [{"Name": "Manggahan", "Country Code": "PH", "Population": 13825.0, "Lat": 14.29196, "Lon": 120.90145}], "Manggar": [{"Name": "Manggar", "Country Code": "ID", "Population": 39135.0, "Lat": -2.88333, "Lon": 108.26667}], "Manghit": [{"Name": "Manghit", "Country Code": "UZ", "Population": 33200.0, "Lat": 42.11556, "Lon": 60.05972}], "Mangilao Village": [{"Name": "Mangilao Village", "Country Code": "GU", "Population": 15191.0, "Lat": 13.44761, "Lon": 144.80109}], "Mangili": [{"Name": "Mangili", "Country Code": "PH", "Population": 3020.0, "Lat": 6.00333, "Lon": 125.68389}], "Mangina": [{"Name": "Mangina", "Country Code": "CD", "Population": 55439.0, "Lat": 0.60419, "Lon": 29.31004}], "Mangistau": [{"Name": "Mangistau", "Country Code": "KZ", "Population": 0.0, "Lat": 43.69088, "Lon": 51.32237}], "Mangkutana": [{"Name": "Mangkutana", "Country Code": "ID", "Population": 0.0, "Lat": -2.4894, "Lon": 120.812}], "Mangla": [{"Name": "Mangla", "Country Code": "PK", "Population": 16264.0, "Lat": 31.89306, "Lon": 72.38167}], "Manglai": [{"Name": "Manglai", "Country Code": "CN", "Population": 23408.0, "Lat": 37.27516, "Lon": 79.67807}], "Manglaur": [{"Name": "Manglaur", "Country Code": "IN", "Population": 46395.0, "Lat": 29.79094, "Lon": 77.87836}], "Manglisi": [{"Name": "Manglisi", "Country Code": "GE", "Population": 4817.0, "Lat": 41.697, "Lon": 44.3845}], "Mangnai Zhen": [{"Name": "Mangnai Zhen", "Country Code": "CN", "Population": 18856.0, "Lat": 38.38554, "Lon": 90.15553}], "Mango": [{"Name": "Mango", "Country Code": "CI", "Population": 1248.0, "Lat": 8.78828, "Lon": -3.17887}, {"Name": "Mango", "Country Code": "IT", "Population": 537.0, "Lat": 44.68812, "Lon": 8.14922}, {"Name": "Mango", "Country Code": "TG", "Population": 37748.0, "Lat": 10.35917, "Lon": 0.47083}, {"Name": "Mango", "Country Code": "US", "Population": 11313.0, "Lat": 27.97974, "Lon": -82.30648}], "Mango Hill": [{"Name": "Mango Hill", "Country Code": "AU", "Population": 8271.0, "Lat": -27.24349, "Lon": 153.02384}], "Mangochi": [{"Name": "Mangochi", "Country Code": "MW", "Population": 60338.0, "Lat": -14.47815, "Lon": 35.26448}], "Mangone": [{"Name": "Mangone", "Country Code": "IT", "Population": 580.0, "Lat": 39.20437, "Lon": 16.33262}], "Mangonia Park": [{"Name": "Mangonia Park", "Country Code": "US", "Population": 1979.0, "Lat": 26.76034, "Lon": -80.07365}], "Mangorei": [{"Name": "Mangorei", "Country Code": "NZ", "Population": 1998.0, "Lat": -39.15, "Lon": 174.08333}], "Mangoso": [{"Name": "Mangoso", "Country Code": "PH", "Population": 2466.0, "Lat": 11.4175, "Lon": 122.6382}], "Mangotsfield": [{"Name": "Mangotsfield", "Country Code": "GB", "Population": 36427.0, "Lat": 51.4878, "Lon": -2.50403}], "Mangouin": [{"Name": "Mangouin", "Country Code": "CI", "Population": 2997.0, "Lat": 7.64271, "Lon": -7.60697}], "Mangqu": [{"Name": "Mangqu", "Country Code": "CN", "Population": 0.0, "Lat": 35.5857, "Lon": 100.75237}], "Mangrol": [{"Name": "M\u0101ngrol", "Country Code": "IN", "Population": 58989.0, "Lat": 21.12268, "Lon": 70.11484}, {"Name": "M\u0101ngrol", "Country Code": "IN", "Population": 23896.0, "Lat": 25.33061, "Lon": 76.50973}], "Mangrul Pir": [{"Name": "Mangr\u016bl P\u012br", "Country Code": "IN", "Population": 29198.0, "Lat": 20.31379, "Lon": 77.34178}], "Mangshi": [{"Name": "Mangshi", "Country Code": "CN", "Population": 46353.0, "Lat": 24.45329, "Lon": 98.57037}], "Mangu": [{"Name": "Mangu", "Country Code": "NG", "Population": 0.0, "Lat": 9.5206, "Lon": 9.09769}], "Mangualde": [{"Name": "Mangualde", "Country Code": "PT", "Population": 8895.0, "Lat": 40.60425, "Lon": -7.76115}], "Manguito": [{"Name": "Manguito", "Country Code": "CU", "Population": 3155.0, "Lat": 22.58733, "Lon": -80.91451}], "Mangulile": [{"Name": "Mangulile", "Country Code": "HN", "Population": 1263.0, "Lat": 15.06667, "Lon": -86.8}], "Mangum": [{"Name": "Mangum", "Country Code": "US", "Population": 2910.0, "Lat": 34.872, "Lon": -99.50426}], "Mangupura": [{"Name": "Mangupura", "Country Code": "ID", "Population": 0.0, "Lat": -8.54389, "Lon": 115.17}], "Mangusu": [{"Name": "Mangusu", "Country Code": "PH", "Population": 3710.0, "Lat": 7.32556, "Lon": 122.2775}], "Manhan": [{"Name": "Manhan", "Country Code": "MN", "Population": 0.0, "Lat": 50.12139, "Lon": 100.04306}], "Manhasset": [{"Name": "Manhasset", "Country Code": "US", "Population": 8080.0, "Lat": 40.79788, "Lon": -73.69957}], "Manhasset Hills": [{"Name": "Manhasset Hills", "Country Code": "US", "Population": 3592.0, "Lat": 40.75927, "Lon": -73.67985}], "Manhattan": [{"Name": "Manhattan", "Country Code": "US", "Population": 1487536.0, "Lat": 40.78343, "Lon": -73.96625}, {"Name": "Manhattan", "Country Code": "US", "Population": 7400.0, "Lat": 41.42253, "Lon": -87.98589}, {"Name": "Manhattan", "Country Code": "US", "Population": 56308.0, "Lat": 39.18361, "Lon": -96.57167}, {"Name": "Manhattan", "Country Code": "US", "Population": 1631.0, "Lat": 45.8566, "Lon": -111.33246}], "Manhattan Beach": [{"Name": "Manhattan Beach", "Country Code": "US", "Population": 35818.0, "Lat": 33.88474, "Lon": -118.41091}], "Manhattan Hill": [{"Name": "Manhattan Hill", "Country Code": "HK", "Population": 3140.0, "Lat": 22.33458, "Lon": 114.14231}], "Manhay": [{"Name": "Manhay", "Country Code": "BE", "Population": 3128.0, "Lat": 50.29219, "Lon": 5.67562}], "Manheim": [{"Name": "Manheim", "Country Code": "US", "Population": 4870.0, "Lat": 40.16343, "Lon": -76.39496}], "Manhica": [{"Name": "Manhi\u00e7a", "Country Code": "MZ", "Population": 65240.0, "Lat": -25.40222, "Lon": 32.80722}], "Manhuacu": [{"Name": "Manhua\u00e7u", "Country Code": "BR", "Population": 54607.0, "Lat": -20.25806, "Lon": -42.03361}], "Manhumirim": [{"Name": "Manhumirim", "Country Code": "BR", "Population": 15544.0, "Lat": -20.35778, "Lon": -41.95806}], "Manhush": [{"Name": "Manhush", "Country Code": "UA", "Population": 7731.0, "Lat": 47.05625, "Lon": 37.31193}], "Mani": [{"Name": "Mani", "Country Code": "BF", "Population": 15066.0, "Lat": 13.25833, "Lon": -0.21306}, {"Name": "Man\u00ed", "Country Code": "CO", "Population": 13291.0, "Lat": 4.81638, "Lon": -72.27946}, {"Name": "Mani", "Country Code": "MX", "Population": 4146.0, "Lat": 20.38774, "Lon": -89.39189}, {"Name": "Mani", "Country Code": "NG", "Population": 0.0, "Lat": 12.85426, "Lon": 7.87526}], "Maniace": [{"Name": "Maniace", "Country Code": "IT", "Population": 3543.0, "Lat": 37.88306, "Lon": 14.79808}], "Maniago": [{"Name": "Maniago", "Country Code": "IT", "Population": 10395.0, "Lat": 46.16644, "Lon": 12.70602}], "Maniakoi": [{"Name": "Mani\u00e1koi", "Country Code": "GR", "Population": 3055.0, "Lat": 40.50064, "Lon": 21.24446}], "Maniar": [{"Name": "Maniar", "Country Code": "IN", "Population": 20462.0, "Lat": 25.98546, "Lon": 84.17233}], "Maniava": [{"Name": "Maniava", "Country Code": "UA", "Population": 3333.0, "Lat": 48.65485, "Lon": 24.37096}], "Manibaug Pasig": [{"Name": "Manibaug Pasig", "Country Code": "PH", "Population": 24618.0, "Lat": 15.09621, "Lon": 120.56445}], "Manica": [{"Name": "Manica", "Country Code": "MZ", "Population": 41961.0, "Lat": -18.93444, "Lon": 32.87556}], "Manicahan": [{"Name": "Manicahan", "Country Code": "PH", "Population": 8337.0, "Lat": 7.01944, "Lon": 122.20111}], "Manicaragua": [{"Name": "Manicaragua", "Country Code": "CU", "Population": 41532.0, "Lat": 22.15021, "Lon": -79.97867}], "Manicore": [{"Name": "Manicor\u00e9", "Country Code": "BR", "Population": 14055.0, "Lat": -5.80917, "Lon": -61.30028}], "Manifold Heights": [{"Name": "Manifold Heights", "Country Code": "AU", "Population": 2583.0, "Lat": -38.13762, "Lon": 144.33369}], "Manihari": [{"Name": "Manih\u0101ri", "Country Code": "IN", "Population": 23731.0, "Lat": 25.33891, "Lon": 87.61998}], "Maniitsoq": [{"Name": "Maniitsoq", "Country Code": "GL", "Population": 2534.0, "Lat": 65.41506, "Lon": -52.89822}], "Manika": [{"Name": "Manika", "Country Code": "PH", "Population": 3074.0, "Lat": 11.38801, "Lon": 122.27931}], "Manikchari": [{"Name": "Manikchari", "Country Code": "BD", "Population": 24813.0, "Lat": 22.83957, "Lon": 91.84128}], "Manikling": [{"Name": "Manikling", "Country Code": "PH", "Population": 2444.0, "Lat": 6.87907, "Lon": 126.06063}], "Manikpur": [{"Name": "M\u0101nikpur", "Country Code": "IN", "Population": 14415.0, "Lat": 25.06083, "Lon": 81.09961}], "Manila": [{"Name": "Manila", "Country Code": "PH", "Population": 1600000.0, "Lat": 14.6042, "Lon": 120.9822}, {"Name": "Manila", "Country Code": "US", "Population": 3257.0, "Lat": 35.88007, "Lon": -90.16704}, {"Name": "Manila", "Country Code": "US", "Population": 331.0, "Lat": 40.98801, "Lon": -109.72265}], "Manilla": [{"Name": "Manilla", "Country Code": "AU", "Population": 2516.0, "Lat": -30.74748, "Lon": 150.71974}], "Manilva": [{"Name": "Manilva", "Country Code": "ES", "Population": 13813.0, "Lat": 36.37645, "Lon": -5.25026}], "Maningrida": [{"Name": "Maningrida", "Country Code": "AU", "Population": 2325.0, "Lat": -12.0483, "Lon": 134.22941}], "Maninihon": [{"Name": "Maninihon", "Country Code": "PH", "Population": 6150.0, "Lat": 9.3711, "Lon": 122.8405}], "Maninjau": [{"Name": "Maninjau", "Country Code": "ID", "Population": 0.0, "Lat": -0.30059, "Lon": 100.22671}], "Maniowy": [{"Name": "Maniowy", "Country Code": "PL", "Population": 2380.0, "Lat": 49.45976, "Lon": 20.26454}], "Manipal": [{"Name": "Manipal", "Country Code": "IN", "Population": 34370.0, "Lat": 13.35, "Lon": 74.78333}], "Manisa": [{"Name": "Manisa", "Country Code": "TR", "Population": 243971.0, "Lat": 38.61202, "Lon": 27.42647}], "Manises": [{"Name": "Manises", "Country Code": "ES", "Population": 30508.0, "Lat": 39.49139, "Lon": -0.46349}], "Manismata": [{"Name": "Manismata", "Country Code": "ID", "Population": 18888.0, "Lat": -2.46667, "Lon": 111.03333}], "Manistee": [{"Name": "Manistee", "Country Code": "US", "Population": 6084.0, "Lat": 44.24445, "Lon": -86.32425}], "Manistique": [{"Name": "Manistique", "Country Code": "US", "Population": 2982.0, "Lat": 45.95775, "Lon": -86.24625}], "Manito": [{"Name": "Manito", "Country Code": "PH", "Population": 3008.0, "Lat": 13.1235, "Lon": 123.8693}, {"Name": "Manito", "Country Code": "US", "Population": 1527.0, "Lat": 40.42587, "Lon": -89.77928}], "Manitou Beach-Devils Lake": [{"Name": "Manitou Beach-Devils Lake", "Country Code": "US", "Population": 2019.0, "Lat": 41.97565, "Lon": -84.28616}], "Manitou Springs": [{"Name": "Manitou Springs", "Country Code": "US", "Population": 5334.0, "Lat": 38.85971, "Lon": -104.9172}], "Manitouwadge": [{"Name": "Manitouwadge", "Country Code": "CA", "Population": 1708.0, "Lat": 49.12152, "Lon": -85.8403}], "Manitowoc": [{"Name": "Manitowoc", "Country Code": "US", "Population": 33010.0, "Lat": 44.08861, "Lon": -87.65758}], "Maniwa": [{"Name": "Maniwa", "Country Code": "JP", "Population": 0.0, "Lat": 35.10643, "Lon": 133.72009}], "Maniwaki": [{"Name": "Maniwaki", "Country Code": "CA", "Population": 4236.0, "Lat": 46.38341, "Lon": -75.96605}], "Manizales": [{"Name": "Manizales", "Country Code": "CO", "Population": 434403.0, "Lat": 5.06889, "Lon": -75.51738}], "Manja": [{"Name": "Manja", "Country Code": "MG", "Population": 0.0, "Lat": -21.43333, "Lon": 44.33333}], "Manjabalago": [{"Name": "Manjab\u00e1lago", "Country Code": "ES", "Population": 53.0, "Lat": 40.66441, "Lon": -5.07719}], "Manjacaze": [{"Name": "Manjacaze", "Country Code": "MZ", "Population": 11984.0, "Lat": -24.72389, "Lon": 33.85639}], "Manjai Kunda": [{"Name": "Manjai Kunda", "Country Code": "GM", "Population": 22327.0, "Lat": 13.44528, "Lon": -16.70278}], "Manjakandriana": [{"Name": "Manjakandriana", "Country Code": "MG", "Population": 23498.0, "Lat": -18.91667, "Lon": 47.8}], "Manjarres": [{"Name": "Manjarr\u00e9s", "Country Code": "ES", "Population": 127.0, "Lat": 42.39152, "Lon": -2.67512}], "Manjeri": [{"Name": "Manjeri", "Country Code": "IN", "Population": 89201.0, "Lat": 11.12018, "Lon": 76.11996}], "Manjeshvar": [{"Name": "Manj\u0113shvar", "Country Code": "IN", "Population": 8927.0, "Lat": 12.71287, "Lon": 74.88857}], "Manjhanpur": [{"Name": "Manjhanpur", "Country Code": "IN", "Population": 16939.0, "Lat": 25.53046, "Lon": 81.37566}], "Manjil": [{"Name": "Manj\u012bl", "Country Code": "IR", "Population": 15630.0, "Lat": 36.74445, "Lon": 49.40082}], "Manjimup": [{"Name": "Manjimup", "Country Code": "AU", "Population": 4291.0, "Lat": -34.24122, "Lon": 116.14564}], "Manjo": [{"Name": "Manjo", "Country Code": "CM", "Population": 41740.0, "Lat": 4.8428, "Lon": 9.8217}], "Manjoy": [{"Name": "Manjoy", "Country Code": "PH", "Population": 2172.0, "Lat": 11.3534, "Lon": 122.6663}], "Mank": [{"Name": "Mank", "Country Code": "AT", "Population": 2021.0, "Lat": 48.11024, "Lon": 15.33915}], "Mankachar": [{"Name": "Mank\u0101char", "Country Code": "IN", "Population": 31091.0, "Lat": 25.53347, "Lon": 89.86373}], "Mankapur": [{"Name": "Mank\u0101pur", "Country Code": "IN", "Population": 9746.0, "Lat": 27.05189, "Lon": 82.22961}], "Mankato": [{"Name": "Mankato", "Country Code": "US", "Population": 41044.0, "Lat": 44.15906, "Lon": -94.00915}, {"Name": "Mankato", "Country Code": "US", "Population": 840.0, "Lat": 39.78723, "Lon": -98.21005}], "Mankayan": [{"Name": "Mankayan", "Country Code": "PH", "Population": 15886.0, "Lat": 16.8632, "Lon": 120.7829}], "Mankera": [{"Name": "Mankera", "Country Code": "PK", "Population": 10819.0, "Lat": 31.38771, "Lon": 71.44047}], "Mankesim": [{"Name": "Mankesim", "Country Code": "GH", "Population": 41541.0, "Lat": 5.2717, "Lon": -1.0152}], "Mankivka": [{"Name": "Mankivka", "Country Code": "UA", "Population": 7634.0, "Lat": 48.96391, "Lon": 30.33626}], "Mankoeng": [{"Name": "Mankoeng", "Country Code": "ZA", "Population": 12499.0, "Lat": -23.9, "Lon": 29.81667}], "Mankono": [{"Name": "Mankono", "Country Code": "CI", "Population": 19597.0, "Lat": 8.05861, "Lon": -6.18972}], "Manlio Fabio Altamirano": [{"Name": "Manlio Fabio Altamirano", "Country Code": "MX", "Population": 1178.0, "Lat": 20.74728, "Lon": -97.32144}, {"Name": "Manlio Fabio Altamirano", "Country Code": "MX", "Population": 5283.0, "Lat": 19.09425, "Lon": -96.33351}], "Manlius": [{"Name": "Manlius", "Country Code": "US", "Population": 4630.0, "Lat": 43.00201, "Lon": -75.97686}], "Manlleu": [{"Name": "Manlleu", "Country Code": "ES", "Population": 20647.0, "Lat": 42.00228, "Lon": 2.28476}], "Manlucahoc": [{"Name": "Manlucahoc", "Country Code": "PH", "Population": 5004.0, "Lat": 9.7399, "Lon": 122.498}], "Manly": [{"Name": "Manly", "Country Code": "AU", "Population": 16170.0, "Lat": -33.79798, "Lon": 151.28826}, {"Name": "Manly", "Country Code": "US", "Population": 1310.0, "Lat": 43.28718, "Lon": -93.20215}], "Manly Vale": [{"Name": "Manly Vale", "Country Code": "AU", "Population": 6057.0, "Lat": -33.78457, "Lon": 151.262}], "Manly West": [{"Name": "Manly West", "Country Code": "AU", "Population": 11719.0, "Lat": -27.47382, "Lon": 153.16641}], "Manmad": [{"Name": "Manm\u0101d", "Country Code": "IN", "Population": 76722.0, "Lat": 20.25334, "Lon": 74.43755}], "Manmin": [{"Name": "Manmin", "Country Code": "CI", "Population": 1142.0, "Lat": 7.73222, "Lon": -4.80208}], "Manna": [{"Name": "Manna", "Country Code": "ID", "Population": 0.0, "Lat": -4.4651, "Lon": 102.90386}], "Mannarakkat": [{"Name": "Mann\u0101rakk\u0101t", "Country Code": "IN", "Population": 50921.0, "Lat": 10.99223, "Lon": 76.46418}], "Mannargudi": [{"Name": "Mannargudi", "Country Code": "IN", "Population": 63148.0, "Lat": 10.66626, "Lon": 79.45064}], "Mannering Park": [{"Name": "Mannering Park", "Country Code": "AU", "Population": 2430.0, "Lat": -33.1581, "Lon": 151.53477}], "Mannersdorf am Leithagebirge": [{"Name": "Mannersdorf am Leithagebirge", "Country Code": "AT", "Population": 3328.0, "Lat": 47.96667, "Lon": 16.6}], "Mannersdorf an der Rabnitz": [{"Name": "Mannersdorf an der Rabnitz", "Country Code": "AT", "Population": 568.0, "Lat": 47.42815, "Lon": 16.52678}], "Manneville-sur-Risle": [{"Name": "Manneville-sur-Risle", "Country Code": "FR", "Population": 1089.0, "Lat": 49.35173, "Lon": 0.54526}], "Mannford": [{"Name": "Mannford", "Country Code": "US", "Population": 3121.0, "Lat": 36.13341, "Lon": -96.35446}], "Mannheim": [{"Name": "Mannheim", "Country Code": "DE", "Population": 307960.0, "Lat": 49.4891, "Lon": 8.46694}], "Manning": [{"Name": "Manning", "Country Code": "AT", "Population": 122.0, "Lat": 48.08851, "Lon": 13.66682}, {"Name": "Manning", "Country Code": "AU", "Population": 4007.0, "Lat": -32.01594, "Lon": 115.86714}, {"Name": "Manning", "Country Code": "CA", "Population": 1359.0, "Lat": 56.92166, "Lon": -117.63117}, {"Name": "Manning", "Country Code": "US", "Population": 74.0, "Lat": 47.23001, "Lon": -102.77019}, {"Name": "Manning", "Country Code": "US", "Population": 1472.0, "Lat": 41.90915, "Lon": -95.06499}, {"Name": "Manning", "Country Code": "US", "Population": 4037.0, "Lat": 33.69516, "Lon": -80.21091}], "Manningham": [{"Name": "Manningham", "Country Code": "AU", "Population": 1302.0, "Lat": -34.87776, "Lon": 138.62206}], "Mannington": [{"Name": "Mannington", "Country Code": "US", "Population": 2077.0, "Lat": 39.53092, "Lon": -80.34342}], "Manningtree": [{"Name": "Manningtree", "Country Code": "GB", "Population": 5696.0, "Lat": 51.94538, "Lon": 1.06112}], "Mannsdorf an der Donau": [{"Name": "Mannsdorf an der Donau", "Country Code": "AT", "Population": 342.0, "Lat": 48.152, "Lon": 16.66506}], "Mannswoerth": [{"Name": "Mannsw\u00f6rth", "Country Code": "AT", "Population": 1948.0, "Lat": 48.14547, "Lon": 16.51374}], "Mannum": [{"Name": "Mannum", "Country Code": "AU", "Population": 2679.0, "Lat": -34.91529, "Lon": 139.30325}], "Mano": [{"Name": "Ma\u00f1o", "Country Code": "PH", "Population": 2737.0, "Lat": 11.04167, "Lon": 123.94472}], "Manoc-Manoc": [{"Name": "Manoc-Manoc", "Country Code": "PH", "Population": 5991.0, "Lat": 11.94157, "Lon": 121.94281}], "Manocalzati": [{"Name": "Manocalzati", "Country Code": "IT", "Population": 1211.0, "Lat": 40.94151, "Lon": 14.84767}], "Manoel Urbano": [{"Name": "Manoel Urbano", "Country Code": "BR", "Population": 4065.0, "Lat": -8.83889, "Lon": -69.25972}], "Manogay": [{"Name": "M\u0101\u1e49\u014dgay", "Country Code": "AF", "Population": 0.0, "Lat": 34.99015, "Lon": 70.91302}], "Manogpi": [{"Name": "Manogpi", "Country Code": "PH", "Population": 2683.0, "Lat": 13.3108, "Lon": 121.204}], "Manohar Thana": [{"Name": "Manohar Th\u0101na", "Country Code": "IN", "Population": 10100.0, "Lat": 24.24, "Lon": 76.80182}], "Manoharpur": [{"Name": "Manoharpur", "Country Code": "IN", "Population": 13189.0, "Lat": 22.37456, "Lon": 85.19234}, {"Name": "Manoharpur", "Country Code": "IN", "Population": 28928.0, "Lat": 27.29769, "Lon": 75.9495}], "Manokwari": [{"Name": "Manokwari", "Country Code": "ID", "Population": 107325.0, "Lat": -0.86291, "Lon": 134.06402}], "Manola": [{"Name": "Manola", "Country Code": "ID", "Population": 0.0, "Lat": -9.5639, "Lon": 119.2014}], "Manolada": [{"Name": "Manol\u00e1da", "Country Code": "GR", "Population": 1650.0, "Lat": 38.04708, "Lon": 21.34814}], "Manoleasa": [{"Name": "Manoleasa", "Country Code": "RO", "Population": 3705.0, "Lat": 47.98333, "Lon": 27.06667}], "Manolo Fortich": [{"Name": "Manolo Fortich", "Country Code": "PH", "Population": 27064.0, "Lat": 8.36972, "Lon": 124.86444}], "Manom": [{"Name": "Manom", "Country Code": "FR", "Population": 2822.0, "Lat": 49.37092, "Lon": 6.18345}], "Manon": [{"Name": "Ma\u00f1\u00f3n", "Country Code": "ES", "Population": 0.0, "Lat": 43.65, "Lon": -7.73333}], "Manonjaya": [{"Name": "Manonjaya", "Country Code": "ID", "Population": 0.0, "Lat": -7.3509, "Lon": 108.3087}], "Manono": [{"Name": "Manono", "Country Code": "CD", "Population": 82465.0, "Lat": -7.29862, "Lon": 27.39894}], "Manoora": [{"Name": "Manoora", "Country Code": "AU", "Population": 6089.0, "Lat": -16.91706, "Lon": 145.73665}], "Manoppello": [{"Name": "Manoppello", "Country Code": "IT", "Population": 889.0, "Lat": 42.25918, "Lon": 14.06024}], "Manoppello Scalo": [{"Name": "Manoppello Scalo", "Country Code": "IT", "Population": 3641.0, "Lat": 42.30762, "Lon": 14.05363}], "Manor": [{"Name": "Manor", "Country Code": "IN", "Population": 8918.0, "Lat": 19.7244, "Lon": 72.90966}, {"Name": "Manor", "Country Code": "US", "Population": 7587.0, "Lat": 30.34076, "Lon": -97.55695}, {"Name": "Manor", "Country Code": "US", "Population": 3299.0, "Lat": 40.33396, "Lon": -79.67004}], "Manor Park": [{"Name": "Manor Park", "Country Code": "GB", "Population": 15318.0, "Lat": 51.54932, "Lon": 0.04867}], "Manorbier": [{"Name": "Manorbier", "Country Code": "GB", "Population": 0.0, "Lat": 51.64614, "Lon": -4.79901}], "Manorhamilton": [{"Name": "Manorhamilton", "Country Code": "IE", "Population": 1466.0, "Lat": 54.30639, "Lon": -8.17611}], "Manorhaven": [{"Name": "Manorhaven", "Country Code": "US", "Population": 6744.0, "Lat": 40.84316, "Lon": -73.71485}], "Manorom": [{"Name": "Manorom", "Country Code": "TH", "Population": 0.0, "Lat": 15.30997, "Lon": 100.08283}], "Manorota": [{"Name": "Manorota", "Country Code": "CI", "Population": 3107.0, "Lat": 9.21105, "Lon": -4.53962}], "Manorville": [{"Name": "Manorville", "Country Code": "US", "Population": 14314.0, "Lat": 40.87371, "Lon": -72.80788}], "Manosque": [{"Name": "Manosque", "Country Code": "FR", "Population": 21351.0, "Lat": 43.82883, "Lon": 5.78688}], "Manouba": [{"Name": "Manouba", "Country Code": "TN", "Population": 24948.0, "Lat": 36.81006, "Lon": 10.09557}], "Manoufla": [{"Name": "Manoufla", "Country Code": "CI", "Population": 7818.0, "Lat": 6.6195, "Lon": -5.62714}], "Manowa": [{"Name": "Manowa", "Country Code": "SL", "Population": 4214.0, "Lat": 8.17392, "Lon": -10.74834}], "Manp'o": [{"Name": "Manp\u2019o", "Country Code": "KP", "Population": 116760.0, "Lat": 41.15472, "Lon": 126.28944}], "Manpur": [{"Name": "M\u0101npur", "Country Code": "IN", "Population": 6636.0, "Lat": 22.43151, "Lon": 75.62107}], "Manquillos": [{"Name": "Manquillos", "Country Code": "ES", "Population": 62.0, "Lat": 42.20518, "Lon": -4.56841}], "Manquiring": [{"Name": "Manquiring", "Country Code": "PH", "Population": 3767.0, "Lat": 13.7341, "Lon": 123.269}], "Manresa": [{"Name": "Manresa", "Country Code": "ES", "Population": 76250.0, "Lat": 41.72815, "Lon": 1.82399}], "Mansa": [{"Name": "M\u0101nsa", "Country Code": "IN", "Population": 80018.0, "Lat": 29.98844, "Lon": 75.40167}, {"Name": "M\u0101nsa", "Country Code": "IN", "Population": 29551.0, "Lat": 23.42564, "Lon": 72.65739}, {"Name": "Mansa", "Country Code": "ZM", "Population": 42277.0, "Lat": -11.19976, "Lon": 28.89431}], "Mansa Konko": [{"Name": "Mansa Konko", "Country Code": "GM", "Population": 1978.0, "Lat": 13.44325, "Lon": -15.5357}], "Mansaba": [{"Name": "Mansab\u00e1", "Country Code": "GW", "Population": 5964.0, "Lat": 12.29194, "Lon": -15.18278}], "Mansac": [{"Name": "Mansac", "Country Code": "FR", "Population": 1339.0, "Lat": 45.16839, "Lon": 1.38342}], "Mansalay": [{"Name": "Mansalay", "Country Code": "PH", "Population": 23044.0, "Lat": 12.52044, "Lon": 121.43851}], "Mansar": [{"Name": "Mansar", "Country Code": "IN", "Population": 6901.0, "Lat": 21.39602, "Lon": 79.2635}], "Manschnow": [{"Name": "Manschnow", "Country Code": "DE", "Population": 1200.0, "Lat": 52.5499, "Lon": 14.55332}], "Mansehra": [{"Name": "Mansehra", "Country Code": "PK", "Population": 66486.0, "Lat": 34.33023, "Lon": 73.19679}], "Mansfeld": [{"Name": "Mansfeld", "Country Code": "DE", "Population": 3501.0, "Lat": 51.59234, "Lon": 11.45223}], "Mansfield": [{"Name": "Mansfield", "Country Code": "AU", "Population": 8588.0, "Lat": -27.53929, "Lon": 153.09895}, {"Name": "Mansfield", "Country Code": "AU", "Population": 4844.0, "Lat": -37.052, "Lon": 146.08846}, {"Name": "Mansfield", "Country Code": "GB", "Population": 171958.0, "Lat": 53.13333, "Lon": -1.2}, {"Name": "Mansfield", "Country Code": "US", "Population": 1261.0, "Lat": 37.10672, "Lon": -92.58072}, {"Name": "Mansfield", "Country Code": "US", "Population": 23380.0, "Lat": 42.03343, "Lon": -71.21894}, {"Name": "Mansfield", "Country Code": "US", "Population": 46830.0, "Lat": 40.75839, "Lon": -82.51545}, {"Name": "Mansfield", "Country Code": "US", "Population": 4946.0, "Lat": 32.03766, "Lon": -93.70018}, {"Name": "Mansfield", "Country Code": "US", "Population": 64274.0, "Lat": 32.56319, "Lon": -97.14168}, {"Name": "Mansfield", "Country Code": "US", "Population": 3432.0, "Lat": 41.8073, "Lon": -77.07747}, {"Name": "Mansfield", "Country Code": "US", "Population": 1096.0, "Lat": 35.05954, "Lon": -94.25271}], "Mansfield Center": [{"Name": "Mansfield Center", "Country Code": "US", "Population": 7360.0, "Lat": 42.02262, "Lon": -71.21808}], "Mansfield City": [{"Name": "Mansfield City", "Country Code": "US", "Population": 26439.0, "Lat": 41.76593, "Lon": -72.23369}], "Mansfield Park": [{"Name": "Mansfield Park", "Country Code": "AU", "Population": 4136.0, "Lat": -34.85655, "Lon": 138.55186}], "Mansfield Woodhouse": [{"Name": "Mansfield Woodhouse", "Country Code": "GB", "Population": 18330.0, "Lat": 53.16495, "Lon": -1.19384}], "Manshiyat Bani Hasan": [{"Name": "Mansh\u012byat Ban\u012b \u1e28asan", "Country Code": "JO", "Population": 0.0, "Lat": 32.37066, "Lon": 36.07933}], "Manshiyat al Qanatir": [{"Name": "Mansh\u012byat al Qan\u0101\u0163ir", "Country Code": "EG", "Population": 19185.0, "Lat": 30.18479, "Lon": 31.10649}], "Manshiyet Zabda": [{"Name": "Mansh\u012byet Zabda", "Country Code": "IL", "Population": 1389.0, "Lat": 32.70638, "Lon": 35.19354}], "Mansigne": [{"Name": "Mansign\u00e9", "Country Code": "FR", "Population": 1411.0, "Lat": 47.74759, "Lon": 0.13507}], "Mansilingan": [{"Name": "Mansilingan", "Country Code": "PH", "Population": 454150.0, "Lat": 10.63111, "Lon": 122.97889}], "Mansilla Mayor": [{"Name": "Mansilla Mayor", "Country Code": "ES", "Population": 380.0, "Lat": 42.50943, "Lon": -5.44271}], "Mansilla de las Mulas": [{"Name": "Mansilla de las Mulas", "Country Code": "ES", "Population": 1847.0, "Lat": 42.49886, "Lon": -5.41738}], "Mansle": [{"Name": "Mansle", "Country Code": "FR", "Population": 1656.0, "Lat": 45.876, "Lon": 0.17838}], "Mansoa": [{"Name": "Mans\u00f4a", "Country Code": "GW", "Population": 9422.0, "Lat": 12.07333, "Lon": -15.31889}], "Manson": [{"Name": "Manson", "Country Code": "US", "Population": 1615.0, "Lat": 42.52914, "Lon": -94.53414}, {"Name": "Manson", "Country Code": "US", "Population": 1468.0, "Lat": 47.88486, "Lon": -120.15841}], "Mansoura": [{"Name": "Manso\u00fbra", "Country Code": "DZ", "Population": 52285.0, "Lat": 34.86158, "Lon": -1.33935}], "Mansourah": [{"Name": "Mansourah", "Country Code": "DZ", "Population": 22117.0, "Lat": 36.08725, "Lon": 4.45192}], "Manston": [{"Name": "Manston", "Country Code": "GB", "Population": 5261.0, "Lat": 50.95, "Lon": -2.26667}], "Mansue": [{"Name": "Mansu\u00e8", "Country Code": "IT", "Population": 2937.0, "Lat": 45.82118, "Lon": 12.5351}], "Mansura": [{"Name": "Mansura", "Country Code": "US", "Population": 1385.0, "Lat": 31.05797, "Lon": -92.04901}], "Mansurlu": [{"Name": "Mansurlu", "Country Code": "TR", "Population": 0.0, "Lat": 37.84853, "Lon": 35.65436}], "Manta": [{"Name": "Manta", "Country Code": "CO", "Population": 1410.0, "Lat": 5.00864, "Lon": -73.54115}, {"Name": "Manta", "Country Code": "EC", "Population": 264281.0, "Lat": -0.96212, "Lon": -80.71271}, {"Name": "Manta", "Country Code": "IT", "Population": 3372.0, "Lat": 44.61583, "Lon": 7.48703}], "Manta Rota": [{"Name": "Manta Rota", "Country Code": "PT", "Population": 1200.0, "Lat": 37.16849, "Lon": -7.51804}], "Mantachie": [{"Name": "Mantachie", "Country Code": "US", "Population": 1138.0, "Lat": 34.32427, "Lon": -88.49116}], "Mantalongon": [{"Name": "Mantalongon", "Country Code": "PH", "Population": 6070.0, "Lat": 9.8106, "Lon": 123.4617}, {"Name": "Mantalongon", "Country Code": "PH", "Population": 2274.0, "Lat": 10.126, "Lon": 123.5808}], "Mantamados": [{"Name": "Mantam\u00e1dos", "Country Code": "GR", "Population": 1120.0, "Lat": 39.31003, "Lon": 26.33629}], "Mantampay": [{"Name": "Mantampay", "Country Code": "PH", "Population": 265032.0, "Lat": 8.16667, "Lon": 124.21667}], "Mantang": [{"Name": "Mantang", "Country Code": "ID", "Population": 0.0, "Lat": -8.6155, "Lon": 116.3137}, {"Name": "Mantang", "Country Code": "PH", "Population": 2081.0, "Lat": 11.87, "Lon": 125.42833}], "Mantasoa": [{"Name": "Mantasoa", "Country Code": "MG", "Population": 10000.0, "Lat": -19.01667, "Lon": 47.83333}], "Manteca": [{"Name": "Manteca", "Country Code": "US", "Population": 75448.0, "Lat": 37.79743, "Lon": -121.21605}], "Mantegazza": [{"Name": "Mantegazza", "Country Code": "IT", "Population": 1479.0, "Lat": 45.50946, "Lon": 8.97321}], "Manteigas": [{"Name": "Manteigas", "Country Code": "PT", "Population": 3900.0, "Lat": 40.4028, "Lon": -7.53977}], "Mantel": [{"Name": "Mantel", "Country Code": "DE", "Population": 2951.0, "Lat": 49.65412, "Lon": 12.04074}], "Mantello": [{"Name": "Mantello", "Country Code": "IT", "Population": 622.0, "Lat": 46.15249, "Lon": 9.48894}], "Manteno": [{"Name": "Manteno", "Country Code": "US", "Population": 8999.0, "Lat": 41.25059, "Lon": -87.83143}], "Mantenopolis": [{"Name": "Manten\u00f3polis", "Country Code": "BR", "Population": 8547.0, "Lat": -18.8625, "Lon": -41.12278}], "Manteo": [{"Name": "Manteo", "Country Code": "US", "Population": 1388.0, "Lat": 35.90823, "Lon": -75.67573}], "Manternach": [{"Name": "Manternach", "Country Code": "LU", "Population": 443.0, "Lat": 49.70278, "Lon": 6.42639}], "Mantes-la-Jolie": [{"Name": "Mantes-la-Jolie", "Country Code": "FR", "Population": 44263.0, "Lat": 48.99048, "Lon": 1.7167}], "Mantes-la-Ville": [{"Name": "Mantes-la-Ville", "Country Code": "FR", "Population": 19947.0, "Lat": 48.97374, "Lon": 1.70253}], "Mantgum": [{"Name": "Mantgum", "Country Code": "NL", "Population": 1105.0, "Lat": 53.12865, "Lon": 5.71924}], "Manthani": [{"Name": "Manthani", "Country Code": "IN", "Population": 15661.0, "Lat": 18.65087, "Lon": 79.66501}], "Manthelan": [{"Name": "Manthelan", "Country Code": "FR", "Population": 1198.0, "Lat": 47.13632, "Lon": 0.79319}], "Manti": [{"Name": "Manti", "Country Code": "US", "Population": 3353.0, "Lat": 39.2683, "Lon": -111.63686}], "Manticao": [{"Name": "Manticao", "Country Code": "PH", "Population": 7956.0, "Lat": 8.40417, "Lon": 124.28667}], "Mantiel": [{"Name": "Mantiel", "Country Code": "ES", "Population": 73.0, "Lat": 40.61892, "Lon": -2.66324}], "Mantiglia di Ardea": [{"Name": "Mantiglia di Ardea", "Country Code": "IT", "Population": 1130.0, "Lat": 41.67685, "Lon": 12.61453}], "Mantignana": [{"Name": "Mantignana", "Country Code": "IT", "Population": 2053.0, "Lat": 43.15992, "Lon": 12.28855}], "Mantignano-Ugnano": [{"Name": "Mantignano-Ugnano", "Country Code": "IT", "Population": 2893.0, "Lat": 43.782, "Lon": 11.16958}], "Mantin Heights": [{"Name": "Mantin Heights", "Country Code": "HK", "Population": 3189.0, "Lat": 22.31926, "Lon": 114.18187}], "Mantinos": [{"Name": "Mantinos", "Country Code": "ES", "Population": 169.0, "Lat": 42.75259, "Lon": -4.84213}], "Mantiquil": [{"Name": "Mantiquil", "Country Code": "PH", "Population": 2281.0, "Lat": 9.16667, "Lon": 123.05}], "Manto": [{"Name": "Manto", "Country Code": "HN", "Population": 1098.0, "Lat": 14.91667, "Lon": -86.38333}], "Manto del Rio Ejido": [{"Name": "Manto del R\u00edo Ejido", "Country Code": "MX", "Population": 1250.0, "Lat": 19.84008, "Lon": -99.92729}], "Manton": [{"Name": "Manton", "Country Code": "GB", "Population": 0.0, "Lat": 53.5136, "Lon": -0.59438}, {"Name": "Manton", "Country Code": "GB", "Population": 359.0, "Lat": 52.63223, "Lon": -0.70038}, {"Name": "Manton", "Country Code": "US", "Population": 1371.0, "Lat": 44.41084, "Lon": -85.39894}], "Mantongouine": [{"Name": "Mantongouin\u00e9", "Country Code": "CI", "Population": 5553.0, "Lat": 7.28782, "Lon": -8.03824}], "Mantorp": [{"Name": "Mantorp", "Country Code": "SE", "Population": 3781.0, "Lat": 58.35, "Lon": 15.28333}], "Mantorville": [{"Name": "Mantorville", "Country Code": "US", "Population": 1200.0, "Lat": 44.06913, "Lon": -92.75575}], "Mantoudi": [{"Name": "Manto\u00fadi", "Country Code": "GR", "Population": 1794.0, "Lat": 38.79808, "Lon": 23.47967}], "Mantoukoua": [{"Name": "Mantoukoua", "Country Code": "CI", "Population": 1300.0, "Lat": 7.72184, "Lon": -2.89892}], "Mantova": [{"Name": "Mantova", "Country Code": "IT", "Population": 39260.0, "Lat": 45.16031, "Lon": 10.79784}], "Mantsebo": [{"Name": "Mantsebo", "Country Code": "LS", "Population": 9216.0, "Lat": -29.48333, "Lon": 27.51667}], "Mantsonyane": [{"Name": "Mantsonyane", "Country Code": "LS", "Population": 5965.0, "Lat": -29.53317, "Lon": 28.26991}], "Mantua": [{"Name": "Mantua", "Country Code": "CU", "Population": 10797.0, "Lat": 22.29058, "Lon": -84.28599}, {"Name": "Mantua", "Country Code": "US", "Population": 1008.0, "Lat": 40.07785, "Lon": -81.67901}, {"Name": "Mantua", "Country Code": "US", "Population": 7135.0, "Lat": 38.85372, "Lon": -77.25943}, {"Name": "Mantua", "Country Code": "US", "Population": 1021.0, "Lat": 41.28394, "Lon": -81.22399}], "Manturovo": [{"Name": "Manturovo", "Country Code": "RU", "Population": 18817.0, "Lat": 58.32582, "Lon": 44.75881}, {"Name": "Manturovo", "Country Code": "RU", "Population": 2755.0, "Lat": 51.45471, "Lon": 37.12848}], "Manuangan": [{"Name": "Manuangan", "Country Code": "PH", "Population": 4422.0, "Lat": 7.27694, "Lon": 124.40444}], "Manubul": [{"Name": "Manubul", "Country Code": "PH", "Population": 4736.0, "Lat": 5.4732, "Lon": 120.7986}], "Manuel": [{"Name": "Manuel", "Country Code": "ES", "Population": 2497.0, "Lat": 39.05059, "Lon": -0.48978}], "Manuel Antonio Mesones Muro": [{"Name": "Manuel Antonio Mesones Muro", "Country Code": "PE", "Population": 0.0, "Lat": -6.64361, "Lon": -79.73806}], "Manuel Avila Camacho": [{"Name": "Manuel \u00c1vila Camacho", "Country Code": "MX", "Population": 1362.0, "Lat": 16.14647, "Lon": -93.01701}, {"Name": "Manuel \u00c1vila Camacho", "Country Code": "MX", "Population": 2738.0, "Lat": 20.11194, "Lon": -98.70694}], "Manuel Avila Camacho (Ponte Duro)": [{"Name": "Manuel \u00c1vila Camacho (Ponte Duro)", "Country Code": "MX", "Population": 1778.0, "Lat": 15.80973, "Lon": -93.58933}], "Manuel Edgardo Avalos (San Isidro)": [{"Name": "Manuel Edgardo \u00c1valos (San Isidro)", "Country Code": "MX", "Population": 1056.0, "Lat": 19.06778, "Lon": -97.39194}], "Manuel Lazos": [{"Name": "Manuel Lazos", "Country Code": "MX", "Population": 1826.0, "Lat": 14.97159, "Lon": -92.18726}], "Manuel Leon": [{"Name": "Manuel Le\u00f3n", "Country Code": "MX", "Population": 2295.0, "Lat": 18.85365, "Lon": -96.87124}], "Manuel Maria Contreras": [{"Name": "Manuel Mar\u00eda Contreras", "Country Code": "MX", "Population": 2235.0, "Lat": 20.44617, "Lon": -97.48329}], "Manuel Ojinaga": [{"Name": "Manuel Ojinaga", "Country Code": "MX", "Population": 22744.0, "Lat": 29.56444, "Lon": -104.41639}], "Manuel Roxas": [{"Name": "Manuel Roxas", "Country Code": "PH", "Population": 4482.0, "Lat": 6.44173, "Lon": 124.66605}], "Manuel Villalongin": [{"Name": "Manuel Villalong\u00edn", "Country Code": "MX", "Population": 1906.0, "Lat": 20.2375, "Lon": -101.52667}], "Manuguru": [{"Name": "Manuguru", "Country Code": "IN", "Population": 32539.0, "Lat": 17.93023, "Lon": 80.82671}], "Manujan": [{"Name": "Man\u016bj\u0101n", "Country Code": "IR", "Population": 0.0, "Lat": 27.40698, "Lon": 57.50128}], "Manuk Mangkaw": [{"Name": "Manuk Mangkaw", "Country Code": "PH", "Population": 4981.0, "Lat": 4.8, "Lon": 119.85}], "Manukan": [{"Name": "Manukan", "Country Code": "PH", "Population": 11523.0, "Lat": 8.53333, "Lon": 123.1}], "Manukau City": [{"Name": "Manukau City", "Country Code": "NZ", "Population": 362000.0, "Lat": -36.99282, "Lon": 174.87986}], "Manunda": [{"Name": "Manunda", "Country Code": "AU", "Population": 5638.0, "Lat": -16.91721, "Lon": 145.7492}], "Manunggulama": [{"Name": "Manunggulama", "Country Code": "ID", "Population": 0.0, "Lat": -2.5142, "Lon": 116.1656}], "Manup": [{"Name": "Manup", "Country Code": "PH", "Population": 2433.0, "Lat": 11.5315, "Lon": 122.498}], "Manurewa": [{"Name": "Manurewa", "Country Code": "NZ", "Population": 21590.0, "Lat": -37.0182, "Lon": 174.88019}], "Manurewa East": [{"Name": "Manurewa East", "Country Code": "NZ", "Population": 2907.0, "Lat": -37.0182, "Lon": 174.91019}], "Manutuke": [{"Name": "Manutuke", "Country Code": "NZ", "Population": 1128.0, "Lat": -38.68333, "Lon": 177.91667}], "Manvel": [{"Name": "Manvel", "Country Code": "US", "Population": 7950.0, "Lat": 29.46274, "Lon": -95.35799}], "Manvi": [{"Name": "M\u0101nvi", "Country Code": "IN", "Population": 41647.0, "Lat": 15.99126, "Lon": 77.05034}], "Manville": [{"Name": "Manville", "Country Code": "US", "Population": 10429.0, "Lat": 40.54094, "Lon": -74.58766}], "Manwat": [{"Name": "M\u0101nwat", "Country Code": "IN", "Population": 30624.0, "Lat": 19.30133, "Lon": 76.49735}], "Many": [{"Name": "M\u00e1ny", "Country Code": "HU", "Population": 2294.0, "Lat": 47.53352, "Lon": 18.65627}, {"Name": "Many", "Country Code": "US", "Population": 2790.0, "Lat": 31.56878, "Lon": -93.48406}], "Many Farms": [{"Name": "Many Farms", "Country Code": "US", "Population": 1348.0, "Lat": 36.35278, "Lon": -109.61789}], "Manyana": [{"Name": "Manyana", "Country Code": "BW", "Population": 3338.0, "Lat": -24.77361, "Lon": 25.59278}], "Manyas": [{"Name": "Manyas", "Country Code": "TR", "Population": 5327.0, "Lat": 40.04639, "Lon": 27.97}], "Manyerekoro": [{"Name": "Many\u00e9r\u00e9koro", "Country Code": "CI", "Population": 1823.0, "Lat": 8.0688, "Lon": -6.08606}], "Manyue": [{"Name": "Manyue", "Country Code": "CN", "Population": 10057.0, "Lat": 31.61941, "Lon": 108.56406}], "Manzalesti": [{"Name": "M\u00e2nz\u0103le\u015fti", "Country Code": "RO", "Population": 0.0, "Lat": 45.5, "Lon": 26.65}], "Manzana Quinta (La Canada)": [{"Name": "Manzana Quinta (La Ca\u00f1ada)", "Country Code": "MX", "Population": 2393.0, "Lat": 19.54222, "Lon": -99.6025}], "Manzana Segunda": [{"Name": "Manzana Segunda", "Country Code": "MX", "Population": 1064.0, "Lat": 19.56722, "Lon": -99.59389}], "Manzana Sexta Parte Centro": [{"Name": "Manzana Sexta Parte Centro", "Country Code": "MX", "Population": 1759.0, "Lat": 19.5275, "Lon": -99.60528}], "Manzana Tercera de Santa Cruz Tepexpan": [{"Name": "Manzana Tercera de Santa Cruz Tepexpan", "Country Code": "MX", "Population": 3753.0, "Lat": 19.56917, "Lon": -99.70361}], "Manzana de San Luis": [{"Name": "Manzana de San Luis", "Country Code": "MX", "Population": 2996.0, "Lat": 19.56236, "Lon": -100.27703}], "Manzana la Cofradia": [{"Name": "Manzana la Cofrad\u00eda", "Country Code": "MX", "Population": 1040.0, "Lat": 19.54944, "Lon": -100.35583}], "Manzanal de Arriba": [{"Name": "Manzanal de Arriba", "Country Code": "ES", "Population": 429.0, "Lat": 41.99217, "Lon": -6.44012}], "Manzanal de los Infantes": [{"Name": "Manzanal de los Infantes", "Country Code": "ES", "Population": 178.0, "Lat": 42.05428, "Lon": -6.38288}], "Manzanal del Barco": [{"Name": "Manzanal del Barco", "Country Code": "ES", "Population": 194.0, "Lat": 41.63501, "Lon": -5.94671}], "Manzanares": [{"Name": "Manzanares", "Country Code": "CO", "Population": 16532.0, "Lat": 5.25397, "Lon": -75.15403}, {"Name": "Manzanares", "Country Code": "ES", "Population": 19186.0, "Lat": 38.99915, "Lon": -3.36991}], "Manzanares de Rioja": [{"Name": "Manzanares de Rioja", "Country Code": "ES", "Population": 99.0, "Lat": 42.3961, "Lon": -2.8959}], "Manzanares el Real": [{"Name": "Manzanares el Real", "Country Code": "ES", "Population": 6231.0, "Lat": 40.72627, "Lon": -3.86265}], "Manzaneda": [{"Name": "Manzaneda", "Country Code": "ES", "Population": 1139.0, "Lat": 42.30962, "Lon": -7.23209}], "Manzaneque": [{"Name": "Manzaneque", "Country Code": "ES", "Population": 523.0, "Lat": 39.63549, "Lon": -3.79249}], "Manzanera": [{"Name": "Manzanera", "Country Code": "ES", "Population": 460.0, "Lat": 40.05, "Lon": -0.83333}], "Manzanilla": [{"Name": "Manzanilla", "Country Code": "ES", "Population": 2408.0, "Lat": 37.38987, "Lon": -6.43295}], "Manzanillo": [{"Name": "Manzanillo", "Country Code": "CU", "Population": 128188.0, "Lat": 20.34173, "Lon": -77.12126}, {"Name": "Manzanillo", "Country Code": "ES", "Population": 46.0, "Lat": 41.58617, "Lon": -4.18826}, {"Name": "Manzanillo", "Country Code": "MX", "Population": 159853.0, "Lat": 19.11695, "Lon": -104.34214}], "Manzano": [{"Name": "Manzano", "Country Code": "IT", "Population": 5168.0, "Lat": 45.98843, "Lon": 13.37674}], "Manzanoua": [{"Name": "Manzanoua", "Country Code": "CI", "Population": 13224.0, "Lat": 6.84346, "Lon": -3.28625}], "Manzat": [{"Name": "Manzat", "Country Code": "FR", "Population": 1377.0, "Lat": 45.9616, "Lon": 2.9414}], "Manze": [{"Name": "Manz\u00eb", "Country Code": "AL", "Population": 0.0, "Lat": 41.42861, "Lon": 19.59306}], "Manzherok": [{"Name": "Manzherok", "Country Code": "RU", "Population": 1700.0, "Lat": 51.83028, "Lon": 85.775}], "Manzhouli": [{"Name": "Manzhouli", "Country Code": "CN", "Population": 54808.0, "Lat": 49.6, "Lon": 117.43333}], "Manziana": [{"Name": "Manziana", "Country Code": "IT", "Population": 6125.0, "Lat": 42.12998, "Lon": 12.12537}], "Manziat": [{"Name": "Manziat", "Country Code": "FR", "Population": 1759.0, "Lat": 46.36125, "Lon": 4.9058}], "Manzini": [{"Name": "Manzini", "Country Code": "SZ", "Population": 110537.0, "Lat": -26.49884, "Lon": 31.38004}], "Manzolino": [{"Name": "Manzolino", "Country Code": "IT", "Population": 1569.0, "Lat": 44.59577, "Lon": 11.09982}], "Manzurka": [{"Name": "Manzurka", "Country Code": "RU", "Population": 1004.0, "Lat": 53.48556, "Lon": 106.05444}], "Manzya": [{"Name": "Manzya", "Country Code": "RU", "Population": 2298.0, "Lat": 58.49222, "Lon": 96.26167}], "Mao": [{"Name": "Mao", "Country Code": "DO", "Population": 48297.0, "Lat": 19.55186, "Lon": -71.07813}, {"Name": "Ma\u00f3", "Country Code": "ES", "Population": 29125.0, "Lat": 39.88853, "Lon": 4.26583}, {"Name": "Mao", "Country Code": "TD", "Population": 50681.0, "Lat": 14.12286, "Lon": 15.31189}], "Maoba": [{"Name": "Maoba", "Country Code": "CN", "Population": 7762.0, "Lat": 29.10521, "Lon": 108.90006}], "Maocun": [{"Name": "Maocun", "Country Code": "CN", "Population": 57649.0, "Lat": 34.37667, "Lon": 117.25056}], "Maogong": [{"Name": "Maogong", "Country Code": "CN", "Population": 12109.0, "Lat": 26.14611, "Lon": 108.86083}], "Maoming": [{"Name": "Maoming", "Country Code": "CN", "Population": 1307802.0, "Lat": 21.66625, "Lon": 110.91364}], "Maonon": [{"Name": "Maonon", "Country Code": "PH", "Population": 2942.0, "Lat": 13.03643, "Lon": 123.37074}], "Maoping": [{"Name": "Maoping", "Country Code": "CN", "Population": 2800.0, "Lat": 26.51972, "Lon": 110.41194}, {"Name": "Maoping", "Country Code": "CN", "Population": 0.0, "Lat": 30.82972, "Lon": 110.97778}, {"Name": "Maoping", "Country Code": "CN", "Population": 1123.0, "Lat": 26.73694, "Lon": 109.22111}], "Maori Hill": [{"Name": "Maori Hill", "Country Code": "NZ", "Population": 2550.0, "Lat": -45.85838, "Lon": 170.4901}], "Maoribank": [{"Name": "Maoribank", "Country Code": "NZ", "Population": 3550.0, "Lat": -41.10827, "Lon": 175.0902}], "Mapachapa": [{"Name": "Mapachapa", "Country Code": "MX", "Population": 3446.0, "Lat": 18.02979, "Lon": -94.567}], "Mapalacsiao": [{"Name": "Mapalacsiao", "Country Code": "PH", "Population": 5419.0, "Lat": 15.42831, "Lon": 120.65252}], "Mapalad": [{"Name": "Mapalad", "Country Code": "PH", "Population": 3353.0, "Lat": 15.45133, "Lon": 121.08384}], "Mapanas": [{"Name": "Mapanas", "Country Code": "PH", "Population": 3574.0, "Lat": 12.47502, "Lon": 125.25621}], "Mapandan": [{"Name": "Mapandan", "Country Code": "PH", "Population": 11165.0, "Lat": 16.0248, "Lon": 120.4547}], "Mapaniqui": [{"Name": "Mapaniqui", "Country Code": "PH", "Population": 4200.0, "Lat": 15.10696, "Lon": 120.92287}], "Mapastepec": [{"Name": "Mapastepec", "Country Code": "MX", "Population": 17931.0, "Lat": 15.43358, "Lon": -92.90039}], "Mapello": [{"Name": "Mapello", "Country Code": "IT", "Population": 4878.0, "Lat": 45.71259, "Lon": 9.55443}], "Mapholaneng": [{"Name": "Mapholaneng", "Country Code": "LS", "Population": 3739.0, "Lat": -29.20026, "Lon": 28.86802}], "Mapili": [{"Name": "Mapili", "Country Code": "PH", "Population": 2104.0, "Lat": 11.1081, "Lon": 122.7393}], "Mapimi": [{"Name": "Mapim\u00ed", "Country Code": "MX", "Population": 5623.0, "Lat": 25.8338, "Lon": -103.8461}], "Mapina": [{"Name": "Mapina", "Country Code": "CI", "Population": 1214.0, "Lat": 9.42748, "Lon": -4.38757}], "Mapingcun": [{"Name": "Mapingcun", "Country Code": "CN", "Population": 3590.0, "Lat": 24.68778, "Lon": 118.5558}], "Mapire": [{"Name": "Mapire", "Country Code": "VE", "Population": 0.0, "Lat": 7.74085, "Lon": -64.71047}], "Mapiri": [{"Name": "Mapiri", "Country Code": "BO", "Population": 2597.0, "Lat": -15.25, "Lon": -68.16667}], "Mapiripan": [{"Name": "Mapirip\u00e1n", "Country Code": "CO", "Population": 6036.0, "Lat": 2.89115, "Lon": -72.13328}], "Maple Bluff": [{"Name": "Maple Bluff", "Country Code": "US", "Population": 1340.0, "Lat": 43.11833, "Lon": -89.37956}], "Maple Creek": [{"Name": "Maple Creek", "Country Code": "CA", "Population": 2121.0, "Lat": 49.90628, "Lon": -109.48094}], "Maple Cross": [{"Name": "Maple Cross", "Country Code": "GB", "Population": 2427.0, "Lat": 51.625, "Lon": -0.508}], "Maple Glen": [{"Name": "Maple Glen", "Country Code": "US", "Population": 7635.0, "Lat": 40.01563, "Lon": -79.97672}, {"Name": "Maple Glen", "Country Code": "US", "Population": 6742.0, "Lat": 40.17928, "Lon": -75.18045}], "Maple Grove": [{"Name": "Maple Grove", "Country Code": "US", "Population": 68385.0, "Lat": 45.07246, "Lon": -93.45579}], "Maple Heights": [{"Name": "Maple Heights", "Country Code": "US", "Population": 22631.0, "Lat": 41.41533, "Lon": -81.56596}], "Maple Heights-Lake Desire": [{"Name": "Maple Heights-Lake Desire", "Country Code": "US", "Population": 3152.0, "Lat": 47.44413, "Lon": -122.09736}], "Maple Lake": [{"Name": "Maple Lake", "Country Code": "US", "Population": 2092.0, "Lat": 45.22913, "Lon": -94.00192}], "Maple Leaf": [{"Name": "Maple Leaf", "Country Code": "CA", "Population": 10111.0, "Lat": 43.71557, "Lon": -79.48076}], "Maple Park": [{"Name": "Maple Park", "Country Code": "US", "Population": 1308.0, "Lat": 41.90753, "Lon": -88.59925}], "Maple Plain": [{"Name": "Maple Plain", "Country Code": "US", "Population": 1785.0, "Lat": 45.00719, "Lon": -93.65579}], "Maple Ridge": [{"Name": "Maple Ridge", "Country Code": "CA", "Population": 1711.0, "Lat": 53.50172, "Lon": -113.36274}, {"Name": "Maple Ridge", "Country Code": "CA", "Population": 82256.0, "Lat": 49.21939, "Lon": -122.60193}], "Maple Shade": [{"Name": "Maple Shade", "Country Code": "US", "Population": 19077.0, "Lat": 39.95261, "Lon": -74.99239}], "Maple Valley": [{"Name": "Maple Valley", "Country Code": "US", "Population": 25686.0, "Lat": 47.39272, "Lon": -122.04641}], "Mapleton": [{"Name": "Mapleton", "Country Code": "AU", "Population": 1568.0, "Lat": -26.62431, "Lon": 152.86784}, {"Name": "Mapleton", "Country Code": "US", "Population": 1731.0, "Lat": 43.92885, "Lon": -93.95606}, {"Name": "Mapleton", "Country Code": "US", "Population": 1214.0, "Lat": 42.16582, "Lon": -95.79306}, {"Name": "Mapleton", "Country Code": "US", "Population": 9232.0, "Lat": 40.13023, "Lon": -111.57853}], "Maplewood": [{"Name": "Maplewood", "Country Code": "US", "Population": 40567.0, "Lat": 44.95302, "Lon": -92.99522}, {"Name": "Maplewood", "Country Code": "US", "Population": 7945.0, "Lat": 38.61255, "Lon": -90.32456}, {"Name": "Maplewood", "Country Code": "US", "Population": 5138.0, "Lat": 47.40176, "Lon": -122.55707}, {"Name": "Maplewood", "Country Code": "US", "Population": 25008.0, "Lat": 40.73121, "Lon": -74.27348}], "Mapo": [{"Name": "Mapo", "Country Code": "CN", "Population": 35358.0, "Lat": 34.51667, "Lon": 117.06667}], "Mapolopolo": [{"Name": "Mapolopolo", "Country Code": "PH", "Population": 2219.0, "Lat": 15.88087, "Lon": 120.37422}], "Maporal": [{"Name": "Maporal", "Country Code": "VE", "Population": 0.0, "Lat": 7.645, "Lon": -70.41985}], "Maposeni": [{"Name": "Maposeni", "Country Code": "TZ", "Population": 19472.0, "Lat": -10.58333, "Lon": 35.4}], "Mapoteng": [{"Name": "Mapoteng", "Country Code": "LS", "Population": 14161.0, "Lat": -29.10979, "Lon": 27.9741}], "Mapou": [{"Name": "Mapou", "Country Code": "MU", "Population": 1288.0, "Lat": -20.07583, "Lon": 57.60139}], "Mappano": [{"Name": "Mappano", "Country Code": "IT", "Population": 7292.0, "Lat": 45.14833, "Lon": 7.70778}], "Mappleton": [{"Name": "Mappleton", "Country Code": "GB", "Population": 0.0, "Lat": 53.87687, "Lon": -0.13664}], "Mapri": [{"Name": "Mapri", "Country Code": "CI", "Population": 1560.0, "Lat": 4.86771, "Lon": -6.52569}], "Mapua": [{"Name": "Mapua", "Country Code": "NZ", "Population": 1819.0, "Lat": -41.25, "Lon": 173.1}], "Mapuca": [{"Name": "M\u0101puca", "Country Code": "IN", "Population": 40122.0, "Lat": 15.59154, "Lon": 73.80898}], "Mapulaneng View": [{"Name": "Mapulaneng View", "Country Code": "ZA", "Population": 4600.0, "Lat": -24.85009, "Lon": 31.07125}], "Mapulo": [{"Name": "Mapulo", "Country Code": "PH", "Population": 2828.0, "Lat": 13.7317, "Lon": 121.1842}], "Mapulot": [{"Name": "Mapulot", "Country Code": "PH", "Population": 2668.0, "Lat": 14.033, "Lon": 122.5399}], "Mapurujaya": [{"Name": "Mapurujaya", "Country Code": "ID", "Population": 0.0, "Lat": -4.6752, "Lon": 136.8297}], "Mapusagafou": [{"Name": "Mapusagafou", "Country Code": "AS", "Population": 2052.0, "Lat": -14.33056, "Lon": -170.75278}], "Maputi": [{"Name": "Maputi", "Country Code": "PH", "Population": 2304.0, "Lat": 8.44972, "Lon": 124.29056}], "Maputo": [{"Name": "Maputo", "Country Code": "MZ", "Population": 1254837.0, "Lat": -25.96553, "Lon": 32.58322}], "Maputsoe": [{"Name": "Maputsoe", "Country Code": "LS", "Population": 61916.0, "Lat": -28.8866, "Lon": 27.89915}], "Maqat": [{"Name": "Maqat", "Country Code": "KZ", "Population": 14082.0, "Lat": 47.64967, "Lon": 53.34291}], "Maqbanah": [{"Name": "Maqbanah", "Country Code": "YE", "Population": 0.0, "Lat": 13.66394, "Lon": 43.6873}], "Maqellare": [{"Name": "Maqellar\u00eb", "Country Code": "AL", "Population": 0.0, "Lat": 41.58889, "Lon": 20.48306}], "Maqueda": [{"Name": "Maqueda", "Country Code": "ES", "Population": 513.0, "Lat": 40.06614, "Lon": -4.37066}], "Maquela do Zombo": [{"Name": "Maquela do Zombo", "Country Code": "AO", "Population": 42000.0, "Lat": -6.05716, "Lon": 15.10971}], "Maquiapo": [{"Name": "Maquiapo", "Country Code": "PH", "Population": 2307.0, "Lat": 14.98561, "Lon": 120.55855}], "Maquiling": [{"Name": "Maquiling", "Country Code": "PH", "Population": 4441.0, "Lat": 10.78094, "Lon": 123.3938}], "Maquinchao": [{"Name": "Maquinchao", "Country Code": "AR", "Population": 2195.0, "Lat": -41.24912, "Lon": -68.70321}], "Maquoketa": [{"Name": "Maquoketa", "Country Code": "US", "Population": 5989.0, "Lat": 42.06891, "Lon": -90.66569}], "Mar de Espanha": [{"Name": "Mar de Espanha", "Country Code": "BR", "Population": 9677.0, "Lat": -21.86722, "Lon": -43.00972}], "Mar del Plata": [{"Name": "Mar del Plata", "Country Code": "AR", "Population": 593337.0, "Lat": -38.00042, "Lon": -57.5562}], "Mar del Tuyu": [{"Name": "Mar del Tuy\u00fa", "Country Code": "AR", "Population": 0.0, "Lat": -36.57429, "Lon": -56.6939}], "Mar''ina Horka": [{"Name": "Mar\u2019\u2019ina Horka", "Country Code": "BY", "Population": 20100.0, "Lat": 53.509, "Lon": 28.147}], "Mar'ino": [{"Name": "Mar\u2019ino", "Country Code": "RU", "Population": 243000.0, "Lat": 55.65, "Lon": 37.71667}], "Mar'yanovka": [{"Name": "Mar\u2019yanovka", "Country Code": "UA", "Population": 2494.0, "Lat": 45.44627, "Lon": 34.29474}], "Mar'yinka": [{"Name": "Mar'yinka", "Country Code": "UA", "Population": 9089.0, "Lat": 47.94527, "Lon": 37.50544}], "Mar-Mac": [{"Name": "Mar-Mac", "Country Code": "US", "Population": 3615.0, "Lat": 35.33488, "Lon": -78.05582}], "Mara": [{"Name": "Mara", "Country Code": "ES", "Population": 194.0, "Lat": 41.2895, "Lon": -1.51842}, {"Name": "Mara", "Country Code": "IT", "Population": 671.0, "Lat": 40.41019, "Lon": 8.63664}, {"Name": "Mara", "Country Code": "PE", "Population": 0.0, "Lat": -14.08528, "Lon": -72.10806}, {"Name": "Mara", "Country Code": "RO", "Population": 1117.0, "Lat": 47.75552, "Lon": 23.83126}], "Maraa": [{"Name": "Mara\u00e3", "Country Code": "BR", "Population": 4387.0, "Lat": -1.82403, "Lon": -65.35883}], "Maraba": [{"Name": "Marab\u00e1", "Country Code": "BR", "Population": 145860.0, "Lat": -5.38146, "Lon": -49.13232}], "Marabadjassa": [{"Name": "Marabadjassa", "Country Code": "CI", "Population": 2967.0, "Lat": 8.09424, "Lon": -5.43596}], "Marabahan": [{"Name": "Marabahan", "Country Code": "ID", "Population": 0.0, "Lat": -3.0136, "Lon": 114.7687}], "Marabba": [{"Name": "Marabba", "Country Code": "SD", "Population": 12108.0, "Lat": 12.35, "Lon": 32.18333}], "Marabella": [{"Name": "Marabella", "Country Code": "TT", "Population": 26700.0, "Lat": 10.30618, "Lon": -61.44671}], "Maraca": [{"Name": "Maraca", "Country Code": "PA", "Population": 0.0, "Lat": 8.37613, "Lon": -81.73334}], "Maracacume": [{"Name": "Maraca\u00e7um\u00e9", "Country Code": "BR", "Population": 14164.0, "Lat": -2.04278, "Lon": -45.95917}], "Maracai": [{"Name": "Maraca\u00ed", "Country Code": "BR", "Population": 11959.0, "Lat": -22.61056, "Lon": -50.66722}], "Maracaibo": [{"Name": "Maracaibo", "Country Code": "VE", "Population": 2225000.0, "Lat": 10.66663, "Lon": -71.61245}], "Maracaju": [{"Name": "Maracaju", "Country Code": "BR", "Population": 22690.0, "Lat": -21.61444, "Lon": -55.16833}], "Maracalagonis": [{"Name": "Maracalagonis", "Country Code": "IT", "Population": 6488.0, "Lat": 39.28574, "Lon": 9.22874}], "Maracana": [{"Name": "Maracan\u00e3", "Country Code": "BR", "Population": 12682.0, "Lat": -0.76614, "Lon": -47.45371}], "Maracanau": [{"Name": "Maracana\u00fa", "Country Code": "BR", "Population": 193529.0, "Lat": -3.87667, "Lon": -38.62556}], "Maracas": [{"Name": "Marac\u00e1s", "Country Code": "BR", "Population": 22049.0, "Lat": -13.44111, "Lon": -40.43083}], "Maracay": [{"Name": "Maracay", "Country Code": "VE", "Population": 1754256.0, "Lat": 10.23535, "Lon": -67.59113}], "Maracena": [{"Name": "Maracena", "Country Code": "ES", "Population": 20815.0, "Lat": 37.20764, "Lon": -3.63493}], "Maracha": [{"Name": "Maracha", "Country Code": "UG", "Population": 0.0, "Lat": 3.27042, "Lon": 30.95532}], "Maracineni": [{"Name": "M\u0103r\u0103cineni", "Country Code": "RO", "Population": 4468.0, "Lat": 44.9, "Lon": 24.88333}, {"Name": "M\u0103r\u0103cineni", "Country Code": "RO", "Population": 7096.0, "Lat": 45.2, "Lon": 26.8}], "Maradah": [{"Name": "Mar\u0101dah", "Country Code": "LY", "Population": 2229.0, "Lat": 29.22054, "Lon": 19.20454}], "Maradi": [{"Name": "Maradi", "Country Code": "NE", "Population": 361702.0, "Lat": 13.5, "Lon": 7.10174}], "Maradun": [{"Name": "Maradun", "Country Code": "NG", "Population": 0.0, "Lat": 12.56704, "Lon": 6.24407}], "Maraenui": [{"Name": "Maraenui", "Country Code": "NZ", "Population": 3504.0, "Lat": -39.50824, "Lon": 176.90022}], "Maragheh": [{"Name": "Mar\u0101gheh", "Country Code": "IR", "Population": 0.0, "Lat": 37.39206, "Lon": 46.23909}], "Maragogi": [{"Name": "Maragogi", "Country Code": "BR", "Population": 16066.0, "Lat": -9.01222, "Lon": -35.2225}], "Maragogipe": [{"Name": "Maragogipe", "Country Code": "BR", "Population": 20921.0, "Lat": -12.77778, "Lon": -38.91944}], "Maragondon": [{"Name": "Maragondon", "Country Code": "PH", "Population": 22973.0, "Lat": 14.2733, "Lon": 120.7377}], "Maragua": [{"Name": "Maragua", "Country Code": "KE", "Population": 8597.0, "Lat": -0.79602, "Lon": 37.13292}], "Marah Rabbah": [{"Name": "Mar\u0101\u1e29 Rabb\u0101\u1e29", "Country Code": "PS", "Population": 1303.0, "Lat": 31.63406, "Lon": 35.18688}], "Marahare": [{"Name": "Marahar\u00e9", "Country Code": "KM", "Population": 1415.0, "Lat": -12.23083, "Lon": 44.31333}], "Marahra": [{"Name": "M\u0101rahra", "Country Code": "IN", "Population": 18873.0, "Lat": 27.7368, "Lon": 78.56891}], "Marahui": [{"Name": "Marahui", "Country Code": "CI", "Population": 14827.0, "Lat": 8.61522, "Lon": -2.75076}], "Marahui-Ahinifie": [{"Name": "Marahui-Ahinifi\u00e9", "Country Code": "CI", "Population": 1314.0, "Lat": 8.05266, "Lon": -3.21851}], "Maraial": [{"Name": "Maraial", "Country Code": "BR", "Population": 14203.0, "Lat": -8.7825, "Lon": -35.80889}], "Marakabeis": [{"Name": "Marakabeis", "Country Code": "LS", "Population": 1659.0, "Lat": -29.54498, "Lon": 28.14148}], "Marakkanam": [{"Name": "Marakkanam", "Country Code": "IN", "Population": 19734.0, "Lat": 12.19214, "Lon": 79.94193}], "Maralal": [{"Name": "Maralal", "Country Code": "KE", "Population": 31350.0, "Lat": 1.09667, "Lon": 36.69806}], "Marale": [{"Name": "Marale", "Country Code": "HN", "Population": 1523.0, "Lat": 14.88333, "Lon": -87.15}], "Maralik": [{"Name": "Maralik", "Country Code": "AM", "Population": 4959.0, "Lat": 40.57507, "Lon": 43.87231}], "Maramag": [{"Name": "Maramag", "Country Code": "PH", "Population": 33844.0, "Lat": 7.76333, "Lon": 125.00528}], "Maramarua": [{"Name": "Maramarua", "Country Code": "NZ", "Population": 1767.0, "Lat": -37.25, "Lon": 175.23333}], "Maramba": [{"Name": "Maramba", "Country Code": "TZ", "Population": 26531.0, "Lat": -5.05, "Lon": 38.61667}], "Marana": [{"Name": "Mara\u00f1a", "Country Code": "ES", "Population": 164.0, "Lat": 43.04991, "Lon": -5.17726}, {"Name": "Marana", "Country Code": "US", "Population": 41315.0, "Lat": 32.43674, "Lon": -111.22538}], "Maranama": [{"Name": "Maranama", "Country Code": "CI", "Population": 3268.0, "Lat": 9.7367, "Lon": -6.38916}], "Maranchon": [{"Name": "Maranch\u00f3n", "Country Code": "ES", "Population": 244.0, "Lat": 41.04754, "Lon": -2.20482}], "Marand": [{"Name": "Marand", "Country Code": "IR", "Population": 124191.0, "Lat": 38.4329, "Lon": 45.7749}], "Marandahalli": [{"Name": "M\u0101r\u0101ndahalli", "Country Code": "IN", "Population": 10480.0, "Lat": 12.38826, "Lon": 78.00316}], "Marandala": [{"Name": "Marandala", "Country Code": "CI", "Population": 3996.0, "Lat": 8.44722, "Lon": -5.91948}], "Maranding": [{"Name": "Maranding", "Country Code": "PH", "Population": 13694.0, "Lat": 7.9248, "Lon": 123.7715}], "Maranello": [{"Name": "Maranello", "Country Code": "IT", "Population": 9228.0, "Lat": 44.53101, "Lon": 10.86888}], "Marang": [{"Name": "Marang", "Country Code": "MY", "Population": 21410.0, "Lat": 5.2056, "Lon": 103.2059}], "Marangani": [{"Name": "Marangan\u00ed", "Country Code": "PE", "Population": 3709.0, "Lat": -14.35672, "Lon": -71.16924}], "Marangaroo": [{"Name": "Marangaroo", "Country Code": "AU", "Population": 10483.0, "Lat": -31.82711, "Lon": 115.83843}], "Marange-Silvange": [{"Name": "Marange-Silvange", "Country Code": "FR", "Population": 5708.0, "Lat": 49.20822, "Lon": 6.10426}], "Marano": [{"Name": "Marano", "Country Code": "IT", "Population": 1697.0, "Lat": 45.46345, "Lon": 12.11715}], "Marano Equo": [{"Name": "Marano Equo", "Country Code": "IT", "Population": 785.0, "Lat": 41.99535, "Lon": 13.01501}], "Marano Lagunare": [{"Name": "Marano Lagunare", "Country Code": "IT", "Population": 1934.0, "Lat": 45.76353, "Lon": 13.16733}], "Marano Marchesato": [{"Name": "Marano Marchesato", "Country Code": "IT", "Population": 3474.0, "Lat": 39.31274, "Lon": 16.17354}], "Marano Principato": [{"Name": "Marano Principato", "Country Code": "IT", "Population": 2639.0, "Lat": 39.29782, "Lon": 16.1743}], "Marano Ticino": [{"Name": "Marano Ticino", "Country Code": "IT", "Population": 1500.0, "Lat": 45.62783, "Lon": 8.63155}], "Marano Vicentino": [{"Name": "Marano Vicentino", "Country Code": "IT", "Population": 9084.0, "Lat": 45.696, "Lon": 11.43237}], "Marano di Napoli": [{"Name": "Marano di Napoli", "Country Code": "IT", "Population": 49920.0, "Lat": 40.8971, "Lon": 14.18824}], "Marano di Valpolicella": [{"Name": "Marano di Valpolicella", "Country Code": "IT", "Population": 293.0, "Lat": 45.55637, "Lon": 10.91622}], "Marano sul Panaro": [{"Name": "Marano sul Panaro", "Country Code": "IT", "Population": 3301.0, "Lat": 44.45924, "Lon": 10.96879}], "Maranola-Trivio": [{"Name": "Maranola-Trivio", "Country Code": "IT", "Population": 2823.0, "Lat": 41.28522, "Lon": 13.62777}], "Maranon": [{"Name": "Mara\u00f1\u00f3n", "Country Code": "ES", "Population": 62.0, "Lat": 42.62941, "Lon": -2.43931}], "Marans": [{"Name": "Marans", "Country Code": "FR", "Population": 4663.0, "Lat": 46.30883, "Lon": -0.99226}], "Marantao": [{"Name": "Marantao", "Country Code": "PH", "Population": 3572.0, "Lat": 7.95, "Lon": 124.23333}], "Maranura": [{"Name": "Maranura", "Country Code": "PE", "Population": 730.0, "Lat": -12.96371, "Lon": -72.66428}], "Maranzana": [{"Name": "Maranzana", "Country Code": "IT", "Population": 245.0, "Lat": 44.76035, "Lon": 8.47845}], "Marao": [{"Name": "Marao", "Country Code": "PH", "Population": 2245.0, "Lat": 13.91434, "Lon": 121.82409}], "Marapanim": [{"Name": "Marapanim", "Country Code": "BR", "Population": 10236.0, "Lat": -0.7175, "Lon": -47.69972}], "Maras": [{"Name": "Maras", "Country Code": "PE", "Population": 0.0, "Lat": -13.335, "Lon": -72.15667}], "Marasesti": [{"Name": "M\u0103r\u0103\u0219e\u0219ti", "Country Code": "RO", "Population": 8844.0, "Lat": 45.88333, "Lon": 27.23333}], "Marasu": [{"Name": "M\u0103ra\u015fu", "Country Code": "RO", "Population": 3453.0, "Lat": 44.85, "Lon": 27.96667}], "Marat": [{"Name": "Mar\u0101t", "Country Code": "SA", "Population": 8885.0, "Lat": 25.07064, "Lon": 45.45775}], "Marataizes": [{"Name": "Marataizes", "Country Code": "BR", "Population": 25397.0, "Lat": -21.04333, "Lon": -40.82444}], "Maratea": [{"Name": "Maratea", "Country Code": "IT", "Population": 2715.0, "Lat": 39.99932, "Lon": 15.71539}], "Marathokampos": [{"Name": "Marath\u00f3kampos", "Country Code": "GR", "Population": 1069.0, "Lat": 37.72674, "Lon": 26.68964}], "Marathon": [{"Name": "Marathon", "Country Code": "US", "Population": 8750.0, "Lat": 24.71375, "Lon": -81.09035}, {"Name": "Marathon", "Country Code": "US", "Population": 1524.0, "Lat": 44.92913, "Lon": -89.8404}], "Marathonas": [{"Name": "Marath\u00f3nas", "Country Code": "GR", "Population": 7170.0, "Lat": 38.15317, "Lon": 23.96278}], "Marau": [{"Name": "Marau", "Country Code": "BR", "Population": 26860.0, "Lat": -28.44917, "Lon": -52.2}, {"Name": "Mara\u00fa", "Country Code": "BR", "Population": 2956.0, "Lat": -14.10395, "Lon": -39.0149}], "Marausa": [{"Name": "Marausa", "Country Code": "IT", "Population": 1194.0, "Lat": 37.94166, "Lon": 12.50948}], "Maraussan": [{"Name": "Maraussan", "Country Code": "FR", "Population": 3178.0, "Lat": 43.36686, "Lon": 3.15777}], "Maravatio de Ocampo": [{"Name": "Maravat\u00edo de Ocampo", "Country Code": "MX", "Population": 34381.0, "Lat": 19.89113, "Lon": -100.44443}], "Maravatio del Encinal": [{"Name": "Maravat\u00edo del Encinal", "Country Code": "MX", "Population": 3398.0, "Lat": 20.20513, "Lon": -100.96211}], "Maraveh Tappeh": [{"Name": "Mar\u0101veh Tappeh", "Country Code": "IR", "Population": 0.0, "Lat": 37.9041, "Lon": 55.95596}], "Maravilla": [{"Name": "Maravilla", "Country Code": "PH", "Population": 2253.0, "Lat": 10.9011, "Lon": 123.8918}], "Maravilla Tenejapa": [{"Name": "Maravilla Tenejapa", "Country Code": "MX", "Population": 1477.0, "Lat": 16.14155, "Lon": -91.29595}], "Maravillas": [{"Name": "Maravillas", "Country Code": "MX", "Population": 1204.0, "Lat": 17.13674, "Lon": -92.55774}, {"Name": "Maravillas", "Country Code": "MX", "Population": 2105.0, "Lat": 17.09693, "Lon": -92.89107}, {"Name": "Maravillas", "Country Code": "MX", "Population": 1525.0, "Lat": 22.23876, "Lon": -101.01073}, {"Name": "Maravillas", "Country Code": "MX", "Population": 1045.0, "Lat": 25.65872, "Lon": -103.34079}, {"Name": "Maravillas", "Country Code": "MX", "Population": 2208.0, "Lat": 21.95408, "Lon": -102.32982}, {"Name": "Maravillas", "Country Code": "MX", "Population": 2317.0, "Lat": 22.39988, "Lon": -102.01676}], "Marawa": [{"Name": "Marawa", "Country Code": "PH", "Population": 3812.0, "Lat": 15.41727, "Lon": 120.83819}], "Marawi City": [{"Name": "Marawi City", "Country Code": "PH", "Population": 143627.0, "Lat": 8.0034, "Lon": 124.28395}], "Marawis": [{"Name": "Marawis", "Country Code": "PH", "Population": 2233.0, "Lat": 10.2453, "Lon": 122.8869}], "Maray": [{"Name": "Maray", "Country Code": "PE", "Population": 240.0, "Lat": -10.93556, "Lon": -76.83389}], "Maraylya": [{"Name": "Maraylya", "Country Code": "AU", "Population": 1211.0, "Lat": -33.59221, "Lon": 150.91979}], "Marayong": [{"Name": "Marayong", "Country Code": "AU", "Population": 7675.0, "Lat": -33.74824, "Lon": 150.89272}], "Marayur": [{"Name": "Marayur", "Country Code": "IN", "Population": 25000.0, "Lat": 10.27641, "Lon": 77.16205}], "Marazion": [{"Name": "Marazion", "Country Code": "GB", "Population": 1294.0, "Lat": 50.12556, "Lon": -5.47505}], "Marazliyivka": [{"Name": "Marazliyivka", "Country Code": "UA", "Population": 1397.0, "Lat": 46.09596, "Lon": 30.04941}], "Marazoleja": [{"Name": "Marazoleja", "Country Code": "ES", "Population": 122.0, "Lat": 40.96086, "Lon": -4.33882}], "Marazuela": [{"Name": "Marazuela", "Country Code": "ES", "Population": 57.0, "Lat": 40.97912, "Lon": -4.36506}], "Marbach am Neckar": [{"Name": "Marbach am Neckar", "Country Code": "DE", "Population": 15604.0, "Lat": 48.93964, "Lon": 9.25995}], "Marbach an der Donau": [{"Name": "Marbach an der Donau", "Country Code": "AT", "Population": 280.0, "Lat": 48.21667, "Lon": 15.15}], "Marbache": [{"Name": "Marbache", "Country Code": "FR", "Population": 1760.0, "Lat": 48.79867, "Lon": 6.106}], "Marbais": [{"Name": "Marbais", "Country Code": "BE", "Population": 3130.0, "Lat": 50.54652, "Lon": 4.53499}], "Marbat": [{"Name": "Marb\u0101\u0163", "Country Code": "YE", "Population": 0.0, "Lat": 14.20567, "Lon": 46.38811}], "Marbel": [{"Name": "Marbel", "Country Code": "PH", "Population": 3399.0, "Lat": 7.11583, "Lon": 124.9125}], "Marbella": [{"Name": "Marbella", "Country Code": "ES", "Population": 134623.0, "Lat": 36.51543, "Lon": -4.88583}], "Marble Bar": [{"Name": "Marble Bar", "Country Code": "AU", "Population": 1035.0, "Lat": -21.17067, "Lon": 119.74441}], "Marble Falls": [{"Name": "Marble Falls", "Country Code": "US", "Population": 6281.0, "Lat": 30.57841, "Lon": -98.27507}], "Marble Hall": [{"Name": "Marble Hall", "Country Code": "ZA", "Population": 0.0, "Lat": -24.96627, "Lon": 29.29068}], "Marble Hill": [{"Name": "Marble Hill", "Country Code": "US", "Population": 1482.0, "Lat": 37.30589, "Lon": -89.97038}], "Marblehead": [{"Name": "Marblehead", "Country Code": "US", "Population": 19808.0, "Lat": 42.5001, "Lon": -70.85783}], "Marbleton": [{"Name": "Marbleton", "Country Code": "US", "Population": 1090.0, "Lat": 42.55355, "Lon": -110.10932}], "Marbletown": [{"Name": "Marbletown", "Country Code": "US", "Population": 5544.0, "Lat": 41.88343, "Lon": -74.1132}], "Marboue": [{"Name": "Marbou\u00e9", "Country Code": "FR", "Population": 1165.0, "Lat": 48.11377, "Lon": 1.3321}], "Marboz": [{"Name": "Marboz", "Country Code": "FR", "Population": 2382.0, "Lat": 46.3429, "Lon": 5.25722}], "Marburg an der Lahn": [{"Name": "Marburg an der Lahn", "Country Code": "DE", "Population": 78895.0, "Lat": 50.80904, "Lon": 8.77069}], "Marbury": [{"Name": "Marbury", "Country Code": "US", "Population": 1418.0, "Lat": 32.70124, "Lon": -86.47109}], "Marca": [{"Name": "Marca", "Country Code": "PE", "Population": 635.0, "Lat": -10.08799, "Lon": -77.47497}, {"Name": "Marca", "Country Code": "RO", "Population": 2890.0, "Lat": 47.21667, "Lon": 22.56667}], "Marcabal": [{"Name": "Marcabal", "Country Code": "PE", "Population": 447.0, "Lat": -7.7, "Lon": -78.03333}], "Marcabamba": [{"Name": "Marcabamba", "Country Code": "PE", "Population": 442.0, "Lat": -15.15056, "Lon": -73.34194}], "Marcala": [{"Name": "Marcala", "Country Code": "HN", "Population": 10054.0, "Lat": 14.15661, "Lon": -88.03466}], "Marcali": [{"Name": "Marcali", "Country Code": "HU", "Population": 11216.0, "Lat": 46.58498, "Lon": 17.41196}], "Marcallo": [{"Name": "Marcallo", "Country Code": "IT", "Population": 4654.0, "Lat": 45.48327, "Lon": 8.87194}], "Marcamps": [{"Name": "Marcamps", "Country Code": "FR", "Population": 1409.0, "Lat": 45.04045, "Lon": -0.49275}], "Marcana": [{"Name": "Mar\u010dana", "Country Code": "HR", "Population": 1099.0, "Lat": 44.95528, "Lon": 13.95389}], "Marcapata": [{"Name": "Marcapata", "Country Code": "PE", "Population": 0.0, "Lat": -13.58972, "Lon": -70.97222}], "Marcapomacocha": [{"Name": "Marcapomacocha", "Country Code": "PE", "Population": 358.0, "Lat": -11.40692, "Lon": -76.33628}], "Marcara District": [{"Name": "Marcara District", "Country Code": "PE", "Population": 0.0, "Lat": -9.3225, "Lon": -77.60361}], "Marcaria": [{"Name": "Marcaria", "Country Code": "IT", "Population": 863.0, "Lat": 45.12225, "Lon": 10.53278}], "Marcas": [{"Name": "Marcas", "Country Code": "PE", "Population": 680.0, "Lat": -12.88948, "Lon": -74.39951}], "Marcavelica": [{"Name": "Marcavelica", "Country Code": "PE", "Population": 25645.0, "Lat": -4.87778, "Lon": -80.70528}], "Marcedusa": [{"Name": "Marcedusa", "Country Code": "IT", "Population": 425.0, "Lat": 39.02675, "Lon": 16.83612}], "Marceline": [{"Name": "Marceline", "Country Code": "US", "Population": 2154.0, "Lat": 39.71197, "Lon": -92.94825}], "Marcelino Rodriguez (San Ignacio)": [{"Name": "Marcelino Rodr\u00edguez (San Ignacio)", "Country Code": "MX", "Population": 1868.0, "Lat": 18.57889, "Lon": -98.74361}], "Marcelji": [{"Name": "Mar\u010delji", "Country Code": "HR", "Population": 2535.0, "Lat": 45.39611, "Lon": 14.38944}], "Marcellaz-Albanais": [{"Name": "Marcellaz-Albanais", "Country Code": "FR", "Population": 1561.0, "Lat": 45.87546, "Lon": 5.9988}], "Marcelli": [{"Name": "Marcelli", "Country Code": "IT", "Population": 1473.0, "Lat": 43.49204, "Lon": 13.62545}], "Marcellina": [{"Name": "Marcellina", "Country Code": "IT", "Population": 1997.0, "Lat": 39.76578, "Lon": 15.82311}, {"Name": "Marcellina", "Country Code": "IT", "Population": 6406.0, "Lat": 42.02436, "Lon": 12.80445}], "Marcellinara": [{"Name": "Marcellinara", "Country Code": "IT", "Population": 1967.0, "Lat": 38.92574, "Lon": 16.48757}], "Marcellus": [{"Name": "Marcellus", "Country Code": "US", "Population": 1773.0, "Lat": 42.98284, "Lon": -76.34049}, {"Name": "Marcellus", "Country Code": "US", "Population": 1157.0, "Lat": 42.02588, "Lon": -85.81556}], "Marcesti": [{"Name": "M\u0103rce\u0219ti", "Country Code": "RO", "Population": 1968.0, "Lat": 44.80537, "Lon": 25.70951}], "Marcetelli": [{"Name": "Marcetelli", "Country Code": "IT", "Population": 126.0, "Lat": 42.22663, "Lon": 13.04589}], "Marcey-les-Greves": [{"Name": "Marcey-les-Gr\u00e8ves", "Country Code": "FR", "Population": 1128.0, "Lat": 48.69673, "Lon": -1.39156}], "March": [{"Name": "March", "Country Code": "AF", "Population": 0.0, "Lat": 37.52845, "Lon": 70.4482}, {"Name": "March", "Country Code": "GB", "Population": 21051.0, "Lat": 52.55131, "Lon": 0.08828}], "March Air Force Base": [{"Name": "March Air Force Base", "Country Code": "US", "Population": 1159.0, "Lat": 33.89209, "Lon": -117.2631}], "Marchagaz": [{"Name": "Marchagaz", "Country Code": "ES", "Population": 281.0, "Lat": 40.26769, "Lon": -6.27485}], "Marchal": [{"Name": "Marchal", "Country Code": "ES", "Population": 377.0, "Lat": 37.29639, "Lon": -3.20353}], "Marcham": [{"Name": "Marcham", "Country Code": "GB", "Population": 1740.0, "Lat": 51.66755, "Lon": -1.34295}], "Marchamalo": [{"Name": "Marchamalo", "Country Code": "ES", "Population": 4698.0, "Lat": 40.66677, "Lon": -3.19914}], "Marche-en-Famenne": [{"Name": "Marche-en-Famenne", "Country Code": "BE", "Population": 16856.0, "Lat": 50.22678, "Lon": 5.34416}], "Marche-les-Dames": [{"Name": "Marche-les-Dames", "Country Code": "BE", "Population": 1004.0, "Lat": 50.48585, "Lon": 4.95967}], "Marche-lez-Ecaussinnes": [{"Name": "Marche-lez-\u00c9caussinnes", "Country Code": "BE", "Population": 2470.0, "Lat": 50.54601, "Lon": 4.1818}], "Marchegg": [{"Name": "Marchegg", "Country Code": "AT", "Population": 2199.0, "Lat": 48.26217, "Lon": 16.91045}], "Marchena": [{"Name": "Marchena", "Country Code": "ES", "Population": 19768.0, "Lat": 37.329, "Lon": -5.41681}], "Marcheno": [{"Name": "Marcheno", "Country Code": "IT", "Population": 3110.0, "Lat": 45.70649, "Lon": 10.21449}], "Marcheprime": [{"Name": "Marcheprime", "Country Code": "FR", "Population": 3768.0, "Lat": 44.69242, "Lon": -0.85479}], "Marchesino-Bovo": [{"Name": "Marchesino-Bovo", "Country Code": "IT", "Population": 1754.0, "Lat": 45.36667, "Lon": 11.0}], "Marchienne-au-Pont": [{"Name": "Marchienne-au-Pont", "Country Code": "BE", "Population": 15154.0, "Lat": 50.40573, "Lon": 4.3953}], "Marchiennes": [{"Name": "Marchiennes", "Country Code": "FR", "Population": 4671.0, "Lat": 50.4, "Lon": 3.28333}], "Marchin": [{"Name": "Marchin", "Country Code": "BE", "Population": 5063.0, "Lat": 50.46707, "Lon": 5.2428}], "Marchirolo": [{"Name": "Marchirolo", "Country Code": "IT", "Population": 3342.0, "Lat": 45.94788, "Lon": 8.83343}], "Marchtrenk": [{"Name": "Marchtrenk", "Country Code": "AT", "Population": 8394.0, "Lat": 48.19022, "Lon": 14.10908}], "Marchwiel": [{"Name": "Marchwiel", "Country Code": "GB", "Population": 1092.0, "Lat": 53.0239, "Lon": -2.96106}], "Marchwood": [{"Name": "Marchwood", "Country Code": "GB", "Population": 6141.0, "Lat": 50.88966, "Lon": -1.4544}], "Marciac": [{"Name": "Marciac", "Country Code": "FR", "Population": 1258.0, "Lat": 43.52404, "Lon": 0.16102}], "Marciana": [{"Name": "Marciana", "Country Code": "IT", "Population": 330.0, "Lat": 42.79301, "Lon": 10.1687}], "Marciana Marina": [{"Name": "Marciana Marina", "Country Code": "IT", "Population": 1792.0, "Lat": 42.80256, "Lon": 10.19488}], "Marcianise": [{"Name": "Marcianise", "Country Code": "IT", "Population": 40239.0, "Lat": 41.03064, "Lon": 14.29868}], "Marciano": [{"Name": "Marciano", "Country Code": "IT", "Population": 890.0, "Lat": 43.30651, "Lon": 11.79171}], "Marciano della Chiana": [{"Name": "Marciano della Chiana", "Country Code": "IT", "Population": 2757.0, "Lat": 43.30494, "Lon": 11.78644}], "Marcignago": [{"Name": "Marcignago", "Country Code": "IT", "Population": 1895.0, "Lat": 45.25306, "Lon": 9.07935}], "Marcignana": [{"Name": "Marcignana", "Country Code": "IT", "Population": 1191.0, "Lat": 43.7183, "Lon": 10.88436}], "Marcigny": [{"Name": "Marcigny", "Country Code": "FR", "Population": 1923.0, "Lat": 46.27627, "Lon": 4.03957}], "Marcilla": [{"Name": "Marcilla", "Country Code": "ES", "Population": 2637.0, "Lat": 42.32794, "Lon": -1.73714}], "Marcilla de Campos": [{"Name": "Marcilla de Campos", "Country Code": "ES", "Population": 62.0, "Lat": 42.3177, "Lon": -4.3967}], "Marcillac": [{"Name": "Marcillac", "Country Code": "FR", "Population": 1089.0, "Lat": 45.2687, "Lon": -0.52379}], "Marcillac-Vallon": [{"Name": "Marcillac-Vallon", "Country Code": "FR", "Population": 1635.0, "Lat": 44.47464, "Lon": 2.46454}], "Marcilly-en-Villette": [{"Name": "Marcilly-en-Villette", "Country Code": "FR", "Population": 2005.0, "Lat": 47.76505, "Lon": 2.02266}], "Marcilly-le-Chatel": [{"Name": "Marcilly-le-Ch\u00e2tel", "Country Code": "FR", "Population": 1256.0, "Lat": 45.6959, "Lon": 4.03082}], "Marcilly-sur-Eure": [{"Name": "Marcilly-sur-Eure", "Country Code": "FR", "Population": 1301.0, "Lat": 48.82568, "Lon": 1.34741}], "Marcilly-sur-Tille": [{"Name": "Marcilly-sur-Tille", "Country Code": "FR", "Population": 1480.0, "Lat": 47.517, "Lon": 5.12979}], "Marcinelle": [{"Name": "Marcinelle", "Country Code": "BE", "Population": 23696.0, "Lat": 50.39216, "Lon": 4.44388}], "Marciszow": [{"Name": "Marcisz\u00f3w", "Country Code": "PL", "Population": 1528.0, "Lat": 50.8447, "Lon": 16.02116}], "Marck": [{"Name": "Marck", "Country Code": "FR", "Population": 9158.0, "Lat": 50.94897, "Lon": 1.94328}], "Marckolsheim": [{"Name": "Marckolsheim", "Country Code": "FR", "Population": 3846.0, "Lat": 48.16471, "Lon": 7.544}], "Marco": [{"Name": "Marco", "Country Code": "BR", "Population": 14501.0, "Lat": -3.12389, "Lon": -40.14667}, {"Name": "Marco", "Country Code": "IT", "Population": 2597.0, "Lat": 45.84258, "Lon": 11.00925}, {"Name": "Marco", "Country Code": "PE", "Population": 0.0, "Lat": -11.74117, "Lon": -75.56279}, {"Name": "Marco", "Country Code": "US", "Population": 14879.0, "Lat": 25.9726, "Lon": -81.72898}], "Marco Island": [{"Name": "Marco Island", "Country Code": "US", "Population": 17690.0, "Lat": 25.94121, "Lon": -81.71842}], "Marco Simone": [{"Name": "Marco Simone", "Country Code": "IT", "Population": 6839.0, "Lat": 41.95544, "Lon": 12.64775}], "Marco de Canavezes": [{"Name": "Marco de Canavezes", "Country Code": "PT", "Population": 9042.0, "Lat": 41.18389, "Lon": -8.14864}], "Marcoing": [{"Name": "Marcoing", "Country Code": "FR", "Population": 1989.0, "Lat": 50.1211, "Lon": 3.17321}], "Marcol": [{"Name": "Marcol", "Country Code": "MX", "Population": 1186.0, "Lat": 25.49445, "Lon": -108.51586}], "Marcon": [{"Name": "Mar\u00e7on", "Country Code": "FR", "Population": 1027.0, "Lat": 47.71002, "Lon": 0.51043}], "Marcon-Gaggio-Colmello": [{"Name": "Marcon-Gaggio-Colmello", "Country Code": "IT", "Population": 12565.0, "Lat": 45.56444, "Lon": 12.29889}], "Marconia": [{"Name": "Marconia", "Country Code": "IT", "Population": 8781.0, "Lat": 40.36355, "Lon": 16.68823}], "Marconne": [{"Name": "Marconne", "Country Code": "FR", "Population": 1312.0, "Lat": 50.37143, "Lon": 2.04669}], "Marconnelle": [{"Name": "Marconnelle", "Country Code": "FR", "Population": 1290.0, "Lat": 50.37588, "Lon": 2.01108}], "Marcoola": [{"Name": "Marcoola", "Country Code": "AU", "Population": 3337.0, "Lat": -26.5845, "Lon": 153.09465}], "Marcorignan": [{"Name": "Marcorignan", "Country Code": "FR", "Population": 1148.0, "Lat": 43.22594, "Lon": 2.92209}], "Marcory": [{"Name": "Marcory", "Country Code": "CI", "Population": 214061.0, "Lat": 5.31198, "Lon": -3.99363}], "Marcos": [{"Name": "Marcos", "Country Code": "PH", "Population": 0.0, "Lat": 18.052, "Lon": 120.6898}], "Marcos Juarez": [{"Name": "Marcos Ju\u00e1rez", "Country Code": "AR", "Population": 24226.0, "Lat": -32.6978, "Lon": -62.10672}], "Marcos Paz": [{"Name": "Marcos Paz", "Country Code": "AR", "Population": 0.0, "Lat": -34.78233, "Lon": -58.83777}], "Marcoussis": [{"Name": "Marcoussis", "Country Code": "FR", "Population": 7756.0, "Lat": 48.64026, "Lon": 2.23858}], "Marcovia": [{"Name": "Marcovia", "Country Code": "HN", "Population": 1928.0, "Lat": 13.28806, "Lon": -87.30972}], "Marcq-en-Baroeul": [{"Name": "Marcq-en-Bar\u0153ul", "Country Code": "FR", "Population": 38629.0, "Lat": 50.66667, "Lon": 3.08333}], "Marculesti": [{"Name": "M\u0103rcule\u015fti", "Country Code": "MD", "Population": 2400.0, "Lat": 47.86897, "Lon": 28.24109}, {"Name": "M\u0103rcule\u0219ti", "Country Code": "RO", "Population": 1675.0, "Lat": 44.56698, "Lon": 27.51562}], "Marcus": [{"Name": "Marcus", "Country Code": "US", "Population": 1070.0, "Lat": 42.82582, "Lon": -95.80751}], "Marcus Hook": [{"Name": "Marcus Hook", "Country Code": "US", "Population": 2397.0, "Lat": 39.81928, "Lon": -75.41853}], "Marda": [{"Name": "Mard\u0101", "Country Code": "PS", "Population": 2142.0, "Lat": 32.11381, "Lon": 35.19536}], "Mardakan": [{"Name": "Mardakan", "Country Code": "AZ", "Population": 15267.0, "Lat": 40.49182, "Lon": 50.14292}], "Mardan": [{"Name": "Mardan", "Country Code": "PK", "Population": 300424.0, "Lat": 34.19794, "Lon": 72.04965}], "Mardarivka": [{"Name": "Mardarivka", "Country Code": "UA", "Population": 1241.0, "Lat": 47.53625, "Lon": 29.73708}], "Marden": [{"Name": "Marden", "Country Code": "AU", "Population": 2273.0, "Lat": -34.89569, "Lon": 138.6378}, {"Name": "Marden", "Country Code": "GB", "Population": 2466.0, "Lat": 51.17482, "Lon": 0.48855}], "Mardeuil": [{"Name": "Mardeuil", "Country Code": "FR", "Population": 1537.0, "Lat": 49.05393, "Lon": 3.93}], "Mardi": [{"Name": "Mardi", "Country Code": "AU", "Population": 3648.0, "Lat": -33.29368, "Lon": 151.4015}], "Mardian": [{"Name": "Mard\u012b\u0101n", "Country Code": "AF", "Population": 0.0, "Lat": 36.99252, "Lon": 66.29654}], "Mardie": [{"Name": "Mardi\u00e9", "Country Code": "FR", "Population": 2504.0, "Lat": 47.88617, "Lon": 2.05745}], "Mardimago": [{"Name": "Mardimago", "Country Code": "IT", "Population": 1408.0, "Lat": 45.10703, "Lon": 11.83744}], "Mardin": [{"Name": "Mardin", "Country Code": "TR", "Population": 129864.0, "Lat": 37.31309, "Lon": 40.74357}], "Mardzad": [{"Name": "Mardzad", "Country Code": "MN", "Population": 0.0, "Lat": 45.95, "Lon": 102.05}], "Mare La Chaux": [{"Name": "Mare La Chaux", "Country Code": "MU", "Population": 2058.0, "Lat": -20.19806, "Lon": 57.74944}], "Mareau-aux-Pres": [{"Name": "Mareau-aux-Pr\u00e9s", "Country Code": "FR", "Population": 1224.0, "Lat": 47.86667, "Lon": 1.78333}], "Marechal Candido Rondon": [{"Name": "Marechal C\u00e2ndido Rondon", "Country Code": "BR", "Population": 43028.0, "Lat": -24.55611, "Lon": -54.05667}], "Marechal Deodoro": [{"Name": "Marechal Deodoro", "Country Code": "BR", "Population": 50571.0, "Lat": -9.71028, "Lon": -35.895}], "Marechal Floriano": [{"Name": "Marechal Floriano", "Country Code": "BR", "Population": 5869.0, "Lat": -20.41278, "Lon": -40.68306}], "Marechal Thaumaturgo": [{"Name": "Marechal Thaumaturgo", "Country Code": "BR", "Population": 1808.0, "Lat": -8.94111, "Lon": -72.79167}], "Mareeba": [{"Name": "Mareeba", "Country Code": "AU", "Population": 11339.0, "Lat": -16.99096, "Lon": 145.42306}], "Mareil-Marly": [{"Name": "Mareil-Marly", "Country Code": "FR", "Population": 3381.0, "Lat": 48.88213, "Lon": 2.07351}], "Mareil-sur-Mauldre": [{"Name": "Mareil-sur-Mauldre", "Country Code": "FR", "Population": 1882.0, "Lat": 48.89521, "Lon": 1.8687}], "Marene": [{"Name": "Marene", "Country Code": "IT", "Population": 2261.0, "Lat": 44.66113, "Lon": 7.73436}], "Marengo": [{"Name": "Marengo", "Country Code": "US", "Population": 2513.0, "Lat": 41.79806, "Lon": -92.07074},