{"Vezon": [{"Name": "Vezon", "Country Code": "BE", "Population": 1360.0, "Lat": 50.56917, "Lon": 3.50469}], "Vezza d'Alba": [{"Name": "Vezza d'Alba", "Country Code": "IT", "Population": 1408.0, "Lat": 44.76274, "Lon": 8.00793}], "Vezza d'Oglio": [{"Name": "Vezza d'Oglio", "Country Code": "IT", "Population": 1296.0, "Lat": 46.23867, "Lon": 10.39825}], "Vezzano": [{"Name": "Vezzano", "Country Code": "IT", "Population": 1239.0, "Lat": 46.07867, "Lon": 10.99735}], "Vezzano Ligure": [{"Name": "Vezzano Ligure", "Country Code": "IT", "Population": 1392.0, "Lat": 44.14144, "Lon": 9.88692}], "Vezzano sul Crostolo": [{"Name": "Vezzano sul Crostolo", "Country Code": "IT", "Population": 2370.0, "Lat": 44.60241, "Lon": 10.54469}], "Vezzi Portio": [{"Name": "Vezzi Portio", "Country Code": "IT", "Population": 690.0, "Lat": 44.22933, "Lon": 8.36505}], "Vi": [{"Name": "Vi", "Country Code": "SE", "Population": 4757.0, "Lat": 62.3, "Lon": 17.16667}, {"Name": "Vi", "Country Code": "SE", "Population": 5841.0, "Lat": 62.43333, "Lon": 17.41667}], "Vi Thanh": [{"Name": "V\u1ecb Thanh", "Country Code": "VN", "Population": 24477.0, "Lat": 9.78449, "Lon": 105.47012}], "Via Lippia": [{"Name": "Via Lippia", "Country Code": "IT", "Population": 1521.0, "Lat": 43.08611, "Lon": 12.48106}], "Viacha": [{"Name": "Viacha", "Country Code": "BO", "Population": 86218.0, "Lat": -16.65, "Lon": -68.3}], "Viadana": [{"Name": "Viadana", "Country Code": "IT", "Population": 20013.0, "Lat": 44.93553, "Lon": 10.51898}, {"Name": "Viadana", "Country Code": "IT", "Population": 1157.0, "Lat": 45.37189, "Lon": 10.33632}], "Viadanica": [{"Name": "Viadanica", "Country Code": "IT", "Population": 816.0, "Lat": 45.68468, "Lon": 9.96146}], "Viagrande": [{"Name": "Viagrande", "Country Code": "IT", "Population": 6880.0, "Lat": 37.61032, "Lon": 15.09794}], "Viale": [{"Name": "Viale", "Country Code": "AR", "Population": 8939.0, "Lat": -31.86819, "Lon": -60.00755}, {"Name": "Viale", "Country Code": "IT", "Population": 225.0, "Lat": 45.00015, "Lon": 8.04993}], "Vialfre": [{"Name": "Vialfr\u00e8", "Country Code": "IT", "Population": 224.0, "Lat": 45.38076, "Lon": 7.81822}], "Vialonga": [{"Name": "Vialonga", "Country Code": "PT", "Population": 16088.0, "Lat": 38.87206, "Lon": -9.07805}], "Viamao": [{"Name": "Viam\u00e3o", "Country Code": "BR", "Population": 285269.0, "Lat": -30.08111, "Lon": -51.02333}], "Viamonte": [{"Name": "Viamonte", "Country Code": "AR", "Population": 1598.0, "Lat": -33.74614, "Lon": -63.09737}], "Vian": [{"Name": "Vian", "Country Code": "US", "Population": 1396.0, "Lat": 35.49843, "Lon": -94.96967}], "Viana": [{"Name": "Viana", "Country Code": "BR", "Population": 55122.0, "Lat": -20.39028, "Lon": -40.49611}, {"Name": "Viana", "Country Code": "BR", "Population": 26689.0, "Lat": -3.22028, "Lon": -45.00361}, {"Name": "Viana", "Country Code": "ES", "Population": 0.0, "Lat": 42.51552, "Lon": -2.37123}], "Viana de Cega": [{"Name": "Viana de Cega", "Country Code": "ES", "Population": 1794.0, "Lat": 41.52927, "Lon": -4.75245}], "Viana de Duero": [{"Name": "Viana de Duero", "Country Code": "ES", "Population": 73.0, "Lat": 41.53406, "Lon": -2.46099}], "Viana de Jadraque": [{"Name": "Viana de Jadraque", "Country Code": "ES", "Population": 42.0, "Lat": 41.02577, "Lon": -2.76966}], "Viana do Alentejo": [{"Name": "Viana do Alentejo", "Country Code": "PT", "Population": 0.0, "Lat": 38.33458, "Lon": -8.0044}], "Viana do Castelo": [{"Name": "Viana do Castelo", "Country Code": "PT", "Population": 36148.0, "Lat": 41.69323, "Lon": -8.83287}], "Viandar de la Vera": [{"Name": "Viandar de la Vera", "Country Code": "ES", "Population": 306.0, "Lat": 40.12191, "Lon": -5.53593}], "Vianden": [{"Name": "Vianden", "Country Code": "LU", "Population": 1626.0, "Lat": 49.935, "Lon": 6.20889}], "Viane": [{"Name": "Viane", "Country Code": "BE", "Population": 1892.0, "Lat": 50.74232, "Lon": 3.92478}], "Vianen": [{"Name": "Vianen", "Country Code": "NL", "Population": 19931.0, "Lat": 51.9925, "Lon": 5.09167}], "Viangxai": [{"Name": "Viangxai", "Country Code": "LA", "Population": 0.0, "Lat": 20.40677, "Lon": 104.22379}], "Viani": [{"Name": "Vian\u00ed", "Country Code": "CO", "Population": 1586.0, "Lat": 4.87384, "Lon": -74.56244}], "Vianne": [{"Name": "Vianne", "Country Code": "FR", "Population": 1280.0, "Lat": 44.1972, "Lon": 0.32056}], "Viano": [{"Name": "Viano", "Country Code": "IT", "Population": 1117.0, "Lat": 44.54516, "Lon": 10.62435}], "Vianopolis": [{"Name": "Vian\u00f3polis", "Country Code": "BR", "Population": 7807.0, "Lat": -16.74194, "Lon": -48.51639}], "Viareggio": [{"Name": "Viareggio", "Country Code": "IT", "Population": 62169.0, "Lat": 43.86693, "Lon": 10.2502}], "Viarigi": [{"Name": "Viarigi", "Country Code": "IT", "Population": 476.0, "Lat": 44.98055, "Lon": 8.35714}], "Viarmes": [{"Name": "Viarmes", "Country Code": "FR", "Population": 4961.0, "Lat": 49.13082, "Lon": 2.37074}], "Vias": [{"Name": "Vias", "Country Code": "FR", "Population": 4906.0, "Lat": 43.312, "Lon": 3.4185}], "Viator": [{"Name": "Viator", "Country Code": "ES", "Population": 3945.0, "Lat": 36.89006, "Lon": -2.42695}], "Vibble": [{"Name": "Vibble", "Country Code": "SE", "Population": 1709.0, "Lat": 57.60452, "Lon": 18.25601}], "Vibo Valentia": [{"Name": "Vibo Valentia", "Country Code": "IT", "Population": 19263.0, "Lat": 38.67618, "Lon": 16.10094}], "Vibonati": [{"Name": "Vibonati", "Country Code": "IT", "Population": 904.0, "Lat": 40.09921, "Lon": 15.58357}], "Viborg": [{"Name": "Viborg", "Country Code": "DK", "Population": 41239.0, "Lat": 56.45319, "Lon": 9.40201}], "Viborillas": [{"Name": "Viborillas", "Country Code": "MX", "Population": 1138.0, "Lat": 20.60882, "Lon": -100.18558}], "Vibraye": [{"Name": "Vibraye", "Country Code": "FR", "Population": 2707.0, "Lat": 48.05963, "Lon": 0.7353}], "Viby": [{"Name": "Viby", "Country Code": "DK", "Population": 4773.0, "Lat": 55.54872, "Lon": 12.02391}], "Vic": [{"Name": "Vic", "Country Code": "ES", "Population": 39844.0, "Lat": 41.93012, "Lon": 2.25486}], "Vic-Fezensac": [{"Name": "Vic-Fezensac", "Country Code": "FR", "Population": 3799.0, "Lat": 43.75873, "Lon": 0.30319}], "Vic-en-Bigorre": [{"Name": "Vic-en-Bigorre", "Country Code": "FR", "Population": 5375.0, "Lat": 43.38682, "Lon": 0.05471}], "Vic-la-Gardiole": [{"Name": "Vic-la-Gardiole", "Country Code": "FR", "Population": 2760.0, "Lat": 43.4908, "Lon": 3.7975}], "Vic-le-Comte": [{"Name": "Vic-le-Comte", "Country Code": "FR", "Population": 4590.0, "Lat": 45.64296, "Lon": 3.24607}], "Vic-sur-Aisne": [{"Name": "Vic-sur-Aisne", "Country Code": "FR", "Population": 1824.0, "Lat": 49.40609, "Lon": 3.11223}], "Vic-sur-Cere": [{"Name": "Vic-sur-C\u00e8re", "Country Code": "FR", "Population": 1936.0, "Lat": 44.98011, "Lon": 2.62505}], "Vic-sur-Seille": [{"Name": "Vic-sur-Seille", "Country Code": "FR", "Population": 1600.0, "Lat": 48.78195, "Lon": 6.53079}], "Vicalvaro": [{"Name": "Vic\u00e1lvaro", "Country Code": "ES", "Population": 66439.0, "Lat": 40.4, "Lon": -3.6}], "Vicalvi": [{"Name": "Vicalvi", "Country Code": "IT", "Population": 539.0, "Lat": 41.67809, "Lon": 13.70813}], "Vicam": [{"Name": "Vicam", "Country Code": "MX", "Population": 8837.0, "Lat": 27.64354, "Lon": -110.29351}], "Vicar": [{"Name": "V\u00edcar", "Country Code": "ES", "Population": 22853.0, "Lat": 36.83155, "Lon": -2.64273}], "Vicarello": [{"Name": "Vicarello", "Country Code": "IT", "Population": 3106.0, "Lat": 43.61238, "Lon": 10.46515}], "Vicari": [{"Name": "Vicari", "Country Code": "IT", "Population": 2563.0, "Lat": 37.82371, "Lon": 13.56889}], "Vicaria": [{"Name": "Vicaria", "Country Code": "IT", "Population": 15062.0, "Lat": 40.86151, "Lon": 14.27328}], "Vicchio": [{"Name": "Vicchio", "Country Code": "IT", "Population": 3747.0, "Lat": 43.93413, "Lon": 11.46004}], "Vice": [{"Name": "Vice", "Country Code": "PE", "Population": 12915.0, "Lat": -5.41667, "Lon": -80.78333}], "Vicencia": [{"Name": "Vic\u00eancia", "Country Code": "BR", "Population": 10378.0, "Lat": -7.65694, "Lon": -35.32667}], "Vicente Camalote": [{"Name": "Vicente Camalote", "Country Code": "MX", "Population": 7164.0, "Lat": 18.51443, "Lon": -96.52915}], "Vicente Guerrero": [{"Name": "Vicente Guerrero", "Country Code": "MX", "Population": 1997.0, "Lat": 16.43879, "Lon": -92.71237}, {"Name": "Vicente Guerrero", "Country Code": "MX", "Population": 13794.0, "Lat": 16.93306, "Lon": -96.70139}, {"Name": "Vicente Guerrero", "Country Code": "MX", "Population": 1317.0, "Lat": 27.53786, "Lon": -109.97697}, {"Name": "Vicente Guerrero", "Country Code": "MX", "Population": 1486.0, "Lat": 20.12322, "Lon": -97.65417}, {"Name": "Vicente Guerrero", "Country Code": "MX", "Population": 1572.0, "Lat": 17.51323, "Lon": -92.92236}, {"Name": "Vicente Guerrero", "Country Code": "MX", "Population": 15982.0, "Lat": 23.73429, "Lon": -103.98487}, {"Name": "Vicente Guerrero", "Country Code": "MX", "Population": 1383.0, "Lat": 16.66028, "Lon": -93.58306}, {"Name": "Vicente Guerrero", "Country Code": "MX", "Population": 1568.0, "Lat": 20.16567, "Lon": -99.05746}, {"Name": "Vicente Guerrero", "Country Code": "MX", "Population": 2009.0, "Lat": 16.67999, "Lon": -93.26132}, {"Name": "Vicente Guerrero", "Country Code": "MX", "Population": 11455.0, "Lat": 30.73097, "Lon": -115.99071}, {"Name": "Vicente Guerrero", "Country Code": "MX", "Population": 1203.0, "Lat": 17.49594, "Lon": -94.7194}], "Vicente Guerrero (San Javier)": [{"Name": "Vicente Guerrero (San Javier)", "Country Code": "MX", "Population": 1105.0, "Lat": 19.94991, "Lon": -98.90135}], "Vicente Herrera": [{"Name": "Vicente Herrera", "Country Code": "MX", "Population": 1233.0, "Lat": 20.57695, "Lon": -97.34973}], "Vicente Noble": [{"Name": "Vicente Noble", "Country Code": "DO", "Population": 11060.0, "Lat": 18.38443, "Lon": -71.18009}], "Vicenza": [{"Name": "Vicenza", "Country Code": "IT", "Population": 111980.0, "Lat": 45.54672, "Lon": 11.5475}], "Vichadero": [{"Name": "Vichadero", "Country Code": "UY", "Population": 3698.0, "Lat": -31.77794, "Lon": -54.69183}], "Vichte": [{"Name": "Vichte", "Country Code": "BE", "Population": 4721.0, "Lat": 50.83868, "Lon": 3.40129}], "Vichten": [{"Name": "Vichten", "Country Code": "LU", "Population": 764.0, "Lat": 49.80306, "Lon": 6.0}], "Vichuga": [{"Name": "Vichuga", "Country Code": "RU", "Population": 39071.0, "Lat": 57.2145, "Lon": 41.92555}], "Vichy": [{"Name": "Vichy", "Country Code": "FR", "Population": 27019.0, "Lat": 46.12709, "Lon": 3.42577}], "Viciomaggio": [{"Name": "Viciomaggio", "Country Code": "IT", "Population": 1021.0, "Lat": 43.43218, "Lon": 11.77323}], "Vicksburg": [{"Name": "Vicksburg", "Country Code": "US", "Population": 23131.0, "Lat": 32.35265, "Lon": -90.87788}, {"Name": "Vicksburg", "Country Code": "US", "Population": 3230.0, "Lat": 42.12005, "Lon": -85.53278}], "Vico": [{"Name": "Vico", "Country Code": "IT", "Population": 0.0, "Lat": 46.42419, "Lon": 12.58398}], "Vico Canavese": [{"Name": "Vico Canavese", "Country Code": "IT", "Population": 430.0, "Lat": 45.49342, "Lon": 7.77887}], "Vico Equense": [{"Name": "Vico Equense", "Country Code": "IT", "Population": 12820.0, "Lat": 40.65977, "Lon": 14.43386}], "Vico del Gargano": [{"Name": "Vico del Gargano", "Country Code": "IT", "Population": 7284.0, "Lat": 41.89661, "Lon": 15.95682}], "Vico nel Lazio": [{"Name": "Vico nel Lazio", "Country Code": "IT", "Population": 809.0, "Lat": 41.77822, "Lon": 13.34279}], "Vicofertile": [{"Name": "Vicofertile", "Country Code": "IT", "Population": 1654.0, "Lat": 44.78557, "Lon": 10.262}], "Vicoforte": [{"Name": "Vicoforte", "Country Code": "IT", "Population": 2130.0, "Lat": 44.36393, "Lon": 7.86264}], "Vicoli": [{"Name": "Vicoli", "Country Code": "IT", "Population": 148.0, "Lat": 42.34095, "Lon": 13.89688}], "Vicolungo": [{"Name": "Vicolungo", "Country Code": "IT", "Population": 789.0, "Lat": 45.47522, "Lon": 8.46124}], "Vicomoscano": [{"Name": "Vicomoscano", "Country Code": "IT", "Population": 1275.0, "Lat": 44.97476, "Lon": 10.45045}], "Vicopisano": [{"Name": "Vicopisano", "Country Code": "IT", "Population": 5593.0, "Lat": 43.69305, "Lon": 10.58359}], "Vicosa": [{"Name": "Vi\u00e7osa", "Country Code": "BR", "Population": 19573.0, "Lat": -9.37139, "Lon": -36.24083}, {"Name": "Vi\u00e7osa", "Country Code": "BR", "Population": 68680.0, "Lat": -20.75389, "Lon": -42.88194}], "Vicosa do Ceara": [{"Name": "Vi\u00e7osa do Cear\u00e1", "Country Code": "BR", "Population": 16636.0, "Lat": -3.56222, "Lon": -41.09222}], "Vicovaro": [{"Name": "Vicovaro", "Country Code": "IT", "Population": 3617.0, "Lat": 42.01924, "Lon": 12.90001}], "Vicovu de Jos": [{"Name": "Vicovu de Jos", "Country Code": "RO", "Population": 5956.0, "Lat": 47.9, "Lon": 25.73333}], "Vicovu de Sus": [{"Name": "Vicovu de Sus", "Country Code": "RO", "Population": 14077.0, "Lat": 47.93333, "Lon": 25.68333}], "Vicq": [{"Name": "Vicq", "Country Code": "FR", "Population": 1207.0, "Lat": 50.40738, "Lon": 3.60348}], "Vicq-sur-Breuilh": [{"Name": "Vicq-sur-Breuilh", "Country Code": "FR", "Population": 1115.0, "Lat": 45.64628, "Lon": 1.38153}], "Vicques": [{"Name": "Vicques", "Country Code": "CH", "Population": 1741.0, "Lat": 47.35, "Lon": 7.41342}], "Victor": [{"Name": "Victor", "Country Code": "US", "Population": 1961.0, "Lat": 43.6027, "Lon": -111.11133}, {"Name": "Victor", "Country Code": "US", "Population": 2759.0, "Lat": 42.98256, "Lon": -77.40888}], "Victor Harbor": [{"Name": "Victor Harbor", "Country Code": "AU", "Population": 4158.0, "Lat": -35.55042, "Lon": 138.62154}], "Victor Raul": [{"Name": "Victor Raul", "Country Code": "PE", "Population": 8369.0, "Lat": -8.40469, "Lon": -78.82276}], "Victor Rosales": [{"Name": "V\u00edctor Rosales", "Country Code": "MX", "Population": 32721.0, "Lat": 22.94889, "Lon": -102.70222}], "Victor Verster": [{"Name": "Victor Verster", "Country Code": "ZA", "Population": 3387.0, "Lat": -33.84088, "Lon": 18.99893}], "Victor Vlad Delamarina": [{"Name": "Victor Vlad Delamarina", "Country Code": "RO", "Population": 2879.0, "Lat": 45.64056, "Lon": 21.89278}], "Victoria": [{"Name": "Victoria", "Country Code": "AR", "Population": 25139.0, "Lat": -32.61841, "Lon": -60.15478}, {"Name": "Victoria", "Country Code": "CA", "Population": 289625.0, "Lat": 48.4359, "Lon": -123.35155}, {"Name": "Victoria", "Country Code": "CL", "Population": 24555.0, "Lat": -38.23291, "Lon": -72.33292}, {"Name": "Victoria", "Country Code": "CO", "Population": 4723.0, "Lat": 5.31648, "Lon": -74.91101}, {"Name": "Victoria", "Country Code": "GD", "Population": 2256.0, "Lat": 12.19021, "Lon": -61.70677}, {"Name": "Victoria", "Country Code": "HK", "Population": 956800.0, "Lat": 22.2875, "Lon": 114.14417}, {"Name": "Victoria", "Country Code": "HN", "Population": 2884.0, "Lat": 15.50381, "Lon": -87.82625}, {"Name": "Victoria", "Country Code": "MT", "Population": 6596.0, "Lat": 36.04444, "Lon": 14.23972}, {"Name": "Victoria", "Country Code": "MX", "Population": 2564.0, "Lat": 21.21183, "Lon": -100.21545}, {"Name": "Victoria", "Country Code": "PH", "Population": 0.0, "Lat": 15.5775, "Lon": 120.6822}, {"Name": "Victoria", "Country Code": "PH", "Population": 10088.0, "Lat": 13.17722, "Lon": 121.27806}, {"Name": "Victoria", "Country Code": "PH", "Population": 24456.0, "Lat": 14.2277, "Lon": 121.3292}, {"Name": "Victoria", "Country Code": "PH", "Population": 2718.0, "Lat": 12.44722, "Lon": 124.31111}, {"Name": "Victoria", "Country Code": "RO", "Population": 4305.0, "Lat": 47.28333, "Lon": 27.58333}, {"Name": "Victoria", "Country Code": "RO", "Population": 10247.0, "Lat": 45.72968, "Lon": 24.7028}, {"Name": "Victoria", "Country Code": "RO", "Population": 1380.0, "Lat": 47.61018, "Lon": 27.1673}, {"Name": "Victoria", "Country Code": "RO", "Population": 3942.0, "Lat": 44.81667, "Lon": 27.61667}, {"Name": "Victoria", "Country Code": "SC", "Population": 22881.0, "Lat": -4.62001, "Lon": 55.45501}, {"Name": "Victoria", "Country Code": "SV", "Population": 2023.0, "Lat": 13.95, "Lon": -88.63333}, {"Name": "Victoria", "Country Code": "US", "Population": 8676.0, "Lat": 44.85857, "Lon": -93.66163}, {"Name": "Victoria", "Country Code": "US", "Population": 1677.0, "Lat": 36.99487, "Lon": -78.22722}, {"Name": "Victoria", "Country Code": "US", "Population": 67574.0, "Lat": 28.80527, "Lon": -97.0036}, {"Name": "Victoria", "Country Code": "US", "Population": 1226.0, "Lat": 38.85279, "Lon": -99.1476}], "Victoria Falls": [{"Name": "Victoria Falls", "Country Code": "ZW", "Population": 35199.0, "Lat": -17.93285, "Lon": 25.83066}], "Victoria Park": [{"Name": "Victoria Park", "Country Code": "AU", "Population": 8493.0, "Lat": -31.97619, "Lon": 115.90525}, {"Name": "Victoria Park", "Country Code": "HK", "Population": 13521.0, "Lat": 22.28464, "Lon": 114.19051}], "Victoria Point": [{"Name": "Victoria Point", "Country Code": "AU", "Population": 14669.0, "Lat": -27.58329, "Lon": 153.31172}], "Victoria Village": [{"Name": "Victoria Village", "Country Code": "CA", "Population": 17510.0, "Lat": 43.72849, "Lon": -79.31487}], "Victoria West": [{"Name": "Victoria West", "Country Code": "ZA", "Population": 0.0, "Lat": -31.40364, "Lon": 23.11461}], "Victoria de Cortazar": [{"Name": "Victoria de Cortazar", "Country Code": "MX", "Population": 3950.0, "Lat": 20.3346, "Lon": -101.03173}], "Victoria de Durango": [{"Name": "Victoria de Durango", "Country Code": "MX", "Population": 518709.0, "Lat": 24.02032, "Lon": -104.65756}], "Victorias": [{"Name": "Victorias", "Country Code": "PH", "Population": 86510.0, "Lat": 10.90154, "Lon": 123.0705}], "Victoriaville": [{"Name": "Victoriaville", "Country Code": "CA", "Population": 34426.0, "Lat": 46.05007, "Lon": -71.96579}], "Victorica": [{"Name": "Victorica", "Country Code": "AR", "Population": 6565.0, "Lat": -36.21654, "Lon": -65.43709}], "Victorville": [{"Name": "Victorville", "Country Code": "US", "Population": 122225.0, "Lat": 34.53611, "Lon": -117.29116}], "Victory Gardens": [{"Name": "Victory Gardens", "Country Code": "US", "Population": 1532.0, "Lat": 40.87593, "Lon": -74.54238}], "Victory Lakes": [{"Name": "Victory Lakes", "Country Code": "US", "Population": 2111.0, "Lat": 39.63317, "Lon": -74.966}], "Vicuna": [{"Name": "Vicu\u00f1a", "Country Code": "CL", "Population": 13496.0, "Lat": -30.03541, "Lon": -70.71274}], "Vicuna Mackenna": [{"Name": "Vicu\u00f1a Mackenna", "Country Code": "AR", "Population": 8994.0, "Lat": -33.91823, "Lon": -64.39066}], "Vid Sjogv": [{"Name": "Vi\u00f0 Sj\u00f3gv", "Country Code": "FO", "Population": 1158.0, "Lat": 62.11967, "Lon": -6.75005}], "Vida Mejor I": [{"Name": "Vida Mejor I", "Country Code": "MX", "Population": 6460.0, "Lat": 14.86972, "Lon": -92.30778}], "Vidais": [{"Name": "Vidais", "Country Code": "PT", "Population": 1155.0, "Lat": 39.36886, "Lon": -9.04916}], "Vidalengo": [{"Name": "Vidalengo", "Country Code": "IT", "Population": 1083.0, "Lat": 45.52235, "Lon": 9.64128}], "Vidalia": [{"Name": "Vidalia", "Country Code": "US", "Population": 10679.0, "Lat": 32.21769, "Lon": -82.41346}, {"Name": "Vidalia", "Country Code": "US", "Population": 4112.0, "Lat": 31.56544, "Lon": -91.42595}], "Vidardo": [{"Name": "Vidardo", "Country Code": "IT", "Population": 2496.0, "Lat": 45.25667, "Lon": 9.40241}], "Vidareidi": [{"Name": "Vi\u00f0arei\u00f0i", "Country Code": "FO", "Population": 0.0, "Lat": 62.35999, "Lon": -6.5313}], "Vidauban": [{"Name": "Vidauban", "Country Code": "FR", "Population": 7931.0, "Lat": 43.42721, "Lon": 6.43185}], "Vidayanes": [{"Name": "Vidayanes", "Country Code": "ES", "Population": 100.0, "Lat": 41.91011, "Lon": -5.57424}], "Vidce": [{"Name": "Vid\u010de", "Country Code": "CZ", "Population": 1614.0, "Lat": 49.44151, "Lon": 18.09473}], "Viddalba": [{"Name": "Viddalba", "Country Code": "IT", "Population": 1483.0, "Lat": 40.91259, "Lon": 8.89009}], "Videbaek": [{"Name": "Videb\u00e6k", "Country Code": "DK", "Population": 4242.0, "Lat": 56.0876, "Lon": 8.62852}], "Videira": [{"Name": "Videira", "Country Code": "BR", "Population": 42440.0, "Lat": -27.00833, "Lon": -51.15167}], "Videle": [{"Name": "Videle", "Country Code": "RO", "Population": 11813.0, "Lat": 44.27806, "Lon": 25.52444}], "Videm": [{"Name": "Videm", "Country Code": "SI", "Population": 590.0, "Lat": 45.85, "Lon": 14.69417}], "Videm pri Ptuju": [{"Name": "Videm pri Ptuju", "Country Code": "SI", "Population": 471.0, "Lat": 46.36861, "Lon": 15.90639}], "Videmala": [{"Name": "Videmala", "Country Code": "ES", "Population": 225.0, "Lat": 41.61299, "Lon": -6.04056}], "Vidigueira": [{"Name": "Vidigueira", "Country Code": "PT", "Population": 5932.0, "Lat": 38.20995, "Lon": -7.8005}], "Vidigulfo": [{"Name": "Vidigulfo", "Country Code": "IT", "Population": 4735.0, "Lat": 45.29245, "Lon": 9.23498}], "Vidim": [{"Name": "Vidim", "Country Code": "RU", "Population": 1415.0, "Lat": 56.4088, "Lon": 103.1106}], "Vidin": [{"Name": "Vidin", "Country Code": "BG", "Population": 40422.0, "Lat": 43.99159, "Lon": 22.88236}], "Vidisha": [{"Name": "Vidisha", "Country Code": "IN", "Population": 140045.0, "Lat": 23.52604, "Lon": 77.81092}], "Vidnava": [{"Name": "Vidnava", "Country Code": "CZ", "Population": 1425.0, "Lat": 50.37234, "Lon": 17.18626}], "Vidnoye": [{"Name": "Vidnoye", "Country Code": "RU", "Population": 51721.0, "Lat": 55.5523, "Lon": 37.70885}], "Vidor": [{"Name": "Vidor", "Country Code": "IT", "Population": 3509.0, "Lat": 45.86659, "Lon": 12.04517}, {"Name": "Vidor", "Country Code": "US", "Population": 10945.0, "Lat": 30.1316, "Lon": -94.01545}], "Vidosi": [{"Name": "Vido\u0161i", "Country Code": "BA", "Population": 3905.0, "Lat": 43.77139, "Lon": 17.02833}], "Vidovci": [{"Name": "Vidovci", "Country Code": "HR", "Population": 1264.0, "Lat": 45.3325, "Lon": 17.71472}], "Vidovec": [{"Name": "Vidovec", "Country Code": "HR", "Population": 769.0, "Lat": 46.28333, "Lon": 16.24111}], "Vidra": [{"Name": "Vidr\u00e0", "Country Code": "ES", "Population": 165.0, "Lat": 42.12285, "Lon": 2.30977}, {"Name": "Vidra", "Country Code": "RO", "Population": 7423.0, "Lat": 45.91667, "Lon": 26.9}, {"Name": "Vidra", "Country Code": "RO", "Population": 8322.0, "Lat": 44.26056, "Lon": 26.16972}, {"Name": "Vidra", "Country Code": "RO", "Population": 65.0, "Lat": 46.36758, "Lon": 22.88811}], "Vidracco": [{"Name": "Vidracco", "Country Code": "IT", "Population": 321.0, "Lat": 45.43066, "Lon": 7.75742}], "Vidreres": [{"Name": "Vidreres", "Country Code": "ES", "Population": 0.0, "Lat": 41.78333, "Lon": 2.78333}], "Vidyayevo": [{"Name": "Vidyayevo", "Country Code": "RU", "Population": 7062.0, "Lat": 69.31914, "Lon": 32.80488}], "Vidzy": [{"Name": "Vidzy", "Country Code": "BY", "Population": 2000.0, "Lat": 55.3945, "Lon": 26.6305}], "Viechtach": [{"Name": "Viechtach", "Country Code": "DE", "Population": 8653.0, "Lat": 49.08001, "Lon": 12.88566}], "Viechtwang": [{"Name": "Viechtwang", "Country Code": "AT", "Population": 1349.0, "Lat": 47.91531, "Lon": 13.96345}], "Viedma": [{"Name": "Viedma", "Country Code": "AR", "Population": 48940.0, "Lat": -40.81345, "Lon": -62.99668}], "Viehhausen": [{"Name": "Viehhausen", "Country Code": "AT", "Population": 2136.0, "Lat": 47.78333, "Lon": 12.98333}], "Viehhofen": [{"Name": "Viehhofen", "Country Code": "AT", "Population": 603.0, "Lat": 47.36667, "Lon": 12.73333}], "Viehofen": [{"Name": "Viehofen", "Country Code": "AT", "Population": 4507.0, "Lat": 48.21667, "Lon": 15.61667}], "Vieil-Aklodj": [{"Name": "Vieil-Aklodj", "Country Code": "CI", "Population": 1992.0, "Lat": 5.4188, "Lon": -4.3519}], "Vieille Chapelle": [{"Name": "Vieille Chapelle", "Country Code": "FR", "Population": 8181.0, "Lat": 43.24963, "Lon": 5.38048}], "Vieille-Brioude": [{"Name": "Vieille-Brioude", "Country Code": "FR", "Population": 1157.0, "Lat": 45.2647, "Lon": 3.40479}], "Vieille-Eglise": [{"Name": "Vieille-\u00c9glise", "Country Code": "FR", "Population": 1162.0, "Lat": 50.92823, "Lon": 2.07671}], "Vieille-Toulouse": [{"Name": "Vieille-Toulouse", "Country Code": "FR", "Population": 1020.0, "Lat": 43.52366, "Lon": 1.4423}], "Vieillevigne": [{"Name": "Vieillevigne", "Country Code": "FR", "Population": 3529.0, "Lat": 46.97152, "Lon": -1.43446}], "Vieira de Leiria": [{"Name": "Vieira de Leiria", "Country Code": "PT", "Population": 5807.0, "Lat": 39.86945, "Lon": -8.93238}], "Vieira do Minho": [{"Name": "Vieira do Minho", "Country Code": "PT", "Population": 1687.0, "Lat": 41.63292, "Lon": -8.14252}], "Viejo Daan Banua": [{"Name": "Viejo Daan Banua", "Country Code": "PH", "Population": 4036.0, "Lat": 10.90354, "Lon": 123.0597}], "Vieksniai": [{"Name": "Viek\u0161niai", "Country Code": "LT", "Population": 1938.0, "Lat": 56.23598, "Lon": 22.51667}], "Vielha": [{"Name": "Vielha", "Country Code": "ES", "Population": 5385.0, "Lat": 42.70196, "Lon": 0.79556}], "Vielle-Saint-Girons": [{"Name": "Vielle-Saint-Girons", "Country Code": "FR", "Population": 1087.0, "Lat": 43.95, "Lon": -1.3}], "Vielmur-sur-Agout": [{"Name": "Vielmur-sur-Agout", "Country Code": "FR", "Population": 1112.0, "Lat": 43.61667, "Lon": 2.1}], "Vielsalm": [{"Name": "Vielsalm", "Country Code": "BE", "Population": 7291.0, "Lat": 50.28407, "Lon": 5.91502}], "Vienenburg": [{"Name": "Vienenburg", "Country Code": "DE", "Population": 11417.0, "Lat": 51.95242, "Lon": 10.56374}], "Viengthong": [{"Name": "Viengthong", "Country Code": "LA", "Population": 0.0, "Lat": 20.32792, "Lon": 103.40856}], "Viengxay": [{"Name": "Viengxay", "Country Code": "LA", "Population": 0.0, "Lat": 20.34222, "Lon": 104.34464}], "Vienna": [{"Name": "Vienna", "Country Code": "AT", "Population": 1691468.0, "Lat": 48.20849, "Lon": 16.37208}, {"Name": "Vienna", "Country Code": "US", "Population": 16522.0, "Lat": 38.90122, "Lon": -77.26526}, {"Name": "Vienna", "Country Code": "US", "Population": 10573.0, "Lat": 39.32702, "Lon": -81.54846}, {"Name": "Vienna", "Country Code": "US", "Population": 3777.0, "Lat": 32.09156, "Lon": -83.79545}, {"Name": "Vienna", "Country Code": "US", "Population": 1647.0, "Lat": 37.41533, "Lon": -88.89784}, {"Name": "Vienna", "Country Code": "US", "Population": 597.0, "Lat": 38.18671, "Lon": -91.94711}], "Vienna Bend": [{"Name": "Vienna Bend", "Country Code": "US", "Population": 1251.0, "Lat": 31.73239, "Lon": -93.041}], "Viennay": [{"Name": "Viennay", "Country Code": "FR", "Population": 1067.0, "Lat": 46.69048, "Lon": -0.24412}], "Vienne": [{"Name": "Vienne", "Country Code": "FR", "Population": 32293.0, "Lat": 45.52569, "Lon": 4.87484}], "Vienne-en-Val": [{"Name": "Vienne-en-Val", "Country Code": "FR", "Population": 1642.0, "Lat": 47.80036, "Lon": 2.1346}], "Vientiane": [{"Name": "Vientiane", "Country Code": "LA", "Population": 196731.0, "Lat": 17.96667, "Lon": 102.6}], "Viento Frio": [{"Name": "Viento Fr\u00edo", "Country Code": "PA", "Population": 387.0, "Lat": 9.58263, "Lon": -79.4069}], "Vieques": [{"Name": "Vieques", "Country Code": "PR", "Population": 4325.0, "Lat": 18.42495, "Lon": -65.83294}], "Viera East": [{"Name": "Viera East", "Country Code": "US", "Population": 10757.0, "Lat": 28.26234, "Lon": -80.71449}], "Viera West": [{"Name": "Viera West", "Country Code": "US", "Population": 6641.0, "Lat": 28.24504, "Lon": -80.7338}], "Viereck": [{"Name": "Viereck", "Country Code": "DE", "Population": 1375.0, "Lat": 53.54898, "Lon": 14.04001}], "Vieremae": [{"Name": "Vierem\u00e4", "Country Code": "FI", "Population": 4100.0, "Lat": 63.75, "Lon": 27.01667}], "Viereth-Trunstadt": [{"Name": "Viereth-Trunstadt", "Country Code": "DE", "Population": 3684.0, "Lat": 49.92222, "Lon": 10.77716}], "Vierkirchen": [{"Name": "Vierkirchen", "Country Code": "DE", "Population": 4216.0, "Lat": 48.36667, "Lon": 11.46667}], "Vierlas": [{"Name": "Vierlas", "Country Code": "ES", "Population": 94.0, "Lat": 41.92708, "Lon": -1.68123}], "Viernau": [{"Name": "Viernau", "Country Code": "DE", "Population": 2209.0, "Lat": 50.66225, "Lon": 10.55778}], "Viernheim": [{"Name": "Viernheim", "Country Code": "DE", "Population": 32620.0, "Lat": 49.54033, "Lon": 8.5782}], "Vierpolders": [{"Name": "Vierpolders", "Country Code": "NL", "Population": 1215.0, "Lat": 51.87917, "Lon": 4.17917}], "Viersani": [{"Name": "Vier\u0219ani", "Country Code": "RO", "Population": 1039.0, "Lat": 44.87875, "Lon": 23.5312}], "Viersel": [{"Name": "Viersel", "Country Code": "BE", "Population": 1289.0, "Lat": 51.18769, "Lon": 4.64918}], "Viersen": [{"Name": "Viersen", "Country Code": "DE", "Population": 76153.0, "Lat": 51.25435, "Lon": 6.39441}], "Vierset-Barse": [{"Name": "Vierset-Barse", "Country Code": "BE", "Population": 1434.0, "Lat": 50.48373, "Lon": 5.29816}], "Vieru": [{"Name": "Vieru", "Country Code": "RO", "Population": 1019.0, "Lat": 43.88787, "Lon": 25.80974}], "Vierzon": [{"Name": "Vierzon", "Country Code": "FR", "Population": 29876.0, "Lat": 47.22186, "Lon": 2.0684}], "Viesca": [{"Name": "Viesca", "Country Code": "MX", "Population": 3610.0, "Lat": 25.33923, "Lon": -102.80493}], "Viesite": [{"Name": "Vies\u012bte", "Country Code": "LV", "Population": 2162.0, "Lat": 56.34751, "Lon": 25.55514}], "Viesly": [{"Name": "Viesly", "Country Code": "FR", "Population": 1355.0, "Lat": 50.15345, "Lon": 3.46236}], "Vieste": [{"Name": "Vieste", "Country Code": "IT", "Population": 11227.0, "Lat": 41.88209, "Lon": 16.17139}], "Viesville": [{"Name": "Viesville", "Country Code": "BE", "Population": 2307.0, "Lat": 50.49088, "Lon": 4.40852}], "Viet Tri": [{"Name": "Vi\u1ec7t Tr\u00ec", "Country Code": "VN", "Population": 140935.0, "Lat": 21.32274, "Lon": 105.40198}], "Vietri di Potenza": [{"Name": "Vietri di Potenza", "Country Code": "IT", "Population": 1869.0, "Lat": 40.60027, "Lon": 15.50787}], "Vietri sul Mare": [{"Name": "Vietri sul Mare", "Country Code": "IT", "Population": 3852.0, "Lat": 40.6702, "Lon": 14.72661}], "Vieux Badien": [{"Name": "Vieux Badien", "Country Code": "CI", "Population": 1625.0, "Lat": 5.36534, "Lon": -4.61798}], "Vieux Fort": [{"Name": "Vieux Fort", "Country Code": "LC", "Population": 4574.0, "Lat": 13.71667, "Lon": -60.95}], "Vieux-Berquin": [{"Name": "Vieux-Berquin", "Country Code": "FR", "Population": 2255.0, "Lat": 50.69489, "Lon": 2.64444}], "Vieux-Boucau-les-Bains": [{"Name": "Vieux-Boucau-les-Bains", "Country Code": "FR", "Population": 1498.0, "Lat": 43.78644, "Lon": -1.40413}], "Vieux-Charmont": [{"Name": "Vieux-Charmont", "Country Code": "FR", "Population": 2634.0, "Lat": 47.5219, "Lon": 6.83738}], "Vieux-Conde": [{"Name": "Vieux-Cond\u00e9", "Country Code": "FR", "Population": 10773.0, "Lat": 50.45944, "Lon": 3.56738}], "Vieux-Genappe": [{"Name": "Vieux-Genappe", "Country Code": "BE", "Population": 2048.0, "Lat": 50.60846, "Lon": 4.44097}], "Vieux-Habitants": [{"Name": "Vieux-Habitants", "Country Code": "GP", "Population": 7728.0, "Lat": 16.05866, "Lon": -61.76667}], "Vieux-Thann": [{"Name": "Vieux-Thann", "Country Code": "FR", "Population": 3114.0, "Lat": 47.804, "Lon": 7.12067}], "Vievis": [{"Name": "Vievis", "Country Code": "LT", "Population": 4521.0, "Lat": 54.77258, "Lon": 24.81129}], "View Park-Windsor Hills": [{"Name": "View Park-Windsor Hills", "Country Code": "US", "Population": 11075.0, "Lat": 33.99551, "Lon": -118.34835}], "Viewbank": [{"Name": "Viewbank", "Country Code": "AU", "Population": 6769.0, "Lat": -37.73991, "Lon": 145.09323}], "Viewegs Garten": [{"Name": "Viewegs Garten", "Country Code": "DE", "Population": 3374.0, "Lat": 52.25847, "Lon": 10.5381}], "Viewpark": [{"Name": "Viewpark", "Country Code": "GB", "Population": 16020.0, "Lat": 55.82737, "Lon": -4.0573}], "Vif": [{"Name": "Vif", "Country Code": "FR", "Population": 6942.0, "Lat": 45.05654, "Lon": 5.67204}], "Viforata": [{"Name": "Vifor\u00e2ta", "Country Code": "RO", "Population": 2109.0, "Lat": 44.96011, "Lon": 25.45796}], "Viga": [{"Name": "Viga", "Country Code": "PH", "Population": 4089.0, "Lat": 13.8719, "Lon": 124.3091}, {"Name": "Viga", "Country Code": "PH", "Population": 2024.0, "Lat": 12.5162, "Lon": 125.0528}], "Vigan": [{"Name": "Vigan", "Country Code": "PH", "Population": 48545.0, "Lat": 17.57472, "Lon": 120.38694}], "Viganella": [{"Name": "Viganella", "Country Code": "IT", "Population": 103.0, "Lat": 46.05173, "Lon": 8.19374}], "Viganello": [{"Name": "Viganello", "Country Code": "CH", "Population": 6375.0, "Lat": 46.01342, "Lon": 8.96879}], "Vigano": [{"Name": "Vigan\u00f2", "Country Code": "IT", "Population": 1985.0, "Lat": 45.72468, "Lon": 9.32494}], "Vigano San Martino": [{"Name": "Vigano San Martino", "Country Code": "IT", "Population": 1004.0, "Lat": 45.72608, "Lon": 9.89616}], "Vigarano Mainarda": [{"Name": "Vigarano Mainarda", "Country Code": "IT", "Population": 3910.0, "Lat": 44.84079, "Lon": 11.49354}], "Vigarano Pieve": [{"Name": "Vigarano Pieve", "Country Code": "IT", "Population": 1988.0, "Lat": 44.86126, "Lon": 11.5095}], "Vigardolo": [{"Name": "Vigardolo", "Country Code": "IT", "Population": 1341.0, "Lat": 45.60599, "Lon": 11.58856}], "Vigasio": [{"Name": "Vigasio", "Country Code": "IT", "Population": 6918.0, "Lat": 45.3178, "Lon": 10.94371}], "Vigatto": [{"Name": "Vigatto", "Country Code": "IT", "Population": 1313.0, "Lat": 44.71999, "Lon": 10.33037}], "Vigeland": [{"Name": "Vigeland", "Country Code": "NO", "Population": 1258.0, "Lat": 58.08437, "Lon": 7.30497}], "Vigeois": [{"Name": "Vigeois", "Country Code": "FR", "Population": 1223.0, "Lat": 45.37934, "Lon": 1.51731}], "Vigevano": [{"Name": "Vigevano", "Country Code": "IT", "Population": 57970.0, "Lat": 45.31407, "Lon": 8.85437}], "Viggianello": [{"Name": "Viggianello", "Country Code": "IT", "Population": 484.0, "Lat": 39.97227, "Lon": 16.08521}], "Viggiano": [{"Name": "Viggiano", "Country Code": "IT", "Population": 2397.0, "Lat": 40.34213, "Lon": 15.89964}], "Viggiu": [{"Name": "Viggi\u00f9", "Country Code": "IT", "Population": 3091.0, "Lat": 45.87096, "Lon": 8.90861}], "Vighignolo": [{"Name": "Vighignolo", "Country Code": "IT", "Population": 4134.0, "Lat": 45.49542, "Lon": 9.04308}], "Vighizzolo": [{"Name": "Vighizzolo", "Country Code": "IT", "Population": 2798.0, "Lat": 45.43524, "Lon": 10.35507}], "Vighizzolo d'Este": [{"Name": "Vighizzolo d'Este", "Country Code": "IT", "Population": 626.0, "Lat": 45.17629, "Lon": 11.62471}], "Vigia": [{"Name": "Vigia", "Country Code": "BR", "Population": 29229.0, "Lat": -0.85833, "Lon": -48.14167}], "Vigia del Fuerte": [{"Name": "Vig\u00eda del Fuerte", "Country Code": "CO", "Population": 5624.0, "Lat": 6.58933, "Lon": -76.89599}], "Vigliano Biellese": [{"Name": "Vigliano Biellese", "Country Code": "IT", "Population": 7898.0, "Lat": 45.56317, "Lon": 8.10509}], "Vigliano d'Asti": [{"Name": "Vigliano d'Asti", "Country Code": "IT", "Population": 230.0, "Lat": 44.83405, "Lon": 8.22914}], "Vigliano-Bettolino": [{"Name": "Vigliano-Bettolino", "Country Code": "IT", "Population": 3266.0, "Lat": 45.43272, "Lon": 9.34422}], "Vigliatore 2": [{"Name": "Vigliatore 2", "Country Code": "IT", "Population": 1101.0, "Lat": 38.12221, "Lon": 15.13066}], "Vignacastrisi": [{"Name": "Vignacastrisi", "Country Code": "IT", "Population": 1350.0, "Lat": 40.01604, "Lon": 18.40704}], "Vignacourt": [{"Name": "Vignacourt", "Country Code": "FR", "Population": 2223.0, "Lat": 50.01236, "Lon": 2.19743}], "Vignale Monferrato": [{"Name": "Vignale Monferrato", "Country Code": "IT", "Population": 639.0, "Lat": 45.00996, "Lon": 8.39703}], "Vignale Riotorto": [{"Name": "Vignale Riotorto", "Country Code": "IT", "Population": 1445.0, "Lat": 42.97998, "Lon": 10.68471}], "Vignanello": [{"Name": "Vignanello", "Country Code": "IT", "Population": 4326.0, "Lat": 42.37879, "Lon": 12.27845}], "Vignate": [{"Name": "Vignate", "Country Code": "IT", "Population": 8800.0, "Lat": 45.49939, "Lon": 9.37719}], "Vigneulles-les-Hattonchatel": [{"Name": "Vigneulles-l\u00e8s-Hattonch\u00e2tel", "Country Code": "FR", "Population": 1453.0, "Lat": 48.98152, "Lon": 5.70464}], "Vigneux-de-Bretagne": [{"Name": "Vigneux-de-Bretagne", "Country Code": "FR", "Population": 5095.0, "Lat": 47.32545, "Lon": -1.73732}], "Vigneux-sur-Seine": [{"Name": "Vigneux-sur-Seine", "Country Code": "FR", "Population": 26692.0, "Lat": 48.70291, "Lon": 2.41357}], "Vignoc": [{"Name": "Vignoc", "Country Code": "FR", "Population": 1190.0, "Lat": 48.24793, "Lon": -1.78219}], "Vignola": [{"Name": "Vignola", "Country Code": "IT", "Population": 521.0, "Lat": 46.08815, "Lon": 9.27456}, {"Name": "Vignola", "Country Code": "IT", "Population": 22397.0, "Lat": 44.48383, "Lon": 11.01096}, {"Name": "Vignola", "Country Code": "IT", "Population": 20.0, "Lat": 46.04436, "Lon": 11.27738}], "Vignole Borbera": [{"Name": "Vignole Borbera", "Country Code": "IT", "Population": 1979.0, "Lat": 44.70819, "Lon": 8.89026}], "Vignole-Olmi": [{"Name": "Vignole-Olmi", "Country Code": "IT", "Population": 1440.0, "Lat": 43.86696, "Lon": 10.99045}], "Vignolo": [{"Name": "Vignolo", "Country Code": "IT", "Population": 1459.0, "Lat": 44.36364, "Lon": 7.47208}], "Vignone": [{"Name": "Vignone", "Country Code": "IT", "Population": 919.0, "Lat": 45.96118, "Lon": 8.56372}], "Vignot": [{"Name": "Vignot", "Country Code": "FR", "Population": 1303.0, "Lat": 48.77418, "Lon": 5.60904}], "Vignoux-sur-Barangeon": [{"Name": "Vignoux-sur-Barangeon", "Country Code": "FR", "Population": 1915.0, "Lat": 47.20068, "Lon": 2.17258}], "Vigny": [{"Name": "Vigny", "Country Code": "FR", "Population": 1106.0, "Lat": 49.07902, "Lon": 1.92806}], "Vigo": [{"Name": "Vigo", "Country Code": "ES", "Population": 297332.0, "Lat": 42.23282, "Lon": -8.72264}, {"Name": "Vigo", "Country Code": "PH", "Population": 2482.0, "Lat": 13.82666, "Lon": 120.17922}], "Vigo di Cadore": [{"Name": "Vigo di Cadore", "Country Code": "IT", "Population": 288.0, "Lat": 46.49904, "Lon": 12.47111}], "Vigo di Fassa": [{"Name": "Vigo di Fassa", "Country Code": "IT", "Population": 1036.0, "Lat": 46.41898, "Lon": 11.67418}], "Vigo di Ton": [{"Name": "Vigo di Ton", "Country Code": "IT", "Population": 585.0, "Lat": 46.26531, "Lon": 11.08798}], "Vigodarzere": [{"Name": "Vigodarzere", "Country Code": "IT", "Population": 6278.0, "Lat": 45.45751, "Lon": 11.88555}], "Vigolo": [{"Name": "Vigolo", "Country Code": "IT", "Population": 482.0, "Lat": 45.71642, "Lon": 10.02634}], "Vigolo Vattaro": [{"Name": "Vigolo Vattaro", "Country Code": "IT", "Population": 1779.0, "Lat": 46.00523, "Lon": 11.1979}], "Vigolzone": [{"Name": "Vigolzone", "Country Code": "IT", "Population": 1958.0, "Lat": 44.91394, "Lon": 9.66852}], "Vigone": [{"Name": "Vigone", "Country Code": "IT", "Population": 3907.0, "Lat": 44.84236, "Lon": 7.49774}], "Vigonovo": [{"Name": "Vigonovo", "Country Code": "IT", "Population": 3535.0, "Lat": 45.38691, "Lon": 12.00642}], "Vigonovo-Fontanafredda": [{"Name": "Vigonovo-Fontanafredda", "Country Code": "IT", "Population": 8283.0, "Lat": 45.98927, "Lon": 12.54707}], "Vigonza": [{"Name": "Vigonza", "Country Code": "IT", "Population": 13798.0, "Lat": 45.43484, "Lon": 11.97465}], "Vigonzone": [{"Name": "Vigonzone", "Country Code": "IT", "Population": 1081.0, "Lat": 45.2735, "Lon": 9.3098}], "Vigrestad": [{"Name": "Vigrestad", "Country Code": "NO", "Population": 1764.0, "Lat": 58.57103, "Lon": 5.68182}], "Viguera": [{"Name": "Viguera", "Country Code": "ES", "Population": 416.0, "Lat": 42.30934, "Lon": -2.53334}], "Vigui": [{"Name": "Vigu\u00ed", "Country Code": "PA", "Population": 110.0, "Lat": 8.3399, "Lon": -81.49752}], "Viguzzolo": [{"Name": "Viguzzolo", "Country Code": "IT", "Population": 2892.0, "Lat": 44.90567, "Lon": 8.91968}], "Vigy": [{"Name": "Vigy", "Country Code": "FR", "Population": 1317.0, "Lat": 49.20443, "Lon": 6.29906}], "Vihanti": [{"Name": "Vihanti", "Country Code": "FI", "Population": 3270.0, "Lat": 64.48472, "Lon": 24.99157}], "Vihari": [{"Name": "Vihari", "Country Code": "PK", "Population": 112840.0, "Lat": 30.0445, "Lon": 72.3556}], "Vihiers": [{"Name": "Vihiers", "Country Code": "FR", "Population": 4118.0, "Lat": 47.1458, "Lon": -0.5346}], "Vihti": [{"Name": "Vihti", "Country Code": "FI", "Population": 26280.0, "Lat": 60.41699, "Lon": 24.31965}], "Viiala": [{"Name": "Viiala", "Country Code": "FI", "Population": 5472.0, "Lat": 61.21023, "Lon": 23.76738}], "Viile": [{"Name": "Viile", "Country Code": "RO", "Population": 1028.0, "Lat": 44.162, "Lon": 27.75769}, {"Name": "Viile", "Country Code": "RO", "Population": 1731.0, "Lat": 45.80691, "Lon": 27.94748}], "Viile Satu Mare": [{"Name": "Viile Satu Mare", "Country Code": "RO", "Population": 3178.0, "Lat": 47.66667, "Lon": 22.95}], "Viile Tecii": [{"Name": "Viile Tecii", "Country Code": "RO", "Population": 1125.0, "Lat": 46.93333, "Lon": 24.48333}], "Viimsi": [{"Name": "Viimsi", "Country Code": "EE", "Population": 1740.0, "Lat": 59.50502, "Lon": 24.84807}, {"Name": "Viimsi", "Country Code": "EE", "Population": 1500.0, "Lat": 59.50086, "Lon": 24.86254}], "Viiratsi": [{"Name": "Viiratsi", "Country Code": "EE", "Population": 1332.0, "Lat": 58.36, "Lon": 25.63722}], "Viisoara": [{"Name": "Vii\u015foara", "Country Code": "RO", "Population": 2298.0, "Lat": 48.16667, "Lon": 26.73333}, {"Name": "Vii\u015foara", "Country Code": "RO", "Population": 2242.0, "Lat": 43.78333, "Lon": 25.16667}, {"Name": "Vii\u0219oara", "Country Code": "RO", "Population": 1120.0, "Lat": 47.10332, "Lon": 24.44949}, {"Name": "Vii\u0219oara", "Country Code": "RO", "Population": 1010.0, "Lat": 46.0516, "Lon": 27.09593}, {"Name": "Vii\u015foara", "Country Code": "RO", "Population": 5014.0, "Lat": 46.93333, "Lon": 26.23333}, {"Name": "Vii\u0219oara", "Country Code": "RO", "Population": 1171.0, "Lat": 46.28325, "Lon": 26.66187}, {"Name": "Vii\u015foara", "Country Code": "RO", "Population": 5786.0, "Lat": 46.55, "Lon": 23.91667}, {"Name": "Vii\u015foara", "Country Code": "RO", "Population": 1344.0, "Lat": 47.38333, "Lon": 22.45}, {"Name": "Vii\u015foara", "Country Code": "RO", "Population": 1635.0, "Lat": 46.28333, "Lon": 24.6}, {"Name": "Vii\u0219oara", "Country Code": "RO", "Population": 1575.0, "Lat": 44.07758, "Lon": 28.19424}, {"Name": "Vii\u0219oara", "Country Code": "RO", "Population": 1196.0, "Lat": 44.88116, "Lon": 25.4273}, {"Name": "Vii\u015foara", "Country Code": "RO", "Population": 3894.0, "Lat": 46.38333, "Lon": 27.88333}], "Viitasaari": [{"Name": "Viitasaari", "Country Code": "FI", "Population": 7511.0, "Lat": 63.06667, "Lon": 25.86667}], "Viitivka": [{"Name": "Viitivka", "Country Code": "UA", "Population": 4434.0, "Lat": 48.42257, "Lon": 29.54497}], "Vijapur": [{"Name": "Vij\u0101pur", "Country Code": "IN", "Population": 24297.0, "Lat": 23.5623, "Lon": 72.74848}], "Vijayapuri": [{"Name": "Vijayapuri", "Country Code": "IN", "Population": 6651.0, "Lat": 11.2453, "Lon": 77.50066}], "Vijayawada": [{"Name": "Vijayawada", "Country Code": "IN", "Population": 874587.0, "Lat": 16.50745, "Lon": 80.6466}], "Vijes": [{"Name": "Vijes", "Country Code": "CO", "Population": 4070.0, "Lat": 3.69934, "Lon": -76.4423}], "Vijfhuizen": [{"Name": "Vijfhuizen", "Country Code": "NL", "Population": 1895.0, "Lat": 52.35083, "Lon": 4.67778}], "Vijlen": [{"Name": "Vijlen", "Country Code": "NL", "Population": 1290.0, "Lat": 50.78833, "Lon": 5.96528}], "Vik": [{"Name": "Vik", "Country Code": "NO", "Population": 381.0, "Lat": 65.31254, "Lon": 12.16734}, {"Name": "Vik", "Country Code": "NO", "Population": 2899.0, "Lat": 61.05712, "Lon": 6.57806}, {"Name": "Vik", "Country Code": "NO", "Population": 0.0, "Lat": 60.07706, "Lon": 10.27908}], "Vikarabad": [{"Name": "Vik\u0101r\u0101b\u0101d", "Country Code": "IN", "Population": 43337.0, "Lat": 17.3381, "Lon": 77.90441}], "Vikarbyn": [{"Name": "Vikarbyn", "Country Code": "SE", "Population": 1193.0, "Lat": 60.91667, "Lon": 15.01667}], "Vikasnagar": [{"Name": "Vik\u0101snagar", "Country Code": "IN", "Population": 13055.0, "Lat": 30.46944, "Lon": 77.77275}], "Viken": [{"Name": "Viken", "Country Code": "SE", "Population": 3753.0, "Lat": 64.72587, "Lon": 20.91548}, {"Name": "Viken", "Country Code": "SE", "Population": 4489.0, "Lat": 56.15063, "Lon": 12.57429}], "Vikersund": [{"Name": "Vikersund", "Country Code": "NO", "Population": 3232.0, "Lat": 59.96838, "Lon": 9.99107}], "Vikesa": [{"Name": "Vikes\u00e5", "Country Code": "NO", "Population": 1017.0, "Lat": 58.63759, "Lon": 6.09133}], "Vikhorevka": [{"Name": "Vikhorevka", "Country Code": "RU", "Population": 22500.0, "Lat": 56.12128, "Lon": 101.17767}], "Vikindu": [{"Name": "Vikindu", "Country Code": "TZ", "Population": 23307.0, "Lat": -7.00667, "Lon": 39.29849}], "Viking": [{"Name": "Viking", "Country Code": "CA", "Population": 1106.0, "Lat": 53.09606, "Lon": -111.77527}], "Vikingstad": [{"Name": "Vikingstad", "Country Code": "SE", "Population": 2335.0, "Lat": 58.38304, "Lon": 15.43201}], "Vikno": [{"Name": "Vikno", "Country Code": "UA", "Population": 1592.0, "Lat": 48.57129, "Lon": 25.97255}], "Vikoyri": [{"Name": "Vik\u00f8yri", "Country Code": "NO", "Population": 0.0, "Lat": 61.08707, "Lon": 6.57914}], "Vikravandi": [{"Name": "Vikrav\u0101ndi", "Country Code": "IN", "Population": 10449.0, "Lat": 12.0369, "Lon": 79.54595}], "Viktorsberg": [{"Name": "Viktorsberg", "Country Code": "AT", "Population": 411.0, "Lat": 47.30092, "Lon": 9.67484}], "Viktring": [{"Name": "Viktring", "Country Code": "AT", "Population": 9407.0, "Lat": 46.59194, "Lon": 14.26917}], "Viktringer Vorstadt": [{"Name": "Viktringer Vorstadt", "Country Code": "AT", "Population": 3436.0, "Lat": 46.61773, "Lon": 14.30931}], "Vikulovo": [{"Name": "Vikulovo", "Country Code": "RU", "Population": 6952.0, "Lat": 56.81667, "Lon": 70.61069}], "Vikyrovice": [{"Name": "Vik\u00fd\u0159ovice", "Country Code": "CZ", "Population": 2064.0, "Lat": 49.97792, "Lon": 17.01234}], "Vila": [{"Name": "Vila", "Country Code": "PT", "Population": 0.0, "Lat": 42.0304, "Lon": -8.1588}], "Vila Baleira": [{"Name": "Vila Baleira", "Country Code": "PT", "Population": 0.0, "Lat": 33.05919, "Lon": -16.33371}], "Vila Cha": [{"Name": "Vila Ch\u00e3", "Country Code": "PT", "Population": 4295.0, "Lat": 40.86667, "Lon": -8.46667}], "Vila Cha de Ourique": [{"Name": "Vila Ch\u00e3 de Ourique", "Country Code": "PT", "Population": 2771.0, "Lat": 39.17219, "Lon": -8.76658}], "Vila Cova": [{"Name": "Vila Cova", "Country Code": "PT", "Population": 2564.0, "Lat": 41.55107, "Lon": -8.71645}], "Vila Eduardo Mondlane": [{"Name": "Vila Eduardo Mondlane", "Country Code": "MZ", "Population": 9665.0, "Lat": -22.07917, "Lon": 31.67861}], "Vila Flor": [{"Name": "Vila Flor", "Country Code": "PT", "Population": 0.0, "Lat": 41.30904, "Lon": -7.15378}], "Vila Franca de Xira": [{"Name": "Vila Franca de Xira", "Country Code": "PT", "Population": 18355.0, "Lat": 38.95525, "Lon": -8.98966}], "Vila Franca do Campo": [{"Name": "Vila Franca do Campo", "Country Code": "PT", "Population": 5035.0, "Lat": 37.71603, "Lon": -25.43225}], "Vila Frescainha": [{"Name": "Vila Frescainha", "Country Code": "PT", "Population": 4018.0, "Lat": 41.53846, "Lon": -8.63971}], "Vila Mea": [{"Name": "Vila Me\u00e3", "Country Code": "PT", "Population": 5000.0, "Lat": 41.25116, "Lon": -8.18397}], "Vila Nova De Cacela": [{"Name": "Vila Nova De Cacela", "Country Code": "PT", "Population": 3902.0, "Lat": 37.17391, "Lon": -7.53169}], "Vila Nova da Barquinha": [{"Name": "Vila Nova da Barquinha", "Country Code": "PT", "Population": 7322.0, "Lat": 39.46081, "Lon": -8.43588}], "Vila Nova da Telha": [{"Name": "Vila Nova da Telha", "Country Code": "PT", "Population": 5848.0, "Lat": 41.0717, "Lon": -8.64146}], "Vila Nova de Cerveira": [{"Name": "Vila Nova de Cerveira", "Country Code": "PT", "Population": 0.0, "Lat": 41.94118, "Lon": -8.7423}], "Vila Nova de Famalicao": [{"Name": "Vila Nova de Famalic\u00e3o", "Country Code": "PT", "Population": 9496.0, "Lat": 41.40797, "Lon": -8.51978}], "Vila Nova de Foz Coa": [{"Name": "Vila Nova de Foz C\u00f4a", "Country Code": "PT", "Population": 7312.0, "Lat": 41.08194, "Lon": -7.14146}], "Vila Nova de Gaia": [{"Name": "Vila Nova de Gaia", "Country Code": "PT", "Population": 70811.0, "Lat": 41.12401, "Lon": -8.61241}], "Vila Nova de Milfontes": [{"Name": "Vila Nova de Milfontes", "Country Code": "PT", "Population": 4393.0, "Lat": 37.72377, "Lon": -8.78278}], "Vila Nova de Paiva": [{"Name": "Vila Nova de Paiva", "Country Code": "PT", "Population": 5176.0, "Lat": 40.85291, "Lon": -7.72791}], "Vila Pouca de Aguiar": [{"Name": "Vila Pouca de Aguiar", "Country Code": "PT", "Population": 0.0, "Lat": 41.50018, "Lon": -7.64383}], "Vila Praia de Ancora": [{"Name": "Vila Praia de \u00c2ncora", "Country Code": "PT", "Population": 4987.0, "Lat": 41.81098, "Lon": -8.85255}], "Vila Real": [{"Name": "Vila Real", "Country Code": "PT", "Population": 17001.0, "Lat": 41.30062, "Lon": -7.74413}], "Vila Real de Santo Antonio": [{"Name": "Vila Real de Santo Ant\u00f3nio", "Country Code": "PT", "Population": 11560.0, "Lat": 37.195, "Lon": -7.41766}], "Vila Seca": [{"Name": "Vila Seca", "Country Code": "PT", "Population": 1197.0, "Lat": 41.50031, "Lon": -8.68525}], "Vila Velha": [{"Name": "Vila Velha", "Country Code": "BR", "Population": 394930.0, "Lat": -20.32972, "Lon": -40.2925}], "Vila Velha de Rodao": [{"Name": "Vila Velha de R\u00f3d\u00e3o", "Country Code": "PT", "Population": 3521.0, "Lat": 39.65646, "Lon": -7.6767}], "Vila Verde": [{"Name": "Vila Verde", "Country Code": "PT", "Population": 1162.0, "Lat": 39.15489, "Lon": -9.11512}, {"Name": "Vila Verde", "Country Code": "PT", "Population": 4389.0, "Lat": 41.64729, "Lon": -8.43715}], "Vila Vicosa": [{"Name": "Vila Vi\u00e7osa", "Country Code": "PT", "Population": 8319.0, "Lat": 38.7777, "Lon": -7.41793}], "Vila de Rei": [{"Name": "Vila de Rei", "Country Code": "PT", "Population": 3452.0, "Lat": 39.67604, "Lon": -8.14577}], "Vila do Bispo": [{"Name": "Vila do Bispo", "Country Code": "PT", "Population": 1000.0, "Lat": 37.08317, "Lon": -8.91144}], "Vila do Conde": [{"Name": "Vila do Conde", "Country Code": "PT", "Population": 27642.0, "Lat": 41.35326, "Lon": -8.74516}], "Vila do Maio": [{"Name": "Vila do Maio", "Country Code": "CV", "Population": 4472.0, "Lat": 15.13823, "Lon": -23.21158}], "Vila-real": [{"Name": "Vila-real", "Country Code": "ES", "Population": 50577.0, "Lat": 39.9383, "Lon": -0.10087}], "Vila-sacra": [{"Name": "Vila-sacra", "Country Code": "ES", "Population": 0.0, "Lat": 42.26578, "Lon": 3.01839}], "Vila-seca": [{"Name": "Vila-seca", "Country Code": "ES", "Population": 20866.0, "Lat": 41.11118, "Lon": 1.14764}], "Vilabella": [{"Name": "Vilabella", "Country Code": "ES", "Population": 772.0, "Lat": 41.24779, "Lon": 1.33019}], "Vilabertran": [{"Name": "Vilabertran", "Country Code": "ES", "Population": 842.0, "Lat": 42.28255, "Lon": 2.98144}], "Vilablareix": [{"Name": "Vilablareix", "Country Code": "ES", "Population": 2194.0, "Lat": 41.95746, "Lon": 2.77377}], "Vilaca": [{"Name": "Vila\u00e7a", "Country Code": "PT", "Population": 1580.0, "Lat": 41.51787, "Lon": -8.48357}], "Vilada": [{"Name": "Vilada", "Country Code": "ES", "Population": 0.0, "Lat": 42.13695, "Lon": 1.93162}], "Viladasens": [{"Name": "Viladasens", "Country Code": "ES", "Population": 0.0, "Lat": 42.08333, "Lon": 2.93333}], "Viladecans": [{"Name": "Viladecans", "Country Code": "ES", "Population": 66168.0, "Lat": 41.31405, "Lon": 2.01427}], "Viladecavalls": [{"Name": "Viladecavalls", "Country Code": "ES", "Population": 0.0, "Lat": 41.55, "Lon": 1.95}], "Vilademuls": [{"Name": "Vilademuls", "Country Code": "ES", "Population": 772.0, "Lat": 42.1389, "Lon": 2.88819}], "Viladrau": [{"Name": "Viladrau", "Country Code": "ES", "Population": 1005.0, "Lat": 41.84746, "Lon": 2.39019}], "Vilafant": [{"Name": "Vilafant", "Country Code": "ES", "Population": 4818.0, "Lat": 42.24668, "Lon": 2.9382}], "Vilaflor": [{"Name": "Vilaflor", "Country Code": "ES", "Population": 1981.0, "Lat": 28.15623, "Lon": -16.63592}], "Vilafranca de Bonany": [{"Name": "Vilafranca de Bonany", "Country Code": "ES", "Population": 2521.0, "Lat": 39.56894, "Lon": 3.08815}], "Vilafranca del Penedes": [{"Name": "Vilafranca del Pened\u00e8s", "Country Code": "ES", "Population": 38425.0, "Lat": 41.34618, "Lon": 1.69713}], "Vilagarcia de Arousa": [{"Name": "Vilagarc\u00eda de Arousa", "Country Code": "ES", "Population": 37576.0, "Lat": 42.59631, "Lon": -8.76426}], "Vilaion": [{"Name": "Vilai\u00f3n", "Country Code": "ES", "Population": 1795.0, "Lat": 43.44859, "Lon": -6.70534}], "Vilajuiga": [{"Name": "Vilaju\u00efga", "Country Code": "ES", "Population": 1057.0, "Lat": 42.32533, "Lon": 3.09302}], "Vilaka": [{"Name": "Vi\u013caka", "Country Code": "LV", "Population": 1525.0, "Lat": 57.18458, "Lon": 27.6722}], "Vilalba": [{"Name": "Vilalba", "Country Code": "ES", "Population": 15437.0, "Lat": 43.29806, "Lon": -7.6813}], "Vilalba dels Arcs": [{"Name": "Vilalba dels Arcs", "Country Code": "ES", "Population": 0.0, "Lat": 41.11667, "Lon": 0.41667}], "Vilallonga dels Monts": [{"Name": "Vilallonga dels Monts", "Country Code": "FR", "Population": 1265.0, "Lat": 42.52557, "Lon": 2.90434}], "Vilamacolum": [{"Name": "Vilamacolum", "Country Code": "ES", "Population": 299.0, "Lat": 42.19618, "Lon": 3.05662}], "Vilamalla": [{"Name": "Vilamalla", "Country Code": "ES", "Population": 885.0, "Lat": 42.2172, "Lon": 2.97009}], "Vilamaniscle": [{"Name": "Vilamaniscle", "Country Code": "ES", "Population": 170.0, "Lat": 42.37522, "Lon": 3.06755}], "Vilamarxant": [{"Name": "Vilamarxant", "Country Code": "ES", "Population": 6730.0, "Lat": 39.56916, "Lon": -0.62453}], "Vilamoura": [{"Name": "Vilamoura", "Country Code": "PT", "Population": 1900.0, "Lat": 37.08728, "Lon": -8.11701}], "Vilanant": [{"Name": "Vilanant", "Country Code": "ES", "Population": 327.0, "Lat": 42.25471, "Lon": 2.88923}], "Vilani": [{"Name": "Vi\u013c\u0101ni", "Country Code": "LV", "Population": 3934.0, "Lat": 56.55253, "Lon": 26.92449}], "Vilankulo": [{"Name": "Vilankulo", "Country Code": "MZ", "Population": 43183.0, "Lat": -22.0, "Lon": 35.31667}], "Vilanova d'Escornalbou": [{"Name": "Vilanova d'Escornalbou", "Country Code": "ES", "Population": 0.0, "Lat": 41.11667, "Lon": 0.93333}], "Vilanova de Arousa": [{"Name": "Vilanova de Arousa", "Country Code": "ES", "Population": 10719.0, "Lat": 42.564, "Lon": -8.82797}], "Vilanova de Bellpuig": [{"Name": "Vilanova de Bellpuig", "Country Code": "ES", "Population": 1121.0, "Lat": 41.61379, "Lon": 0.96432}], "Vilanova de Prades": [{"Name": "Vilanova de Prades", "Country Code": "ES", "Population": 167.0, "Lat": 41.3485, "Lon": 0.95667}], "Vilanova de Sau": [{"Name": "Vilanova de Sau", "Country Code": "ES", "Population": 342.0, "Lat": 41.947, "Lon": 2.3844}], "Vilanova del Cami": [{"Name": "Vilanova del Cam\u00ed", "Country Code": "ES", "Population": 12649.0, "Lat": 41.57165, "Lon": 1.63751}], "Vilanova i la Geltru": [{"Name": "Vilanova i la Geltr\u00fa", "Country Code": "ES", "Population": 65890.0, "Lat": 41.22392, "Lon": 1.72511}], "Vilapicina i la Torre Llobeta": [{"Name": "Vilapicina i la Torre Llobeta", "Country Code": "ES", "Population": 25581.0, "Lat": 41.42861, "Lon": 2.1741}], "Vilaplana": [{"Name": "Vilaplana", "Country Code": "ES", "Population": 564.0, "Lat": 41.228, "Lon": 1.03325}], "Vilar de Andorinho": [{"Name": "Vilar de Andorinho", "Country Code": "PT", "Population": 18944.0, "Lat": 41.10574, "Lon": -8.58622}], "Vilar de Figos": [{"Name": "Vilar de Figos", "Country Code": "PT", "Population": 2066.0, "Lat": 41.47555, "Lon": -8.65382}], "Vilar do Paraiso": [{"Name": "Vilar do Para\u00edso", "Country Code": "PT", "Population": 14727.0, "Lat": 41.08974, "Lon": -8.6211}], "Vilarinho": [{"Name": "Vilarinho", "Country Code": "PT", "Population": 4177.0, "Lat": 41.35955, "Lon": -8.33123}], "Vilarino": [{"Name": "Vilari\u00f1o", "Country Code": "ES", "Population": 169.0, "Lat": 42.16667, "Lon": -7.18333}], "Vilarnaz": [{"Name": "Vilarnaz", "Country Code": "ES", "Population": 0.0, "Lat": 42.4005, "Lon": -7.86306}], "Vilasantar": [{"Name": "Vilasantar", "Country Code": "ES", "Population": 1546.0, "Lat": 43.07106, "Lon": -8.12163}], "Vilaseca": [{"Name": "Vilaseca", "Country Code": "ES", "Population": 17305.0, "Lat": 42.06174, "Lon": 2.25528}], "Vilassar de Mar": [{"Name": "Vilassar de Mar", "Country Code": "ES", "Population": 20764.0, "Lat": 41.50507, "Lon": 2.39227}], "Vilattikulam": [{"Name": "Vilattikulam", "Country Code": "IN", "Population": 14802.0, "Lat": 9.13227, "Lon": 78.16635}], "Vilavila": [{"Name": "Vilavila", "Country Code": "PE", "Population": 990.0, "Lat": -15.18849, "Lon": -70.65982}], "Vilaxoan": [{"Name": "Vilaxo\u00e1n", "Country Code": "ES", "Population": 1354.0, "Lat": 42.58353, "Lon": -8.79353}], "Vilca": [{"Name": "Vilca", "Country Code": "PE", "Population": 293.0, "Lat": -12.48333, "Lon": -75.18333}], "Vilcabamba": [{"Name": "Vilcabamba", "Country Code": "PE", "Population": 991.0, "Lat": -14.07783, "Lon": -72.62508}, {"Name": "Vilcabamba", "Country Code": "PE", "Population": 0.0, "Lat": -10.47806, "Lon": -76.4475}], "Vilcanchos": [{"Name": "Vilcanchos", "Country Code": "PE", "Population": 388.0, "Lat": -13.61167, "Lon": -74.53194}], "Vilches": [{"Name": "Vilches", "Country Code": "ES", "Population": 4929.0, "Lat": 38.20695, "Lon": -3.51025}], "Vilcun": [{"Name": "Vilc\u00fan", "Country Code": "CL", "Population": 9241.0, "Lat": -38.66875, "Lon": -72.22565}], "Vildbjerg": [{"Name": "Vildbjerg", "Country Code": "DK", "Population": 3773.0, "Lat": 56.2, "Lon": 8.76667}], "Vilela": [{"Name": "Vilela", "Country Code": "PT", "Population": 5540.0, "Lat": 41.22511, "Lon": -7.60338}], "Vilemov": [{"Name": "Vil\u00e9mov", "Country Code": "CZ", "Population": 1014.0, "Lat": 49.53578, "Lon": 15.38347}, {"Name": "Vil\u00e9mov", "Country Code": "CZ", "Population": 1029.0, "Lat": 49.81566, "Lon": 15.53584}, {"Name": "Vil\u00e9mov", "Country Code": "CZ", "Population": 1008.0, "Lat": 50.99054, "Lon": 14.33531}], "Vilena": [{"Name": "Vile\u00f1a", "Country Code": "ES", "Population": 29.0, "Lat": 42.62227, "Lon": -3.32293}], "Vilenka": [{"Name": "Vilenka", "Country Code": "RU", "Population": 1224.0, "Lat": 54.2693, "Lon": 38.91663}], "Vilgertshofen": [{"Name": "Vilgertshofen", "Country Code": "DE", "Population": 2445.0, "Lat": 47.95, "Lon": 10.91667}], "Vilhelmina": [{"Name": "Vilhelmina", "Country Code": "SE", "Population": 3572.0, "Lat": 64.62417, "Lon": 16.65596}], "Vilhena": [{"Name": "Vilhena", "Country Code": "BR", "Population": 63231.0, "Lat": -12.74056, "Lon": -60.14583}], "Vilia": [{"Name": "V\u00edlia", "Country Code": "GR", "Population": 1269.0, "Lat": 38.16716, "Lon": 23.33659}], "Viligili": [{"Name": "Viligili", "Country Code": "MV", "Population": 2925.0, "Lat": 0.75906, "Lon": 73.43296}], "Vilino": [{"Name": "Vilino", "Country Code": "UA", "Population": 6960.0, "Lat": 44.8456, "Lon": 33.67161}], "Viljakkala": [{"Name": "Viljakkala", "Country Code": "FI", "Population": 2125.0, "Lat": 61.70601, "Lon": 23.26688}], "Viljandi": [{"Name": "Viljandi", "Country Code": "EE", "Population": 17407.0, "Lat": 58.36389, "Lon": 25.59}], "Viljevo": [{"Name": "Viljevo", "Country Code": "HR", "Population": 987.0, "Lat": 45.75139, "Lon": 18.06306}], "Viljoenskroon": [{"Name": "Viljoenskroon", "Country Code": "ZA", "Population": 54955.0, "Lat": -27.20841, "Lon": 26.94855}], "Vilkaviskis": [{"Name": "Vilkaviskis", "Country Code": "LT", "Population": 9444.0, "Lat": 54.65167, "Lon": 23.03222}], "Vilkhuvatka": [{"Name": "Vilkhuvatka", "Country Code": "UA", "Population": 0.0, "Lat": 50.18613, "Lon": 37.51946}], "Vilkija": [{"Name": "Vilkija", "Country Code": "LT", "Population": 2289.0, "Lat": 55.04609, "Lon": 23.58552}], "Vilkpede": [{"Name": "Vilkp\u0117d\u0117", "Country Code": "LT", "Population": 21346.0, "Lat": 54.66969, "Lon": 25.2477}], "Vill'Albese": [{"Name": "Vill'Albese", "Country Code": "IT", "Population": 6242.0, "Lat": 45.79684, "Lon": 9.18859}], "Villa": [{"Name": "Villa", "Country Code": "IT", "Population": 772.0, "Lat": 46.33059, "Lon": 9.48426}, {"Name": "Villa", "Country Code": "IT", "Population": 1301.0, "Lat": 45.71824, "Lon": 10.27906}, {"Name": "Villa", "Country Code": "IT", "Population": 2194.0, "Lat": 46.2039, "Lon": 10.13385}, {"Name": "Villa", "Country Code": "IT", "Population": 280.0, "Lat": 44.71895, "Lon": 7.94139}, {"Name": "Villa", "Country Code": "IT", "Population": 542.0, "Lat": 46.77977, "Lon": 11.69047}, {"Name": "Villa", "Country Code": "IT", "Population": 1208.0, "Lat": 44.74606, "Lon": 7.90066}], "Villa Aberastain": [{"Name": "Villa Aberastain", "Country Code": "AR", "Population": 0.0, "Lat": -31.65805, "Lon": -68.57953}], "Villa Adriana": [{"Name": "Villa Adriana", "Country Code": "IT", "Population": 12008.0, "Lat": 41.95499, "Lon": 12.77216}], "Villa Aglipay": [{"Name": "Villa Aglipay", "Country Code": "PH", "Population": 4800.0, "Lat": 15.46605, "Lon": 120.45273}], "Villa Alberto Andres Alvarado Aramburo": [{"Name": "Villa Alberto Andr\u00e9s Alvarado Ar\u00e1mburo", "Country Code": "MX", "Population": 6902.0, "Lat": 27.64444, "Lon": -113.38472}], "Villa Aldama": [{"Name": "Villa Aldama", "Country Code": "MX", "Population": 5237.0, "Lat": 18.24088, "Lon": -93.35068}, {"Name": "Villa Aldama", "Country Code": "MX", "Population": 3291.0, "Lat": 19.64861, "Lon": -97.22333}], "Villa Alemana": [{"Name": "Villa Alemana", "Country Code": "CL", "Population": 97320.0, "Lat": -33.04823, "Lon": -71.3729}], "Villa Allende": [{"Name": "Villa Allende", "Country Code": "AR", "Population": 21683.0, "Lat": -31.29368, "Lon": -64.2977}], "Villa Alta": [{"Name": "Villa Alta", "Country Code": "MX", "Population": 5974.0, "Lat": 19.29263, "Lon": -98.4011}], "Villa Altagracia": [{"Name": "Villa Altagracia", "Country Code": "DO", "Population": 40027.0, "Lat": 18.67297, "Lon": -70.17095}], "Villa Angela": [{"Name": "Villa \u00c1ngela", "Country Code": "AR", "Population": 43511.0, "Lat": -27.57383, "Lon": -60.71526}], "Villa Ascasubi": [{"Name": "Villa Ascasubi", "Country Code": "AR", "Population": 2081.0, "Lat": -32.16274, "Lon": -63.89237}], "Villa Atamisqui": [{"Name": "Villa Atamisqui", "Country Code": "AR", "Population": 2683.0, "Lat": -28.49644, "Lon": -63.81733}], "Villa Avila Camacho": [{"Name": "Villa Avila Camacho", "Country Code": "MX", "Population": 8780.0, "Lat": 20.38593, "Lon": -97.87989}], "Villa Azueta": [{"Name": "Villa Azueta", "Country Code": "MX", "Population": 6754.0, "Lat": 18.07418, "Lon": -95.71225}], "Villa Bartolomea": [{"Name": "Villa Bartolomea", "Country Code": "IT", "Population": 3221.0, "Lat": 45.15461, "Lon": 11.3538}], "Villa Basilica": [{"Name": "Villa Basilica", "Country Code": "IT", "Population": 477.0, "Lat": 43.92572, "Lon": 10.64518}], "Villa Basilio Nievas": [{"Name": "Villa Basilio Nievas", "Country Code": "AR", "Population": 4038.0, "Lat": -31.55, "Lon": -68.73333}], "Villa Berna": [{"Name": "Villa Berna", "Country Code": "AR", "Population": 5000.0, "Lat": -31.91419, "Lon": -64.73249}], "Villa Berthet": [{"Name": "Villa Berthet", "Country Code": "AR", "Population": 12029.0, "Lat": -27.29174, "Lon": -60.41263}], "Villa Biscossi": [{"Name": "Villa Biscossi", "Country Code": "IT", "Population": 73.0, "Lat": 45.09066, "Lon": 8.78715}], "Villa Bisono": [{"Name": "Villa Bison\u00f3", "Country Code": "DO", "Population": 33137.0, "Lat": 19.56378, "Lon": -70.87582}], "Villa Bruzual": [{"Name": "Villa Bruzual", "Country Code": "VE", "Population": 55244.0, "Lat": 9.33186, "Lon": -69.11968}], "Villa Burruyacu": [{"Name": "Villa Burruyac\u00fa", "Country Code": "AR", "Population": 2037.0, "Lat": -26.50047, "Lon": -64.74367}], "Villa Bustos": [{"Name": "Villa Bustos", "Country Code": "AR", "Population": 2165.0, "Lat": -29.28636, "Lon": -67.02067}], "Villa Caldari": [{"Name": "Villa Caldari", "Country Code": "IT", "Population": 1289.0, "Lat": 42.29566, "Lon": 14.36157}], "Villa Canales": [{"Name": "Villa Canales", "Country Code": "GT", "Population": 155423.0, "Lat": 14.48285, "Lon": -90.53425}], "Villa Canas": [{"Name": "Villa Ca\u00f1\u00e1s", "Country Code": "AR", "Population": 9328.0, "Lat": -34.00565, "Lon": -61.60757}], "Villa Carcina": [{"Name": "Villa Carcina", "Country Code": "IT", "Population": 10695.0, "Lat": 45.63329, "Lon": 10.19556}], "Villa Carlos Paz": [{"Name": "Villa Carlos Paz", "Country Code": "AR", "Population": 69451.0, "Lat": -31.42414, "Lon": -64.49778}], "Villa Carmen": [{"Name": "Villa Carmen", "Country Code": "PA", "Population": 1043.0, "Lat": 8.80337, "Lon": -79.86791}], "Villa Caro": [{"Name": "Villa Caro", "Country Code": "CO", "Population": 0.0, "Lat": 7.91427, "Lon": -72.97144}], "Villa Castelli": [{"Name": "Villa Castelli", "Country Code": "AR", "Population": 0.0, "Lat": -29.01447, "Lon": -68.22339}, {"Name": "Villa Castelli", "Country Code": "IT", "Population": 6982.0, "Lat": 40.58293, "Lon": 17.47468}], "Villa Ceccolini": [{"Name": "Villa Ceccolini", "Country Code": "IT", "Population": 1989.0, "Lat": 43.86481, "Lon": 12.83605}], "Villa Celiera": [{"Name": "Villa Celiera", "Country Code": "IT", "Population": 231.0, "Lat": 42.38184, "Lon": 13.8586}], "Villa Chalcatongo de Hidalgo": [{"Name": "Villa Chalcatongo de Hidalgo", "Country Code": "MX", "Population": 2447.0, "Lat": 17.03247, "Lon": -97.57057}], "Villa Charcas": [{"Name": "Villa Charcas", "Country Code": "BO", "Population": 0.0, "Lat": -20.72278, "Lon": -64.88478}], "Villa Ciambra": [{"Name": "Villa Ciambra", "Country Code": "IT", "Population": 1919.0, "Lat": 38.06129, "Lon": 13.32}], "Villa Collemandina": [{"Name": "Villa Collemandina", "Country Code": "IT", "Population": 139.0, "Lat": 44.15855, "Lon": 10.3976}], "Villa Comaltitlan": [{"Name": "Villa Comaltitl\u00e1n", "Country Code": "MX", "Population": 7201.0, "Lat": 15.21397, "Lon": -92.57659}], "Villa Concepcion del Tio": [{"Name": "Villa Concepci\u00f3n del T\u00edo", "Country Code": "AR", "Population": 1585.0, "Lat": -31.32259, "Lon": -62.81354}], "Villa Constitucion": [{"Name": "Villa Constituci\u00f3n", "Country Code": "AR", "Population": 44271.0, "Lat": -33.22778, "Lon": -60.3297}, {"Name": "Villa Constituci\u00f3n", "Country Code": "UY", "Population": 2846.0, "Lat": -31.06913, "Lon": -57.84946}], "Villa Consuelo": [{"Name": "Villa Consuelo", "Country Code": "DO", "Population": 28621.0, "Lat": 18.48333, "Lon": -69.9}], "Villa Corona": [{"Name": "Villa Corona", "Country Code": "MX", "Population": 7603.0, "Lat": 20.41564, "Lon": -103.66416}], "Villa Cortese": [{"Name": "Villa Cortese", "Country Code": "IT", "Population": 6145.0, "Lat": 45.56666, "Lon": 8.88712}], "Villa Corzo": [{"Name": "Villa Corzo", "Country Code": "MX", "Population": 10841.0, "Lat": 16.1851, "Lon": -93.26881}], "Villa Cuauhtemoc": [{"Name": "Villa Cuauht\u00e9moc", "Country Code": "MX", "Population": 1193.0, "Lat": 19.77839, "Lon": -98.09719}, {"Name": "Villa Cuauht\u00e9moc", "Country Code": "MX", "Population": 11241.0, "Lat": 19.41676, "Lon": -99.55872}], "Villa Cura Brochero": [{"Name": "Villa Cura Brochero", "Country Code": "AR", "Population": 4707.0, "Lat": -31.70642, "Lon": -65.01864}], "Villa Diaz Ordaz": [{"Name": "Villa D\u00edaz Ordaz", "Country Code": "MX", "Population": 2747.0, "Lat": 16.99578, "Lon": -96.43231}], "Villa Dolores": [{"Name": "Villa Dolores", "Country Code": "AR", "Population": 28009.0, "Lat": -31.94504, "Lon": -65.19025}], "Villa Dominguez": [{"Name": "Villa Dom\u00ednguez", "Country Code": "AR", "Population": 1925.0, "Lat": -31.98629, "Lon": -58.96163}], "Villa El Carmen": [{"Name": "Villa El Carmen", "Country Code": "NI", "Population": 5219.0, "Lat": 11.98009, "Lon": -86.50571}], "Villa El Salvador": [{"Name": "Villa El Salvador", "Country Code": "AR", "Population": 0.0, "Lat": -31.45328, "Lon": -68.40392}], "Villa Elisa": [{"Name": "Villa Elisa", "Country Code": "AR", "Population": 9334.0, "Lat": -32.1632, "Lon": -58.40082}, {"Name": "Villa Elisa", "Country Code": "DO", "Population": 1143.0, "Lat": 19.6856, "Lon": -71.27007}, {"Name": "Villa Elisa", "Country Code": "PY", "Population": 64099.0, "Lat": -25.3676, "Lon": -57.59274}], "Villa Emiliano Zapata": [{"Name": "Villa Emiliano Zapata", "Country Code": "MX", "Population": 2869.0, "Lat": 20.1661, "Lon": -102.99209}, {"Name": "Villa Emiliano Zapata", "Country Code": "MX", "Population": 4469.0, "Lat": 19.36353, "Lon": -96.65776}], "Villa Emilio Carranza": [{"Name": "Villa Emilio Carranza", "Country Code": "MX", "Population": 5727.0, "Lat": 19.9702, "Lon": -96.61162}], "Villa Escolar": [{"Name": "Villa Escolar", "Country Code": "AR", "Population": 1261.0, "Lat": -26.62272, "Lon": -58.66983}], "Villa Estense": [{"Name": "Villa Estense", "Country Code": "IT", "Population": 1369.0, "Lat": 45.17465, "Lon": 11.67022}], "Villa Faraldi": [{"Name": "Villa Faraldi", "Country Code": "IT", "Population": 115.0, "Lat": 43.96843, "Lon": 8.08965}], "Villa Florida": [{"Name": "Villa Florida", "Country Code": "PY", "Population": 2305.0, "Lat": -26.41065, "Lon": -57.12104}], "Villa Fontana": [{"Name": "Villa Fontana", "Country Code": "IT", "Population": 1453.0, "Lat": 44.49455, "Lon": 11.60885}], "Villa Fornace": [{"Name": "Villa Fornace", "Country Code": "IT", "Population": 19.0, "Lat": 44.97194, "Lon": 9.25215}], "Villa Francisca": [{"Name": "Villa Francisca", "Country Code": "DO", "Population": 50185.0, "Lat": 18.48278, "Lon": -69.88914}], "Villa Garcia": [{"Name": "Villa Garc\u00eda", "Country Code": "MX", "Population": 6535.0, "Lat": 22.16169, "Lon": -101.95556}], "Villa General Belgrano": [{"Name": "Villa General Belgrano", "Country Code": "AR", "Population": 5888.0, "Lat": -31.97828, "Lon": -64.55627}], "Villa General Guemes": [{"Name": "Villa General Guemes", "Country Code": "AR", "Population": 4000.0, "Lat": -24.7553, "Lon": -59.4894}], "Villa General Mitre": [{"Name": "Villa General Mitre", "Country Code": "AR", "Population": 3605.0, "Lat": -29.14175, "Lon": -62.65455}], "Villa General Roca": [{"Name": "Villa General Roca", "Country Code": "AR", "Population": 196.0, "Lat": -32.66589, "Lon": -66.4508}], "Villa General San Martin": [{"Name": "Villa General San Mart\u00edn", "Country Code": "AR", "Population": 10140.0, "Lat": -31.43963, "Lon": -68.5205}], "Villa Gesell": [{"Name": "Villa Gesell", "Country Code": "AR", "Population": 23257.0, "Lat": -37.26394, "Lon": -56.97304}], "Villa Giardino": [{"Name": "Villa Giardino", "Country Code": "AR", "Population": 4679.0, "Lat": -31.03333, "Lon": -64.48333}], "Villa Gonzalez": [{"Name": "Villa Gonz\u00e1lez", "Country Code": "DO", "Population": 10177.0, "Lat": 19.54057, "Lon": -70.78853}], "Villa Gonzalez Ortega": [{"Name": "Villa Gonz\u00e1lez Ortega", "Country Code": "MX", "Population": 6181.0, "Lat": 22.51222, "Lon": -101.91616}], "Villa Gregorio Garcia": [{"Name": "Villa Gregorio Garc\u00eda", "Country Code": "MX", "Population": 1446.0, "Lat": 25.75221, "Lon": -103.35215}], "Villa Grove": [{"Name": "Villa Grove", "Country Code": "US", "Population": 2495.0, "Lat": 39.86281, "Lon": -88.16227}], "Villa Guardia": [{"Name": "Villa Guardia", "Country Code": "IT", "Population": 7483.0, "Lat": 45.77505, "Lon": 9.02321}], "Villa Guerrero": [{"Name": "Villa Guerrero", "Country Code": "MX", "Population": 9509.0, "Lat": 18.96211, "Lon": -99.64061}, {"Name": "Villa Guerrero", "Country Code": "MX", "Population": 1651.0, "Lat": 20.69704, "Lon": -99.76093}, {"Name": "Villa Guerrero", "Country Code": "MX", "Population": 3869.0, "Lat": 21.98341, "Lon": -103.59506}], "Villa Hayes": [{"Name": "Villa Hayes", "Country Code": "PY", "Population": 57217.0, "Lat": -25.09306, "Lon": -57.52361}], "Villa Hermosa": [{"Name": "Villa Hermosa", "Country Code": "MX", "Population": 1358.0, "Lat": 16.93861, "Lon": -99.33}], "Villa Hermosa (Las Pozas)": [{"Name": "Villa Hermosa (Las Pozas)", "Country Code": "MX", "Population": 1519.0, "Lat": 17.63361, "Lon": -101.46639}], "Villa Hernandarias": [{"Name": "Villa Hernandarias", "Country Code": "AR", "Population": 5375.0, "Lat": -31.23097, "Lon": -59.98464}], "Villa Hidalgo": [{"Name": "Villa Hidalgo", "Country Code": "MX", "Population": 2800.0, "Lat": 22.45049, "Lon": -100.67827}, {"Name": "Villa Hidalgo", "Country Code": "MX", "Population": 4617.0, "Lat": 22.35682, "Lon": -101.71259}, {"Name": "Villa Hidalgo", "Country Code": "MX", "Population": 1844.0, "Lat": 17.18409, "Lon": -96.17831}, {"Name": "Villa Hidalgo", "Country Code": "MX", "Population": 9908.0, "Lat": 21.74185, "Lon": -105.23096}, {"Name": "Villa Hidalgo", "Country Code": "MX", "Population": 1089.0, "Lat": 15.10659, "Lon": -92.37408}, {"Name": "Villa Hidalgo", "Country Code": "MX", "Population": 1372.0, "Lat": 30.16183, "Lon": -109.32154}, {"Name": "Villa Hidalgo", "Country Code": "MX", "Population": 2502.0, "Lat": 16.30457, "Lon": -93.15466}, {"Name": "Villa Hidalgo", "Country Code": "MX", "Population": 614.0, "Lat": 26.24833, "Lon": -104.91441}, {"Name": "Villa Hidalgo", "Country Code": "MX", "Population": 15182.0, "Lat": 21.67616, "Lon": -102.58803}], "Villa Hidalgo (El Cubo)": [{"Name": "Villa Hidalgo (El Cubo)", "Country Code": "MX", "Population": 1278.0, "Lat": 18.16167, "Lon": -100.315}], "Villa Hills": [{"Name": "Villa Hills", "Country Code": "US", "Population": 7468.0, "Lat": 39.06339, "Lon": -84.593}], "Villa Huidobro": [{"Name": "Villa Huidobro", "Country Code": "AR", "Population": 5155.0, "Lat": -34.83826, "Lon": -64.58686}], "Villa Independencia": [{"Name": "Villa Independencia", "Country Code": "MX", "Population": 15297.0, "Lat": 20.05523, "Lon": -97.05214}], "Villa Insurgentes (El Calabazal)": [{"Name": "Villa Insurgentes (El Calabazal)", "Country Code": "MX", "Population": 1355.0, "Lat": 23.74306, "Lon": -103.8425}], "Villa Isabela": [{"Name": "Villa Isabela", "Country Code": "DO", "Population": 3887.0, "Lat": 19.81564, "Lon": -71.06056}], "Villa Isla": [{"Name": "Villa Isla", "Country Code": "PH", "Population": 2256.0, "Lat": 15.7703, "Lon": 120.8666}], "Villa Jaragua": [{"Name": "Villa Jaragua", "Country Code": "DO", "Population": 9248.0, "Lat": 18.49077, "Lon": -71.48377}], "Villa Jimenez": [{"Name": "Villa Jim\u00e9nez", "Country Code": "MX", "Population": 4249.0, "Lat": 19.92306, "Lon": -101.74694}], "Villa Juarez": [{"Name": "Villa Ju\u00e1rez", "Country Code": "MX", "Population": 13770.0, "Lat": 27.12851, "Lon": -109.83921}, {"Name": "Villa Ju\u00e1rez", "Country Code": "MX", "Population": 7069.0, "Lat": 25.49203, "Lon": -103.59389}, {"Name": "Villa Ju\u00e1rez", "Country Code": "MX", "Population": 3000.0, "Lat": 21.68917, "Lon": -105.38972}, {"Name": "Villa Ju\u00e1rez", "Country Code": "MX", "Population": 3474.0, "Lat": 22.32617, "Lon": -100.26689}, {"Name": "Villa Ju\u00e1rez", "Country Code": "MX", "Population": 4888.0, "Lat": 22.09447, "Lon": -102.0693}, {"Name": "Villa Ju\u00e1rez", "Country Code": "MX", "Population": 20985.0, "Lat": 24.65869, "Lon": -107.54059}], "Villa Krause": [{"Name": "Villa Krause", "Country Code": "AR", "Population": 0.0, "Lat": -31.56667, "Lon": -68.53333}], "Villa La Angostura": [{"Name": "Villa La Angostura", "Country Code": "AR", "Population": 7526.0, "Lat": -40.76173, "Lon": -71.64631}], "Villa La Mata": [{"Name": "Villa La Mata", "Country Code": "DO", "Population": 0.0, "Lat": 19.01667, "Lon": -70.26661}], "Villa Lagarina": [{"Name": "Villa Lagarina", "Country Code": "IT", "Population": 2048.0, "Lat": 45.91843, "Lon": 11.03303}], "Villa Las Esperanzas": [{"Name": "Villa Las Esperanzas", "Country Code": "MX", "Population": 3029.0, "Lat": 27.74274, "Lon": -101.35295}], "Villa Latina": [{"Name": "Villa Latina", "Country Code": "IT", "Population": 909.0, "Lat": 41.61522, "Lon": 13.83591}], "Villa Lazaro Cardenas": [{"Name": "Villa L\u00e1zaro C\u00e1rdenas", "Country Code": "MX", "Population": 12253.0, "Lat": 20.46193, "Lon": -97.70024}], "Villa Lempa": [{"Name": "Villa Lempa", "Country Code": "IT", "Population": 1090.0, "Lat": 42.79345, "Lon": 13.64433}], "Villa Licenciado Jesus Teran (Calvillito)": [{"Name": "Villa Licenciado Jes\u00fas Ter\u00e1n (Calvillito)", "Country Code": "MX", "Population": 4481.0, "Lat": 21.82528, "Lon": -102.18778}], "Villa Literno": [{"Name": "Villa Literno", "Country Code": "IT", "Population": 10027.0, "Lat": 41.00942, "Lon": 14.07612}], "Villa Lourdes": [{"Name": "Villa Lourdes", "Country Code": "PA", "Population": 410.0, "Lat": 7.80985, "Lon": -80.4723}], "Villa Lugano": [{"Name": "Villa Lugano", "Country Code": "AR", "Population": 114000.0, "Lat": -34.67907, "Lon": -58.47263}], "Villa Luvianos": [{"Name": "Villa Luvianos", "Country Code": "MX", "Population": 7546.0, "Lat": 18.92, "Lon": -100.29833}], "Villa Madero": [{"Name": "Villa Madero", "Country Code": "MX", "Population": 3954.0, "Lat": 19.52833, "Lon": -90.69917}, {"Name": "Villa Madero", "Country Code": "MX", "Population": 6577.0, "Lat": 19.3915, "Lon": -101.27883}, {"Name": "Villa Madero", "Country Code": "MX", "Population": 1325.0, "Lat": 18.4112, "Lon": -100.44857}], "Villa Magna": [{"Name": "Villa Magna", "Country Code": "MX", "Population": 4577.0, "Lat": 19.68361, "Lon": -101.32667}], "Villa Mainero": [{"Name": "Villa Mainero", "Country Code": "MX", "Population": 386.0, "Lat": 24.56007, "Lon": -99.61561}], "Villa Mantero": [{"Name": "Villa Mantero", "Country Code": "AR", "Population": 1526.0, "Lat": -32.39837, "Lon": -58.74607}], "Villa Maria": [{"Name": "Villa Mar\u00eda", "Country Code": "AR", "Population": 92453.0, "Lat": -32.40751, "Lon": -63.24016}], "Villa Mariano Matamoros": [{"Name": "Villa Mariano Matamoros", "Country Code": "MX", "Population": 6527.0, "Lat": 19.32659, "Lon": -98.37827}], "Villa Media Agua": [{"Name": "Villa Media Agua", "Country Code": "AR", "Population": 0.0, "Lat": -31.9831, "Lon": -68.42499}], "Villa Mercedes": [{"Name": "Villa Mercedes", "Country Code": "AR", "Population": 96781.0, "Lat": -33.67571, "Lon": -65.45783}], "Villa Minozzo": [{"Name": "Villa Minozzo", "Country Code": "IT", "Population": 1206.0, "Lat": 44.3648, "Lon": 10.46545}], "Villa Montemorelos": [{"Name": "Villa Montemorelos", "Country Code": "MX", "Population": 1617.0, "Lat": 23.99154, "Lon": -104.48045}], "Villa Morelos": [{"Name": "Villa Morelos", "Country Code": "MX", "Population": 1153.0, "Lat": 24.93, "Lon": -111.62806}, {"Name": "Villa Morelos", "Country Code": "MX", "Population": 2446.0, "Lat": 20.00335, "Lon": -101.4136}], "Villa Mugueta": [{"Name": "Villa Mugueta", "Country Code": "AR", "Population": 2789.0, "Lat": -33.31129, "Lon": -61.05515}], "Villa Musone": [{"Name": "Villa Musone", "Country Code": "IT", "Population": 2150.0, "Lat": 43.44624, "Lon": 13.60312}], "Villa Nicolas Bravo": [{"Name": "Villa Nicol\u00e1s Bravo", "Country Code": "MX", "Population": 2601.0, "Lat": 18.21426, "Lon": -100.5479}], "Villa Nueva": [{"Name": "Villa Nueva", "Country Code": "AR", "Population": 16841.0, "Lat": -32.43289, "Lon": -63.24811}, {"Name": "Villa Nueva", "Country Code": "GT", "Population": 618397.0, "Lat": 14.52512, "Lon": -90.58544}, {"Name": "Villa Nueva", "Country Code": "HN", "Population": 2295.0, "Lat": 14.03169, "Lon": -87.14132}], "Villa Ocampo": [{"Name": "Villa Ocampo", "Country Code": "AR", "Population": 19101.0, "Lat": -28.48689, "Lon": -59.35423}, {"Name": "Villa Ocampo", "Country Code": "MX", "Population": 1076.0, "Lat": 26.44085, "Lon": -105.5064}], "Villa Ojo de Agua": [{"Name": "Villa Ojo de Agua", "Country Code": "AR", "Population": 5832.0, "Lat": -29.50003, "Lon": -63.69377}], "Villa Opicina": [{"Name": "Villa Opicina", "Country Code": "IT", "Population": 8009.0, "Lat": 45.6878, "Lon": 13.78861}], "Villa Ortuzar": [{"Name": "Villa Ort\u00fazar", "Country Code": "AR", "Population": 22500.0, "Lat": -34.57973, "Lon": -58.46829}], "Villa Paranacito": [{"Name": "Villa Paranacito", "Country Code": "AR", "Population": 3988.0, "Lat": -33.71381, "Lon": -58.65844}], "Villa Park": [{"Name": "Villa Park", "Country Code": "US", "Population": 21969.0, "Lat": 41.88975, "Lon": -87.98895}, {"Name": "Villa Park", "Country Code": "US", "Population": 5964.0, "Lat": 33.81446, "Lon": -117.81311}], "Villa Paula de Sarmiento": [{"Name": "Villa Paula de Sarmiento", "Country Code": "AR", "Population": 19092.0, "Lat": -31.4933, "Lon": -68.53838}], "Villa Pedergnano": [{"Name": "Villa Pedergnano", "Country Code": "IT", "Population": 2418.0, "Lat": 45.58528, "Lon": 9.99381}], "Villa Pesqueira": [{"Name": "Villa Pesqueira", "Country Code": "MX", "Population": 629.0, "Lat": 29.11813, "Lon": -109.96753}], "Villa Pigna": [{"Name": "Villa Pigna", "Country Code": "IT", "Population": 5077.0, "Lat": 42.83324, "Lon": 13.63446}], "Villa Poma": [{"Name": "Villa Poma", "Country Code": "IT", "Population": 1621.0, "Lat": 45.00238, "Lon": 11.1145}], "Villa Potenza": [{"Name": "Villa Potenza", "Country Code": "IT", "Population": 2086.0, "Lat": 43.32149, "Lon": 13.42649}], "Villa Presidente Frei": [{"Name": "Villa Presidente Frei", "Country Code": "CL", "Population": 15000.0, "Lat": -33.46069, "Lon": -70.58024}], "Villa Progreso": [{"Name": "Villa Progreso", "Country Code": "MX", "Population": 5604.0, "Lat": 20.64234, "Lon": -99.83501}], "Villa Raspa": [{"Name": "Villa Raspa", "Country Code": "IT", "Population": 5059.0, "Lat": 42.45542, "Lon": 14.18457}], "Villa Raverio": [{"Name": "Villa Raverio", "Country Code": "IT", "Population": 2194.0, "Lat": 45.69189, "Lon": 9.26239}], "Villa Reduccion": [{"Name": "Villa Reducci\u00f3n", "Country Code": "AR", "Population": 1467.0, "Lat": -33.20105, "Lon": -63.86234}], "Villa Regina": [{"Name": "Villa Regina", "Country Code": "AR", "Population": 31209.0, "Lat": -39.09631, "Lon": -67.08374}], "Villa Rendena": [{"Name": "Villa Rendena", "Country Code": "IT", "Population": 397.0, "Lat": 46.0627, "Lon": 10.7125}], "Villa Rica": [{"Name": "Villa Rica", "Country Code": "CO", "Population": 0.0, "Lat": 3.17484, "Lon": -76.46197}, {"Name": "Villa Rica", "Country Code": "CO", "Population": 18761.0, "Lat": 2.5142, "Lon": -76.84939}, {"Name": "Villa Rica", "Country Code": "PE", "Population": 7448.0, "Lat": -10.73944, "Lon": -75.26972}, {"Name": "Villa Rica", "Country Code": "US", "Population": 14904.0, "Lat": 33.73205, "Lon": -84.91911}], "Villa Ridge": [{"Name": "Villa Ridge", "Country Code": "US", "Population": 2636.0, "Lat": 38.47255, "Lon": -90.8868}], "Villa Riva": [{"Name": "Villa Riva", "Country Code": "DO", "Population": 5700.0, "Lat": 19.18069, "Lon": -69.91319}], "Villa Rosa": [{"Name": "Villa Rosa", "Country Code": "IT", "Population": 4349.0, "Lat": 42.85059, "Lon": 13.92015}], "Villa Rosario": [{"Name": "Villa Rosario", "Country Code": "PA", "Population": 3843.0, "Lat": 8.77972, "Lon": -79.87351}], "Villa Rotaria": [{"Name": "Villa Rotaria", "Country Code": "MX", "Population": 1404.0, "Lat": 17.19444, "Lon": -100.66917}], "Villa Rumipal": [{"Name": "Villa Rumipal", "Country Code": "AR", "Population": 1922.0, "Lat": -32.18941, "Lon": -64.4792}], "Villa San Agustin": [{"Name": "Villa San Agust\u00edn", "Country Code": "AR", "Population": 6864.0, "Lat": -30.63464, "Lon": -67.4679}], "Villa San Filippo": [{"Name": "Villa San Filippo", "Country Code": "IT", "Population": 1050.0, "Lat": 43.25981, "Lon": 13.59337}], "Villa San Giovanni": [{"Name": "Villa San Giovanni", "Country Code": "IT", "Population": 13747.0, "Lat": 38.21991, "Lon": 15.63689}], "Villa San Giovanni in Tuscia": [{"Name": "Villa San Giovanni in Tuscia", "Country Code": "IT", "Population": 1251.0, "Lat": 42.27882, "Lon": 12.05346}], "Villa San Giuseppe": [{"Name": "Villa San Giuseppe", "Country Code": "IT", "Population": 2050.0, "Lat": 42.86862, "Lon": 13.74481}], "Villa San Justo": [{"Name": "Villa San Justo", "Country Code": "AR", "Population": 1473.0, "Lat": -32.44569, "Lon": -58.43541}], "Villa San Pietro": [{"Name": "Villa San Pietro", "Country Code": "IT", "Population": 1756.0, "Lat": 39.03554, "Lon": 8.99695}], "Villa San Secondo": [{"Name": "Villa San Secondo", "Country Code": "IT", "Population": 234.0, "Lat": 45.00513, "Lon": 8.13462}], "Villa Sandino": [{"Name": "Villa Sandino", "Country Code": "NI", "Population": 7799.0, "Lat": 12.0483, "Lon": -84.99362}], "Villa Sant'Angelo": [{"Name": "Villa Sant'Angelo", "Country Code": "IT", "Population": 372.0, "Lat": 42.27043, "Lon": 13.5371}], "Villa Sant'Antonio": [{"Name": "Villa Sant'Antonio", "Country Code": "IT", "Population": 364.0, "Lat": 39.85915, "Lon": 8.90153}], "Villa Santa Lucia": [{"Name": "Villa Santa Lucia", "Country Code": "IT", "Population": 994.0, "Lat": 41.51217, "Lon": 13.76929}], "Villa Santa Lucia degli Abruzzi": [{"Name": "Villa Santa Lucia degli Abruzzi", "Country Code": "IT", "Population": 159.0, "Lat": 42.33286, "Lon": 13.77792}], "Villa Santa Maria": [{"Name": "Villa Santa Maria", "Country Code": "IT", "Population": 1229.0, "Lat": 41.9513, "Lon": 14.35148}], "Villa Santa Rita": [{"Name": "Villa Santa Rita", "Country Code": "AR", "Population": 34000.0, "Lat": -34.61082, "Lon": -58.481}], "Villa Santa Rosa": [{"Name": "Villa Santa Rosa", "Country Code": "AR", "Population": 0.0, "Lat": -31.74484, "Lon": -68.31435}], "Villa Santiago": [{"Name": "Villa Santiago", "Country Code": "MX", "Population": 3408.0, "Lat": 18.97972, "Lon": -99.18528}], "Villa Santina": [{"Name": "Villa Santina", "Country Code": "IT", "Population": 2145.0, "Lat": 46.41368, "Lon": 12.92445}], "Villa Santo Stefano": [{"Name": "Villa Santo Stefano", "Country Code": "IT", "Population": 451.0, "Lat": 41.51683, "Lon": 13.31046}], "Villa Sara": [{"Name": "Villa Sara", "Country Code": "UY", "Population": 1199.0, "Lat": -33.2534, "Lon": -54.41947}], "Villa Sarmiento": [{"Name": "Villa Sarmiento", "Country Code": "AR", "Population": 17481.0, "Lat": -34.63364, "Lon": -58.57047}], "Villa Serrano": [{"Name": "Villa Serrano", "Country Code": "BO", "Population": 0.0, "Lat": -19.12489, "Lon": -64.32343}], "Villa Sola de Vega": [{"Name": "Villa Sola de Vega", "Country Code": "MX", "Population": 1846.0, "Lat": 16.51844, "Lon": -96.9781}], "Villa Soriano": [{"Name": "Villa Soriano", "Country Code": "UY", "Population": 1124.0, "Lat": -33.39811, "Lon": -58.32177}], "Villa Talea de Castro": [{"Name": "Villa Talea de Castro", "Country Code": "MX", "Population": 1673.0, "Lat": 17.35983, "Lon": -96.24953}], "Villa Tapia": [{"Name": "Villa Tapia", "Country Code": "DO", "Population": 3113.0, "Lat": 19.30084, "Lon": -70.42199}], "Villa Tecolutilla": [{"Name": "Villa Tecolutilla", "Country Code": "MX", "Population": 10637.0, "Lat": 18.28338, "Lon": -93.33398}], "Villa Tejupam de la Union": [{"Name": "Villa Tej\u00fapam de la Uni\u00f3n", "Country Code": "MX", "Population": 1020.0, "Lat": 17.6625, "Lon": -97.47083}], "Villa Trinidad": [{"Name": "Villa Trinidad", "Country Code": "AR", "Population": 2945.0, "Lat": -30.21329, "Lon": -61.87597}], "Villa Tulumaya": [{"Name": "Villa Tulumaya", "Country Code": "AR", "Population": 0.0, "Lat": -32.72145, "Lon": -68.59578}], "Villa Tulumba": [{"Name": "Villa Tulumba", "Country Code": "AR", "Population": 1161.0, "Lat": -30.39552, "Lon": -64.12241}], "Villa URBI del Rey": [{"Name": "Villa URBI del Rey", "Country Code": "MX", "Population": 3616.0, "Lat": 19.84132, "Lon": -99.25719}], "Villa Unida": [{"Name": "Villa Unida", "Country Code": "PA", "Population": 14854.0, "Lat": 9.19176, "Lon": -79.62368}], "Villa Union": [{"Name": "Villa Uni\u00f3n", "Country Code": "AR", "Population": 0.0, "Lat": -29.31595, "Lon": -68.22658}, {"Name": "Villa Uni\u00f3n", "Country Code": "AR", "Population": 0.0, "Lat": -29.41347, "Lon": -62.78822}, {"Name": "Villa Uni\u00f3n", "Country Code": "MX", "Population": 10753.0, "Lat": 23.9746, "Lon": -104.04705}, {"Name": "Villa Uni\u00f3n", "Country Code": "MX", "Population": 5350.0, "Lat": 28.22228, "Lon": -100.72624}, {"Name": "Villa Union", "Country Code": "MX", "Population": 5147.0, "Lat": 28.21667, "Lon": -100.71667}, {"Name": "Villa Uni\u00f3n", "Country Code": "MX", "Population": 13404.0, "Lat": 23.18992, "Lon": -106.21947}, {"Name": "Villa Uni\u00f3n", "Country Code": "MX", "Population": 1213.0, "Lat": 18.85438, "Lon": -96.98246}], "Villa Urquiza": [{"Name": "Villa Urquiza", "Country Code": "AR", "Population": 1566.0, "Lat": -31.64757, "Lon": -60.37516}], "Villa Valeria": [{"Name": "Villa Valeria", "Country Code": "AR", "Population": 2525.0, "Lat": -34.34141, "Lon": -64.92068}], "Villa Vasquez": [{"Name": "Villa V\u00e1squez", "Country Code": "DO", "Population": 11642.0, "Lat": 19.7411, "Lon": -71.4464}], "Villa Verde": [{"Name": "Villa Verde", "Country Code": "IT", "Population": 335.0, "Lat": 39.79551, "Lon": 8.82114}, {"Name": "Villa Verde", "Country Code": "PH", "Population": 0.0, "Lat": 16.59888, "Lon": 121.18774}], "Villa Verucchio": [{"Name": "Villa Verucchio", "Country Code": "IT", "Population": 6576.0, "Lat": 44.0051, "Lon": 12.43575}], "Villa Vicente Guerrero": [{"Name": "Villa Vicente Guerrero", "Country Code": "MX", "Population": 8188.0, "Lat": 18.39007, "Lon": -92.89607}, {"Name": "Villa Vicente Guerrero", "Country Code": "MX", "Population": 60001.0, "Lat": 19.12123, "Lon": -98.16572}], "Villa Vicentina": [{"Name": "Villa Vicentina", "Country Code": "IT", "Population": 1270.0, "Lat": 45.81378, "Lon": 13.39332}], "Villa Victoria": [{"Name": "Villa Victoria", "Country Code": "MX", "Population": 3827.0, "Lat": 19.43693, "Lon": -99.99589}, {"Name": "Villa Victoria", "Country Code": "MX", "Population": 1010.0, "Lat": 18.75749, "Lon": -103.36967}], "Villa Yapacani": [{"Name": "Villa Yapacan\u00ed", "Country Code": "BO", "Population": 18187.0, "Lat": -17.4, "Lon": -63.83333}], "Villa Ygatimi": [{"Name": "Villa Ygatim\u00ed", "Country Code": "PY", "Population": 2809.0, "Lat": -24.12371, "Lon": -55.64418}], "Villa Zaragoza": [{"Name": "Villa Zaragoza", "Country Code": "MX", "Population": 9915.0, "Lat": 22.03716, "Lon": -100.73088}], "Villa Zempoala": [{"Name": "Villa Zempoala", "Country Code": "MX", "Population": 9249.0, "Lat": 19.44422, "Lon": -96.40773}], "Villa d'Adda": [{"Name": "Villa d'Adda", "Country Code": "IT", "Population": 4530.0, "Lat": 45.71398, "Lon": 9.46165}], "Villa d'Agri": [{"Name": "Villa d'Agri", "Country Code": "IT", "Population": 3595.0, "Lat": 40.35426, "Lon": 15.8277}], "Villa d'Alme": [{"Name": "Villa d'Alm\u00e8", "Country Code": "IT", "Population": 6208.0, "Lat": 45.74843, "Lon": 9.61702}], "Villa d'Asolo": [{"Name": "Villa d'Asolo", "Country Code": "IT", "Population": 1419.0, "Lat": 45.77193, "Lon": 11.89981}], "Villa d'Ogna": [{"Name": "Villa d'Ogna", "Country Code": "IT", "Population": 1935.0, "Lat": 45.90469, "Lon": 9.93085}], "Villa d'Oneta": [{"Name": "Villa d'Oneta", "Country Code": "IT", "Population": 302.0, "Lat": 45.87074, "Lon": 9.81929}], "Villa de Almoloya de Juarez": [{"Name": "Villa de Almoloya de Ju\u00e1rez", "Country Code": "MX", "Population": 3091.0, "Lat": 19.36915, "Lon": -99.75836}], "Villa de Arista": [{"Name": "Villa de Arista", "Country Code": "MX", "Population": 7575.0, "Lat": 22.64252, "Lon": -100.84808}], "Villa de Arriaga": [{"Name": "Villa de Arriaga", "Country Code": "MX", "Population": 5426.0, "Lat": 21.90917, "Lon": -101.38223}], "Villa de Cos": [{"Name": "Villa de Cos", "Country Code": "MX", "Population": 5759.0, "Lat": 23.29329, "Lon": -102.3502}], "Villa de Costa Rica": [{"Name": "Villa de Costa Rica", "Country Code": "MX", "Population": 24874.0, "Lat": 24.59167, "Lon": -107.38836}], "Villa de Cura": [{"Name": "Villa de Cura", "Country Code": "VE", "Population": 99669.0, "Lat": 10.03863, "Lon": -67.48938}], "Villa de Don Fadrique": [{"Name": "Villa de Don Fadrique", "Country Code": "ES", "Population": 4200.0, "Lat": 39.61505, "Lon": -3.21915}], "Villa de El Carmen Tequexquitla": [{"Name": "Villa de El Carmen Tequexquitla", "Country Code": "MX", "Population": 14249.0, "Lat": 19.32426, "Lon": -97.6535}], "Villa de Etla": [{"Name": "Villa de Etla", "Country Code": "MX", "Population": 7285.0, "Lat": 17.20615, "Lon": -96.7989}], "Villa de Garcia Marquez": [{"Name": "Villa de Garc\u00eda M\u00e1rquez", "Country Code": "MX", "Population": 2199.0, "Lat": 20.43121, "Lon": -102.49508}], "Villa de Guadalupe": [{"Name": "Villa de Guadalupe", "Country Code": "MX", "Population": 971.0, "Lat": 23.37384, "Lon": -100.75703}, {"Name": "Villa de Guadalupe", "Country Code": "MX", "Population": 2376.0, "Lat": 25.51444, "Lon": -103.48917}], "Villa de Leyva": [{"Name": "Villa de Leyva", "Country Code": "CO", "Population": 5103.0, "Lat": 5.63413, "Lon": -73.52438}], "Villa de Maria": [{"Name": "Villa de Mar\u00eda", "Country Code": "AR", "Population": 0.0, "Lat": -29.90651, "Lon": -63.7226}], "Villa de Mayo": [{"Name": "Villa de Mayo", "Country Code": "AR", "Population": 43405.0, "Lat": -34.5108, "Lon": -58.68059}], "Villa de Ramos": [{"Name": "Villa de Ramos", "Country Code": "MX", "Population": 2494.0, "Lat": 22.83045, "Lon": -101.91079}], "Villa de Reyes": [{"Name": "Villa de Reyes", "Country Code": "MX", "Population": 10383.0, "Lat": 21.80309, "Lon": -100.93418}], "Villa de San Antonio": [{"Name": "Villa de San Antonio", "Country Code": "HN", "Population": 5390.0, "Lat": 14.32594, "Lon": -87.61351}], "Villa de San Diego de Ubate": [{"Name": "Villa de San Diego de Ubat\u00e9", "Country Code": "CO", "Population": 20485.0, "Lat": 5.30933, "Lon": -73.81575}], "Villa de San Francisco": [{"Name": "Villa de San Francisco", "Country Code": "HN", "Population": 5914.0, "Lat": 14.16667, "Lon": -86.96667}], "Villa de Soto": [{"Name": "Villa de Soto", "Country Code": "AR", "Population": 7303.0, "Lat": -30.85524, "Lon": -64.98496}], "Villa de Vallecas": [{"Name": "Villa de Vallecas", "Country Code": "ES", "Population": 65162.0, "Lat": 40.36695, "Lon": -3.60146}], "Villa de Ves": [{"Name": "Villa de Ves", "Country Code": "ES", "Population": 78.0, "Lat": 39.2, "Lon": -1.23333}], "Villa de Zaachila": [{"Name": "Villa de Zaachila", "Country Code": "MX", "Population": 13959.0, "Lat": 16.95098, "Lon": -96.74938}], "Villa de la Paz": [{"Name": "Villa de la Paz", "Country Code": "MX", "Population": 3734.0, "Lat": 23.67616, "Lon": -100.71167}], "Villa de las Flores": [{"Name": "Villa de las Flores", "Country Code": "MX", "Population": 1687.0, "Lat": 20.57639, "Lon": -97.43361}], "Villa de las Rosas": [{"Name": "Villa de las Rosas", "Country Code": "AR", "Population": 2535.0, "Lat": -31.94714, "Lon": -65.05213}], "Villa de los Ninos": [{"Name": "Villa de los Ni\u00f1os", "Country Code": "MX", "Population": 1490.0, "Lat": 20.40667, "Lon": -103.54167}], "Villa del Bosco": [{"Name": "Villa del Bosco", "Country Code": "IT", "Population": 302.0, "Lat": 45.61669, "Lon": 8.27776}], "Villa del Campo": [{"Name": "Villa del Campo", "Country Code": "ES", "Population": 615.0, "Lat": 40.14223, "Lon": -6.42679}, {"Name": "Villa del Campo", "Country Code": "MX", "Population": 13906.0, "Lat": 32.5075, "Lon": -116.73833}], "Villa del Carbon": [{"Name": "Villa del Carb\u00f3n", "Country Code": "MX", "Population": 8778.0, "Lat": 19.72875, "Lon": -99.46362}], "Villa del Carmen": [{"Name": "Villa del Carmen", "Country Code": "UY", "Population": 2703.0, "Lat": -33.23943, "Lon": -56.00936}], "Villa del Conte": [{"Name": "Villa del Conte", "Country Code": "IT", "Population": 2320.0, "Lat": 45.58475, "Lon": 11.85942}], "Villa del Dique": [{"Name": "Villa del Dique", "Country Code": "AR", "Population": 2829.0, "Lat": -32.17628, "Lon": -64.45694}], "Villa del Prado": [{"Name": "Villa del Prado", "Country Code": "ES", "Population": 5385.0, "Lat": 40.27852, "Lon": -4.30534}], "Villa del Prado 2da Seccion": [{"Name": "Villa del Prado 2da Secci\u00f3n", "Country Code": "MX", "Population": 18226.0, "Lat": 32.42389, "Lon": -116.97167}], "Villa del Rey": [{"Name": "Villa del Rey", "Country Code": "ES", "Population": 139.0, "Lat": 39.65955, "Lon": -6.82122}], "Villa del Rio": [{"Name": "Villa del R\u00edo", "Country Code": "ES", "Population": 7407.0, "Lat": 37.98108, "Lon": -4.29003}], "Villa del Rosario": [{"Name": "Villa del Rosario", "Country Code": "AR", "Population": 0.0, "Lat": -31.55416, "Lon": -63.53562}, {"Name": "Villa del Rosario", "Country Code": "AR", "Population": 3488.0, "Lat": -30.7957, "Lon": -57.91234},