{"Prado-Sevilla": [{"Name": "Prado-Sevilla", "Country Code": "CO", "Population": 0.0, "Lat": 10.76343, "Lon": -74.13916}], "Pradoluengo": [{"Name": "Pradoluengo", "Country Code": "ES", "Population": 1643.0, "Lat": 42.32484, "Lon": -3.20284}], "Pradopolis": [{"Name": "Prad\u00f3polis", "Country Code": "BR", "Population": 13192.0, "Lat": -21.35944, "Lon": -48.06556}], "Prados Redondos": [{"Name": "Prados Redondos", "Country Code": "ES", "Population": 149.0, "Lat": 40.78505, "Lon": -1.79329}], "Prados San Francisco": [{"Name": "Prados San Francisco", "Country Code": "MX", "Population": 2600.0, "Lat": 19.72154, "Lon": -99.08366}], "Prados de San Juan": [{"Name": "Prados de San Juan", "Country Code": "MX", "Population": 3081.0, "Lat": 19.63998, "Lon": -98.97519}], "Prados de Santa Rosa": [{"Name": "Prados de Santa Rosa", "Country Code": "MX", "Population": 9626.0, "Lat": 25.79808, "Lon": -100.22687}], "Prados del Rosario": [{"Name": "Prados del Rosario", "Country Code": "MX", "Population": 1207.0, "Lat": 21.02194, "Lon": -100.3925}], "Pradosegar": [{"Name": "Pradosegar", "Country Code": "ES", "Population": 230.0, "Lat": 40.5502, "Lon": -5.07015}], "Praegraten": [{"Name": "Pr\u00e4graten", "Country Code": "AT", "Population": 0.0, "Lat": 47.01667, "Lon": 12.38333}], "Praesto": [{"Name": "Pr\u00e6st\u00f8", "Country Code": "DK", "Population": 3857.0, "Lat": 55.12374, "Lon": 12.04477}], "Praga Polnoc": [{"Name": "Praga P\u00f3\u0142noc", "Country Code": "PL", "Population": 93192.0, "Lat": 52.25443, "Lon": 21.03472}], "Praga Poludnie": [{"Name": "Praga Po\u0142udnie", "Country Code": "PL", "Population": 179836.0, "Lat": 52.24424, "Lon": 21.08545}], "Pragaan": [{"Name": "Pragaan", "Country Code": "ID", "Population": 0.0, "Lat": -7.1109, "Lon": 113.66}], "Pragal": [{"Name": "Pragal", "Country Code": "PT", "Population": 7701.0, "Lat": 38.67459, "Lon": -9.16981}], "Pragelato-Rua": [{"Name": "Pragelato-Ru\u00e0", "Country Code": "IT", "Population": 402.0, "Lat": 45.01364, "Lon": 6.94161}], "Pragersko": [{"Name": "Pragersko", "Country Code": "SI", "Population": 1150.0, "Lat": 46.39667, "Lon": 15.66}], "Pragoulin": [{"Name": "Pragoulin", "Country Code": "FR", "Population": 1131.0, "Lat": 46.05425, "Lon": 3.39346}], "Prague": [{"Name": "Prague", "Country Code": "CZ", "Population": 1165581.0, "Lat": 50.08804, "Lon": 14.42076}, {"Name": "Prague", "Country Code": "US", "Population": 2453.0, "Lat": 35.48674, "Lon": -96.68502}], "Prahecq": [{"Name": "Prahecq", "Country Code": "FR", "Population": 1714.0, "Lat": 46.25915, "Lon": -0.34556}], "Prahran": [{"Name": "Prahran", "Country Code": "AU", "Population": 12203.0, "Lat": -37.85114, "Lon": 144.99318}], "Praia": [{"Name": "Praia", "Country Code": "CV", "Population": 137868.0, "Lat": 14.93152, "Lon": -23.51254}], "Praia Bebe": [{"Name": "Praia Bebe", "Country Code": "AO", "Population": 9082.0, "Lat": -12.40959, "Lon": 13.50349}], "Praia Grande": [{"Name": "Praia Grande", "Country Code": "BR", "Population": 250027.0, "Lat": -24.00583, "Lon": -46.40278}], "Praia a Mare": [{"Name": "Praia a Mare", "Country Code": "IT", "Population": 6470.0, "Lat": 39.8941, "Lon": 15.78421}], "Praia da Vitoria": [{"Name": "Praia da Vit\u00f3ria", "Country Code": "PT", "Population": 6061.0, "Lat": 38.73333, "Lon": -27.06667}], "Praia do Ribatejo": [{"Name": "Praia do Ribatejo", "Country Code": "PT", "Population": 1702.0, "Lat": 39.46667, "Lon": -8.35}], "Praiano": [{"Name": "Praiano", "Country Code": "IT", "Population": 2087.0, "Lat": 40.61213, "Lon": 14.52461}], "Praid": [{"Name": "Praid", "Country Code": "RO", "Population": 6739.0, "Lat": 46.55, "Lon": 25.13333}], "Prainha": [{"Name": "Prainha", "Country Code": "BR", "Population": 6481.0, "Lat": -1.8, "Lon": -53.48}], "Prairie City": [{"Name": "Prairie City", "Country Code": "US", "Population": 1709.0, "Lat": 41.59943, "Lon": -93.23521}], "Prairie Creek": [{"Name": "Prairie Creek", "Country Code": "US", "Population": 2066.0, "Lat": 36.34202, "Lon": -94.06187}], "Prairie Grove": [{"Name": "Prairie Grove", "Country Code": "US", "Population": 5186.0, "Lat": 35.97591, "Lon": -94.31771}, {"Name": "Prairie Grove", "Country Code": "US", "Population": 1869.0, "Lat": 42.27863, "Lon": -88.26092}], "Prairie Heights": [{"Name": "Prairie Heights", "Country Code": "US", "Population": 4405.0, "Lat": 47.14933, "Lon": -122.1053}], "Prairie Ridge": [{"Name": "Prairie Ridge", "Country Code": "US", "Population": 11464.0, "Lat": 47.1376, "Lon": -122.14873}], "Prairie View": [{"Name": "Prairie View", "Country Code": "US", "Population": 6369.0, "Lat": 30.09327, "Lon": -95.98773}], "Prairie Village": [{"Name": "Prairie Village", "Country Code": "US", "Population": 21877.0, "Lat": 38.99167, "Lon": -94.63357}], "Prairie du Chien": [{"Name": "Prairie du Chien", "Country Code": "US", "Population": 5757.0, "Lat": 43.05165, "Lon": -91.14124}], "Prairie du Sac": [{"Name": "Prairie du Sac", "Country Code": "US", "Population": 4255.0, "Lat": 43.28693, "Lon": -89.72401}], "Prairieville": [{"Name": "Prairieville", "Country Code": "US", "Population": 26895.0, "Lat": 30.30297, "Lon": -90.97205}], "Prairiewood": [{"Name": "Prairiewood", "Country Code": "AU", "Population": 3440.0, "Lat": -33.86325, "Lon": 150.90521}], "Prajani": [{"Name": "Pr\u0103jani", "Country Code": "RO", "Population": 1344.0, "Lat": 45.20422, "Lon": 25.95151}], "Prajeni": [{"Name": "Pr\u0103jeni", "Country Code": "RO", "Population": 3265.0, "Lat": 47.51667, "Lon": 27.01667}], "Prajesti": [{"Name": "Pr\u0103je\u0219ti", "Country Code": "RO", "Population": 2482.0, "Lat": 46.65469, "Lon": 26.97631}], "Prajila": [{"Name": "Prajila", "Country Code": "RO", "Population": 2570.0, "Lat": 45.0827, "Lon": 24.16949}], "Prakhon Chai": [{"Name": "Prakhon Chai", "Country Code": "TH", "Population": 0.0, "Lat": 14.61073, "Lon": 103.07923}, {"Name": "Prakhon Chai", "Country Code": "TH", "Population": 15564.0, "Lat": 14.60592, "Lon": 103.12081}], "Prakro": [{"Name": "Prakro", "Country Code": "CI", "Population": 1565.0, "Lat": 6.50709, "Lon": -3.40634}], "Praktiseer": [{"Name": "Praktiseer", "Country Code": "ZA", "Population": 26675.0, "Lat": -24.58398, "Lon": 30.31684}], "Pralboino": [{"Name": "Pralboino", "Country Code": "IT", "Population": 2795.0, "Lat": 45.2672, "Lon": 10.21839}], "Prali": [{"Name": "Prali", "Country Code": "IT", "Population": 266.0, "Lat": 44.88944, "Lon": 7.05131}], "Pralormo": [{"Name": "Pralormo", "Country Code": "IT", "Population": 897.0, "Lat": 44.85976, "Lon": 7.9044}], "Pralungo": [{"Name": "Pralungo", "Country Code": "IT", "Population": 1866.0, "Lat": 45.58999, "Lon": 8.03976}], "Pram": [{"Name": "Pram", "Country Code": "AT", "Population": 660.0, "Lat": 48.23536, "Lon": 13.60579}], "Pramaggiore": [{"Name": "Pramaggiore", "Country Code": "IT", "Population": 3985.0, "Lat": 45.815, "Lon": 12.73889}], "Pramaggiore Blessaglia": [{"Name": "Pramaggiore Blessaglia", "Country Code": "IT", "Population": 2591.0, "Lat": 45.80528, "Lon": 12.725}], "Pramanta": [{"Name": "Pr\u00e1manta", "Country Code": "GR", "Population": 1137.0, "Lat": 39.52306, "Lon": 21.10139}], "Prambachkirchen": [{"Name": "Prambachkirchen", "Country Code": "AT", "Population": 1164.0, "Lat": 48.31711, "Lon": 13.90449}], "Pramet": [{"Name": "Pramet", "Country Code": "AT", "Population": 410.0, "Lat": 48.14295, "Lon": 13.48752}], "Pramollo": [{"Name": "Pramollo", "Country Code": "IT", "Population": 258.0, "Lat": 44.90814, "Lon": 7.19071}], "Pran Buri": [{"Name": "Pran Buri", "Country Code": "TH", "Population": 47293.0, "Lat": 12.38487, "Lon": 99.90157}], "Prang Ku": [{"Name": "Prang Ku", "Country Code": "TH", "Population": 0.0, "Lat": 14.85672, "Lon": 104.03981}], "Prangins": [{"Name": "Prangins", "Country Code": "CH", "Population": 3172.0, "Lat": 46.39518, "Lon": 6.2496}], "Pranoi": [{"Name": "Pranoi", "Country Code": "CI", "Population": 1136.0, "Lat": 6.8681, "Lon": -4.96289}], "Prao": [{"Name": "Prao", "Country Code": "VN", "Population": 0.0, "Lat": 15.92438, "Lon": 107.64814}], "Prapor": [{"Name": "Prapor", "Country Code": "RO", "Population": 1789.0, "Lat": 43.94487, "Lon": 24.17475}], "Prarolo": [{"Name": "Prarolo", "Country Code": "IT", "Population": 315.0, "Lat": 45.28149, "Lon": 8.47784}], "Praroman": [{"Name": "Praroman", "Country Code": "CH", "Population": 1223.0, "Lat": 46.75145, "Lon": 7.17778}], "Prarostino": [{"Name": "Prarostino", "Country Code": "IT", "Population": 1302.0, "Lat": 44.86634, "Lon": 7.26762}], "Prasat": [{"Name": "Prasat", "Country Code": "TH", "Population": 0.0, "Lat": 14.64039, "Lon": 103.40447}], "Prasco": [{"Name": "Prasco", "Country Code": "IT", "Population": 78.0, "Lat": 44.63938, "Lon": 8.55167}], "Prascorsano": [{"Name": "Prascorsano", "Country Code": "IT", "Population": 259.0, "Lat": 45.36721, "Lon": 7.61727}], "Praskoveya": [{"Name": "Praskoveya", "Country Code": "RU", "Population": 11420.0, "Lat": 44.74444, "Lon": 44.20306}], "Praslavice": [{"Name": "P\u0159\u00e1slavice", "Country Code": "CZ", "Population": 1290.0, "Lat": 49.58568, "Lon": 17.38209}], "Praslin": [{"Name": "Praslin", "Country Code": "LC", "Population": 1906.0, "Lat": 13.87545, "Lon": -60.89717}], "Praso": [{"Name": "Praso", "Country Code": "IT", "Population": 309.0, "Lat": 45.95, "Lon": 10.63627}], "Praszka": [{"Name": "Praszka", "Country Code": "PL", "Population": 8150.0, "Lat": 51.05375, "Lon": 18.45317}], "Prat": [{"Name": "Prat", "Country Code": "FR", "Population": 1049.0, "Lat": 48.67685, "Lon": -3.29807}], "Prata": [{"Name": "Prata", "Country Code": "BR", "Population": 19896.0, "Lat": -19.30722, "Lon": -48.92417}], "Prata Camportaccio": [{"Name": "Prata Camportaccio", "Country Code": "IT", "Population": 2727.0, "Lat": 46.30719, "Lon": 9.39524}], "Prata Centro": [{"Name": "Prata Centro", "Country Code": "IT", "Population": 1224.0, "Lat": 46.30847, "Lon": 9.39625}], "Prata Sannita Centro": [{"Name": "Prata Sannita Centro", "Country Code": "IT", "Population": 937.0, "Lat": 41.43282, "Lon": 14.20272}], "Prata d'Ansidonia": [{"Name": "Prata d'Ansidonia", "Country Code": "IT", "Population": 330.0, "Lat": 42.27793, "Lon": 13.6083}], "Prata di Pordenone": [{"Name": "Prata di Pordenone", "Country Code": "IT", "Population": 4608.0, "Lat": 45.89441, "Lon": 12.58843}], "Prata di Principato Ultra": [{"Name": "Prata di Principato Ultra", "Country Code": "IT", "Population": 2273.0, "Lat": 40.98626, "Lon": 14.83803}], "Prata di Sotto": [{"Name": "Prata di Sotto", "Country Code": "IT", "Population": 0.0, "Lat": 45.89073, "Lon": 12.59591}], "Pratantico-Indicatore": [{"Name": "Pratantico-Indicatore", "Country Code": "IT", "Population": 3067.0, "Lat": 43.48071, "Lon": 11.80531}], "Pratapgarh": [{"Name": "Prat\u0101pgarh", "Country Code": "IN", "Population": 37780.0, "Lat": 24.03215, "Lon": 74.78162}, {"Name": "Prat\u0101pgarh", "Country Code": "IN", "Population": 13672.0, "Lat": 25.89509, "Lon": 81.9424}], "Pratau": [{"Name": "Pratau", "Country Code": "DE", "Population": 1861.0, "Lat": 51.84226, "Lon": 12.64373}], "Pratella": [{"Name": "Pratella", "Country Code": "IT", "Population": 547.0, "Lat": 41.40579, "Lon": 14.17913}], "Prathai": [{"Name": "Prathai", "Country Code": "TH", "Population": 0.0, "Lat": 15.53319, "Lon": 102.72283}], "Prati": [{"Name": "Prati", "Country Code": "IT", "Population": 540.0, "Lat": 44.3829, "Lon": 9.37567}, {"Name": "Prati", "Country Code": "IT", "Population": 965.0, "Lat": 46.90003, "Lon": 11.46507}], "Praticello": [{"Name": "Praticello", "Country Code": "IT", "Population": 2704.0, "Lat": 44.80436, "Lon": 10.4731}], "Praticello di Gattatico": [{"Name": "Praticello di Gattatico", "Country Code": "IT", "Population": 0.0, "Lat": 44.80486, "Lon": 10.47461}], "Pratiglione": [{"Name": "Pratiglione", "Country Code": "IT", "Population": 323.0, "Lat": 45.35275, "Lon": 7.59602}], "Pratissolo": [{"Name": "Pratissolo", "Country Code": "IT", "Population": 1586.0, "Lat": 44.60416, "Lon": 10.674}], "Prato": [{"Name": "Prato", "Country Code": "IT", "Population": 1218.0, "Lat": 44.71589, "Lon": 10.74797}, {"Name": "Prato", "Country Code": "IT", "Population": 195089.0, "Lat": 43.8805, "Lon": 11.09699}, {"Name": "Prato", "Country Code": "IT", "Population": 423.0, "Lat": 46.37364, "Lon": 13.30659}], "Prato Allo Stelvio": [{"Name": "Prato Allo Stelvio", "Country Code": "IT", "Population": 2640.0, "Lat": 46.61901, "Lon": 10.59136}], "Prato Carnico": [{"Name": "Prato Carnico", "Country Code": "IT", "Population": 1065.0, "Lat": 46.52049, "Lon": 12.80886}], "Prato Perillo": [{"Name": "Prato Perillo", "Country Code": "IT", "Population": 3263.0, "Lat": 40.3969, "Lon": 15.52503}], "Prato Sesia": [{"Name": "Prato Sesia", "Country Code": "IT", "Population": 1578.0, "Lat": 45.65067, "Lon": 8.37293}], "Prato di Coppola": [{"Name": "Prato di Coppola", "Country Code": "IT", "Population": 1501.0, "Lat": 41.4175, "Lon": 12.88157}], "Pratola Peligna": [{"Name": "Pratola Peligna", "Country Code": "IT", "Population": 7043.0, "Lat": 42.09701, "Lon": 13.87467}], "Pratola Serra": [{"Name": "Pratola Serra", "Country Code": "IT", "Population": 2146.0, "Lat": 40.98655, "Lon": 14.85149}], "Pratole": [{"Name": "Pratole", "Country Code": "IT", "Population": 2923.0, "Lat": 40.6258, "Lon": 14.92565}], "Pratovecchio": [{"Name": "Pratovecchio", "Country Code": "IT", "Population": 2154.0, "Lat": 43.78685, "Lon": 11.72353}], "Prats de Llucanes": [{"Name": "Prats de Llu\u00e7an\u00e8s", "Country Code": "ES", "Population": 0.0, "Lat": 42.01667, "Lon": 2.03333}], "Prats de Mollo": [{"Name": "Prats de Moll\u00f3", "Country Code": "FR", "Population": 1191.0, "Lat": 42.40404, "Lon": 2.47928}], "Pratt": [{"Name": "Pratt", "Country Code": "US", "Population": 6849.0, "Lat": 37.64391, "Lon": -98.73759}], "Pratteln": [{"Name": "Pratteln", "Country Code": "CH", "Population": 14877.0, "Lat": 47.52071, "Lon": 7.69356}], "Prattville": [{"Name": "Prattville", "Country Code": "US", "Population": 35420.0, "Lat": 32.46402, "Lon": -86.4597}], "Pravda": [{"Name": "Pravda", "Country Code": "RU", "Population": 2412.0, "Lat": 46.93972, "Lon": 142.00426}, {"Name": "Pravda", "Country Code": "UA", "Population": 1474.0, "Lat": 45.77903, "Lon": 33.84649}], "Pravdinsk": [{"Name": "Pravdinsk", "Country Code": "RU", "Population": 4515.0, "Lat": 54.44289, "Lon": 21.01785}], "Pravdinskiy": [{"Name": "Pravdinskiy", "Country Code": "RU", "Population": 10372.0, "Lat": 56.06034, "Lon": 37.86266}], "Pravenec": [{"Name": "Pravenec", "Country Code": "SK", "Population": 1298.0, "Lat": 48.85613, "Lon": 18.64901}], "Pravets": [{"Name": "Pravets", "Country Code": "BG", "Population": 4400.0, "Lat": 42.89163, "Lon": 23.91525}], "Pravia": [{"Name": "Pravia", "Country Code": "ES", "Population": 0.0, "Lat": 43.48861, "Lon": -6.1117}], "Pravisdomini": [{"Name": "Pravisdomini", "Country Code": "IT", "Population": 1280.0, "Lat": 45.81972, "Lon": 12.69478}], "Pravohettinskiy": [{"Name": "Pravohettinskiy", "Country Code": "RU", "Population": 1167.0, "Lat": 65.4496, "Lon": 73.53098}], "Pravokubanskiy": [{"Name": "Pravokubanskiy", "Country Code": "RU", "Population": 2971.0, "Lat": 43.91721, "Lon": 41.88413}], "Pravokumskoye": [{"Name": "Pravokumskoye", "Country Code": "RU", "Population": 5117.0, "Lat": 44.76944, "Lon": 44.64722}], "Prawdzinski": [{"Name": "Prawdzinski", "Country Code": "BY", "Population": 2900.0, "Lat": 53.5248, "Lon": 27.8303}], "Praxedis G. Guerrero": [{"Name": "Praxedis G. Guerrero", "Country Code": "MX", "Population": 2128.0, "Lat": 31.37061, "Lon": -106.00616}], "Praxedis Guerrero": [{"Name": "Prax\u00e9dis Guerrero", "Country Code": "MX", "Population": 3787.0, "Lat": 31.36667, "Lon": -106.01667}], "Praxedis de Guerrero": [{"Name": "Praxedis de Guerrero", "Country Code": "MX", "Population": 1576.0, "Lat": 16.72, "Lon": -96.64}], "Pray": [{"Name": "Pray", "Country Code": "IT", "Population": 1408.0, "Lat": 45.67508, "Lon": 8.20951}], "Praya": [{"Name": "Praya", "Country Code": "ID", "Population": 35183.0, "Lat": -8.70536, "Lon": 116.27036}], "Prayagraj": [{"Name": "Prayagraj", "Country Code": "IN", "Population": 1073438.0, "Lat": 25.44478, "Lon": 81.84322}], "Prayon": [{"Name": "Prayon", "Country Code": "BE", "Population": 5240.0, "Lat": 50.57795, "Lon": 5.6753}], "Prayssac": [{"Name": "Prayssac", "Country Code": "FR", "Population": 2557.0, "Lat": 44.5043, "Lon": 1.18778}], "Praz-sur-Arly": [{"Name": "Praz-sur-Arly", "Country Code": "FR", "Population": 1197.0, "Lat": 45.83731, "Lon": 6.57259}], "Prazmo": [{"Name": "Pra\u017emo", "Country Code": "CZ", "Population": 1007.0, "Lat": 49.60876, "Lon": 18.48617}], "Prazmow": [{"Name": "Pra\u017cm\u00f3w", "Country Code": "PL", "Population": 403.0, "Lat": 51.9404, "Lon": 20.95479}], "Prazzo Superiore": [{"Name": "Prazzo Superiore", "Country Code": "IT", "Population": 60.0, "Lat": 44.48297, "Lon": 7.05468}], "Prcanj": [{"Name": "Pr\u010danj", "Country Code": "ME", "Population": 1244.0, "Lat": 42.4575, "Lon": 18.74222}], "Pre Saint Didier": [{"Name": "Pr\u00e8 Saint Didier", "Country Code": "IT", "Population": 258.0, "Lat": 45.76416, "Lon": 6.98579}], "Pre-en-Pail": [{"Name": "Pr\u00e9-en-Pail", "Country Code": "FR", "Population": 2129.0, "Lat": 48.45993, "Lon": -0.19814}], "Preaek Prasab": [{"Name": "Preaek Prasab", "Country Code": "KH", "Population": 0.0, "Lat": 12.35367, "Lon": 106.03562}], "Preah Netr Preah": [{"Name": "Preah Netr Preah", "Country Code": "KH", "Population": 0.0, "Lat": 13.62371, "Lon": 103.18212}], "Preah Sdach": [{"Name": "Preah Sdach", "Country Code": "KH", "Population": 0.0, "Lat": 11.09511, "Lon": 105.38447}], "Preajba": [{"Name": "Preajba", "Country Code": "RO", "Population": 1030.0, "Lat": 44.26511, "Lon": 23.85024}], "Preara-Moraro-Leva Nord": [{"Name": "Preara-Moraro-Lev\u00e0 Nord", "Country Code": "IT", "Population": 1953.0, "Lat": 45.67996, "Lon": 11.54286}], "Preaux": [{"Name": "Pr\u00e9aux", "Country Code": "FR", "Population": 1673.0, "Lat": 49.49136, "Lon": 1.21583}], "Prebbleton": [{"Name": "Prebbleton", "Country Code": "NZ", "Population": 5260.0, "Lat": -43.58333, "Lon": 172.51667}], "Prebitz": [{"Name": "Prebitz", "Country Code": "DE", "Population": 1148.0, "Lat": 49.83333, "Lon": 11.68333}], "Prebold": [{"Name": "Prebold", "Country Code": "SI", "Population": 1709.0, "Lat": 46.23694, "Lon": 15.0925}], "Precenicco": [{"Name": "Precenicco", "Country Code": "IT", "Population": 1190.0, "Lat": 45.79694, "Lon": 13.07554}], "Prechac": [{"Name": "Pr\u00e9chac", "Country Code": "FR", "Population": 1103.0, "Lat": 44.39968, "Lon": -0.35354}], "Prechistoye": [{"Name": "Prechistoye", "Country Code": "RU", "Population": 4894.0, "Lat": 58.42352, "Lon": 40.32839}], "Preci": [{"Name": "Preci", "Country Code": "IT", "Population": 292.0, "Lat": 42.88069, "Lon": 13.03747}], "Precieux": [{"Name": "Pr\u00e9cieux", "Country Code": "FR", "Population": 1013.0, "Lat": 45.58702, "Lon": 4.15152}], "Precigne": [{"Name": "Pr\u00e9cign\u00e9", "Country Code": "FR", "Population": 2768.0, "Lat": 47.76639, "Lon": -0.32468}], "Precy-sur-Oise": [{"Name": "Pr\u00e9cy-sur-Oise", "Country Code": "FR", "Population": 3261.0, "Lat": 49.20779, "Lon": 2.37266}], "Predappio": [{"Name": "Predappio", "Country Code": "IT", "Population": 2760.0, "Lat": 44.10316, "Lon": 11.98413}], "Predavac": [{"Name": "Predavac", "Country Code": "HR", "Population": 1144.0, "Lat": 45.93583, "Lon": 16.78333}], "Predazzo": [{"Name": "Predazzo", "Country Code": "IT", "Population": 4254.0, "Lat": 46.3114, "Lon": 11.5996}], "Preddvor": [{"Name": "Preddvor", "Country Code": "SI", "Population": 3659.0, "Lat": 46.3025, "Lon": 14.42306}], "Predeal": [{"Name": "Predeal", "Country Code": "RO", "Population": 5615.0, "Lat": 45.5, "Lon": 25.56667}], "Predesti": [{"Name": "Prede\u015fti", "Country Code": "RO", "Population": 3433.0, "Lat": 44.35, "Lon": 23.6}], "Preding": [{"Name": "Preding", "Country Code": "AT", "Population": 860.0, "Lat": 46.85861, "Lon": 15.40972}], "Predivinsk": [{"Name": "Predivinsk", "Country Code": "RU", "Population": 2028.0, "Lat": 57.0631, "Lon": 93.4374}], "Predklasteri": [{"Name": "P\u0159edkl\u00e1\u0161te\u0159\u00ed", "Country Code": "CZ", "Population": 1446.0, "Lat": 49.35253, "Lon": 16.40241}], "Predmerice nad Labem": [{"Name": "P\u0159edm\u011b\u0159ice nad Labem", "Country Code": "CZ", "Population": 1638.0, "Lat": 50.25633, "Lon": 15.81556}], "Predoi": [{"Name": "Predoi", "Country Code": "IT", "Population": 337.0, "Lat": 47.04031, "Lon": 12.10663}], "Predore": [{"Name": "Predore", "Country Code": "IT", "Population": 1845.0, "Lat": 45.68085, "Lon": 10.01271}], "Predosa": [{"Name": "Predosa", "Country Code": "IT", "Population": 1241.0, "Lat": 44.75049, "Lon": 8.65568}], "Preeceville": [{"Name": "Preeceville", "Country Code": "CA", "Population": 1003.0, "Lat": 51.94998, "Lon": -102.66766}], "Prees": [{"Name": "Prees", "Country Code": "GB", "Population": 939.0, "Lat": 52.89689, "Lon": -2.66401}], "Preesall": [{"Name": "Preesall", "Country Code": "GB", "Population": 5367.0, "Lat": 53.9182, "Lon": -2.96633}], "Preetz": [{"Name": "Preetz", "Country Code": "DE", "Population": 1021.0, "Lat": 54.35017, "Lon": 12.98936}, {"Name": "Preetz", "Country Code": "DE", "Population": 15768.0, "Lat": 54.2354, "Lon": 10.27795}], "Prefailles": [{"Name": "Pr\u00e9failles", "Country Code": "FR", "Population": 1185.0, "Lat": 47.12835, "Lon": -2.21589}], "Preganziol": [{"Name": "Preganziol", "Country Code": "IT", "Population": 6674.0, "Lat": 45.60139, "Lon": 12.23722}], "Pregarten": [{"Name": "Pregarten", "Country Code": "AT", "Population": 2846.0, "Lat": 48.35488, "Lon": 14.53217}], "Pregassona": [{"Name": "Pregassona", "Country Code": "CH", "Population": 7548.0, "Lat": 46.02021, "Lon": 8.97429}], "Pregnana Milanese": [{"Name": "Pregnana Milanese", "Country Code": "IT", "Population": 6736.0, "Lat": 45.51597, "Lon": 9.00704}], "Pregola": [{"Name": "Pregola", "Country Code": "IT", "Population": 28.0, "Lat": 44.75069, "Lon": 9.28223}], "Pregonero": [{"Name": "Pregonero", "Country Code": "VE", "Population": 0.0, "Lat": 8.01909, "Lon": -71.76595}], "Pregrada": [{"Name": "Pregrada", "Country Code": "HR", "Population": 1870.0, "Lat": 46.16417, "Lon": 15.75083}], "Pregradnaya": [{"Name": "Pregradnaya", "Country Code": "RU", "Population": 6595.0, "Lat": 43.95185, "Lon": 41.19117}], "Pregradnoye": [{"Name": "Pregradnoye", "Country Code": "RU", "Population": 3671.0, "Lat": 45.82183, "Lon": 41.74692}], "Preignac": [{"Name": "Preignac", "Country Code": "FR", "Population": 2198.0, "Lat": 44.58489, "Lon": -0.29522}], "Preignan": [{"Name": "Preignan", "Country Code": "FR", "Population": 1002.0, "Lat": 43.71259, "Lon": 0.62844}], "Preili": [{"Name": "Prei\u013ci", "Country Code": "LV", "Population": 8656.0, "Lat": 56.29444, "Lon": 26.72459}], "Preitenegg": [{"Name": "Preitenegg", "Country Code": "AT", "Population": 271.0, "Lat": 46.94, "Lon": 14.92583}], "Prejano": [{"Name": "Pr\u00e9jano", "Country Code": "ES", "Population": 191.0, "Lat": 42.18648, "Lon": -2.17998}], "Prejmer": [{"Name": "Prejmer", "Country Code": "RO", "Population": 8106.0, "Lat": 45.71667, "Lon": 25.76667}], "Preko": [{"Name": "Preko", "Country Code": "HR", "Population": 1250.0, "Lat": 44.08111, "Lon": 15.1875}], "Prela Castello": [{"Name": "Prel\u00e0 Castello", "Country Code": "IT", "Population": 20.0, "Lat": 43.94006, "Lon": 7.94409}], "Prelipca": [{"Name": "Prelipca", "Country Code": "RO", "Population": 1146.0, "Lat": 47.61085, "Lon": 26.35414}], "Prellenkirchen": [{"Name": "Prellenkirchen", "Country Code": "AT", "Population": 1036.0, "Lat": 48.07401, "Lon": 16.95233}], "Prelog": [{"Name": "Prelog", "Country Code": "HR", "Population": 4042.0, "Lat": 46.335, "Lon": 16.61556}], "Prelouc": [{"Name": "P\u0159elou\u010d", "Country Code": "CZ", "Population": 8586.0, "Lat": 50.03985, "Lon": 15.56031}], "Premana": [{"Name": "Premana", "Country Code": "IT", "Population": 2205.0, "Lat": 46.05245, "Lon": 9.42129}], "Premariacco": [{"Name": "Premariacco", "Country Code": "IT", "Population": 1743.0, "Lat": 46.06145, "Lon": 13.39461}], "Premeno": [{"Name": "Premeno", "Country Code": "IT", "Population": 466.0, "Lat": 45.97818, "Lon": 8.59587}], "Premenugo": [{"Name": "Premenugo", "Country Code": "IT", "Population": 1585.0, "Lat": 45.4679, "Lon": 9.38458}], "Premery": [{"Name": "Pr\u00e9mery", "Country Code": "FR", "Population": 2206.0, "Lat": 47.16952, "Lon": 3.32743}], "Premesques": [{"Name": "Pr\u00e9mesques", "Country Code": "FR", "Population": 1958.0, "Lat": 50.65572, "Lon": 2.95162}], "Premia": [{"Name": "Premia", "Country Code": "IT", "Population": 376.0, "Lat": 46.26807, "Lon": 8.3383}], "Premia de Dalt": [{"Name": "Premi\u00e0 de Dalt", "Country Code": "ES", "Population": 10429.0, "Lat": 41.5, "Lon": 2.35}], "Premia de Mar": [{"Name": "Premi\u00e0 de Mar", "Country Code": "ES", "Population": 27399.0, "Lat": 41.49206, "Lon": 2.36524}], "Premilcuore": [{"Name": "Premilcuore", "Country Code": "IT", "Population": 613.0, "Lat": 43.98084, "Lon": 11.78193}], "Premilhat": [{"Name": "Pr\u00e9milhat", "Country Code": "FR", "Population": 2125.0, "Lat": 46.31341, "Lon": 2.53559}], "Premnitz": [{"Name": "Premnitz", "Country Code": "DE", "Population": 10105.0, "Lat": 52.53184, "Lon": 12.34845}], "Premolo": [{"Name": "Premolo", "Country Code": "IT", "Population": 1118.0, "Lat": 45.87019, "Lon": 9.87466}], "Premont": [{"Name": "Premont", "Country Code": "US", "Population": 2659.0, "Lat": 27.36059, "Lon": -98.12362}], "Premosello-Chiovenda": [{"Name": "Premosello-Chiovenda", "Country Code": "IT", "Population": 1270.0, "Lat": 46.0038, "Lon": 8.32973}], "Premyslovice": [{"Name": "P\u0159emyslovice", "Country Code": "CZ", "Population": 1268.0, "Lat": 49.55637, "Lon": 16.95581}], "Prentiss": [{"Name": "Prentiss", "Country Code": "US", "Population": 1002.0, "Lat": 31.5985, "Lon": -89.86702}], "Prenton": [{"Name": "Prenton", "Country Code": "GB", "Population": 14429.0, "Lat": 53.36762, "Lon": -3.05479}], "Prenzlau": [{"Name": "Prenzlau", "Country Code": "DE", "Population": 20899.0, "Lat": 53.31625, "Lon": 13.86261}], "Prenzlauer Berg Bezirk": [{"Name": "Prenzlauer Berg", "Country Code": "DE", "Population": 148878.0, "Lat": 52.53878, "Lon": 13.42443}], "Preobrazheniye": [{"Name": "Preobrazheniye", "Country Code": "RU", "Population": 9113.0, "Lat": 42.90117, "Lon": 133.9043}], "Preobrazhenka": [{"Name": "Preobrazhenka", "Country Code": "UA", "Population": 3550.0, "Lat": 47.57194, "Lon": 35.81667}], "Preobrazhenskaya": [{"Name": "Preobrazhenskaya", "Country Code": "RU", "Population": 5475.0, "Lat": 50.74161, "Lon": 43.0518}], "Preone": [{"Name": "Preone", "Country Code": "IT", "Population": 266.0, "Lat": 46.39411, "Lon": 12.86645}], "Preore": [{"Name": "Preore", "Country Code": "IT", "Population": 357.0, "Lat": 46.04663, "Lon": 10.75969}], "Prepezzano": [{"Name": "Prepezzano", "Country Code": "IT", "Population": 1075.0, "Lat": 40.72754, "Lon": 14.89123}], "Prepotto": [{"Name": "Prepotto", "Country Code": "IT", "Population": 128.0, "Lat": 46.04522, "Lon": 13.47921}], "Prerov": [{"Name": "P\u0159erov", "Country Code": "CZ", "Population": 47311.0, "Lat": 49.45511, "Lon": 17.4509}], "Prerov nad Labem": [{"Name": "P\u0159erov nad Labem", "Country Code": "CZ", "Population": 1067.0, "Lat": 50.16027, "Lon": 14.82502}], "Presa Blanca": [{"Name": "Presa Blanca", "Country Code": "MX", "Population": 1881.0, "Lat": 20.64146, "Lon": -100.79241}], "Presa de Rayas": [{"Name": "Presa de Rayas", "Country Code": "MX", "Population": 1257.0, "Lat": 20.80712, "Lon": -100.22252}], "Presa del Rosario": [{"Name": "Presa del Rosario", "Country Code": "MX", "Population": 1213.0, "Lat": 19.06789, "Lon": -102.40909}], "Presas": [{"Name": "Presas", "Country Code": "MX", "Population": 6942.0, "Lat": 20.15946, "Lon": -99.25242}], "Prescot": [{"Name": "Prescot", "Country Code": "GB", "Population": 40889.0, "Lat": 53.42948, "Lon": -2.80031}], "Prescott": [{"Name": "Prescott", "Country Code": "CA", "Population": 4466.0, "Lat": 44.71681, "Lon": -75.51604}, {"Name": "Prescott", "Country Code": "US", "Population": 41899.0, "Lat": 34.54002, "Lon": -112.4685}, {"Name": "Prescott", "Country Code": "US", "Population": 4208.0, "Lat": 44.74886, "Lon": -92.80215}, {"Name": "Prescott", "Country Code": "US", "Population": 3133.0, "Lat": 33.80261, "Lon": -93.38101}], "Prescott Valley": [{"Name": "Prescott Valley", "Country Code": "US", "Population": 42197.0, "Lat": 34.61002, "Lon": -112.31572}], "Preseau": [{"Name": "Pr\u00e9seau", "Country Code": "FR", "Population": 1884.0, "Lat": 50.31122, "Lon": 3.57434}], "Preseglie": [{"Name": "Preseglie", "Country Code": "IT", "Population": 1477.0, "Lat": 45.66829, "Lon": 10.39677}], "Preseka": [{"Name": "Preseka", "Country Code": "HR", "Population": 83.0, "Lat": 45.97592, "Lon": 16.38744}], "Presencio": [{"Name": "Presencio", "Country Code": "ES", "Population": 224.0, "Lat": 42.18656, "Lon": -3.90135}], "Presenzano": [{"Name": "Presenzano", "Country Code": "IT", "Population": 799.0, "Lat": 41.37823, "Lon": 14.09162}], "Preserje pri Radomljah": [{"Name": "Preserje pri Radomljah", "Country Code": "SI", "Population": 1531.0, "Lat": 46.16911, "Lon": 14.59698}], "Presevo": [{"Name": "Pre\u0161evo", "Country Code": "RS", "Population": 0.0, "Lat": 42.30917, "Lon": 21.64917}], "Presezzo": [{"Name": "Presezzo", "Country Code": "IT", "Population": 4918.0, "Lat": 45.69208, "Lon": 9.57035}], "Presicce": [{"Name": "Presicce", "Country Code": "IT", "Population": 5482.0, "Lat": 39.90055, "Lon": 18.26282}], "Presidencia Roca": [{"Name": "Presidencia Roca", "Country Code": "AR", "Population": 4987.0, "Lat": -26.1409, "Lon": -59.59541}], "Presidencia Roque Saenz Pena": [{"Name": "Presidencia Roque S\u00e1enz Pe\u00f1a", "Country Code": "AR", "Population": 81879.0, "Lat": -26.78522, "Lon": -60.43876}], "Presidencia de la Plaza": [{"Name": "Presidencia de la Plaza", "Country Code": "AR", "Population": 12231.0, "Lat": -27.00147, "Lon": -59.84243}], "President Quirino": [{"Name": "President Quirino", "Country Code": "PH", "Population": 4585.0, "Lat": 6.70389, "Lon": 124.73722}], "President Roxas": [{"Name": "President Roxas", "Country Code": "PH", "Population": 10879.0, "Lat": 7.15444, "Lon": 125.05583}, {"Name": "President Roxas", "Country Code": "PH", "Population": 7240.0, "Lat": 11.431, "Lon": 122.9279}], "Presidente Bernardes": [{"Name": "Presidente Bernardes", "Country Code": "BR", "Population": 12953.0, "Lat": -22.00611, "Lon": -51.55306}], "Presidente Dutra": [{"Name": "Presidente Dutra", "Country Code": "BR", "Population": 30330.0, "Lat": -5.29, "Lon": -44.49}], "Presidente Echeverria (Laja Tendida)": [{"Name": "Presidente Echeverr\u00eda (Laja Tendida)", "Country Code": "MX", "Population": 3084.0, "Lat": 16.33583, "Lon": -92.66861}], "Presidente Epitacio": [{"Name": "Presidente Epit\u00e1cio", "Country Code": "BR", "Population": 38742.0, "Lat": -21.76333, "Lon": -52.11556}], "Presidente Franco": [{"Name": "Presidente Franco", "Country Code": "PY", "Population": 54292.0, "Lat": -25.56384, "Lon": -54.61097}], "Presidente Juarez": [{"Name": "Presidente Ju\u00e1rez", "Country Code": "MX", "Population": 1004.0, "Lat": 19.32836, "Lon": -88.56164}], "Presidente Medici": [{"Name": "Presidente M\u00e9dici", "Country Code": "BR", "Population": 11922.0, "Lat": -11.17528, "Lon": -61.90139}], "Presidente Olegario": [{"Name": "Presidente Oleg\u00e1rio", "Country Code": "BR", "Population": 13586.0, "Lat": -18.41778, "Lon": -46.41806}], "Presidente Prudente": [{"Name": "Presidente Prudente", "Country Code": "BR", "Population": 209502.0, "Lat": -22.12556, "Lon": -51.38889}], "Presidente Venceslau": [{"Name": "Presidente Venceslau", "Country Code": "BR", "Population": 34026.0, "Lat": -21.87611, "Lon": -51.84389}], "Presidential Lakes Estates": [{"Name": "Presidential Lakes Estates", "Country Code": "US", "Population": 2365.0, "Lat": 39.91373, "Lon": -74.5646}], "Presidio": [{"Name": "Presidio", "Country Code": "MX", "Population": 2075.0, "Lat": 19.06933, "Lon": -96.97209}, {"Name": "Presidio", "Country Code": "US", "Population": 3904.0, "Lat": 29.56074, "Lon": -104.37215}], "Presidio (Plan de Libres)": [{"Name": "Presidio (Plan de Libres)", "Country Code": "MX", "Population": 2443.0, "Lat": 18.68056, "Lon": -96.77194}], "Presles": [{"Name": "Presles", "Country Code": "BE", "Population": 2206.0, "Lat": 50.38417, "Lon": 4.57838}], "Presles-en-Brie": [{"Name": "Presles-en-Brie", "Country Code": "FR", "Population": 1899.0, "Lat": 48.71527, "Lon": 2.74112}], "Presnenskiy": [{"Name": "Presnenskiy", "Country Code": "RU", "Population": 122000.0, "Lat": 55.75, "Lon": 37.55}], "Presnovka": [{"Name": "Presnovka", "Country Code": "KZ", "Population": 0.0, "Lat": 54.6693, "Lon": 67.14912}], "Presov": [{"Name": "Pre\u0161ov", "Country Code": "SK", "Population": 83897.0, "Lat": 48.99839, "Lon": 21.23393}], "Presque Isle": [{"Name": "Presque Isle", "Country Code": "US", "Population": 9171.0, "Lat": 46.68115, "Lon": -68.01586}], "Presquille": [{"Name": "Presquille", "Country Code": "US", "Population": 1807.0, "Lat": 29.56383, "Lon": -90.6462}], "Pressana": [{"Name": "Pressana", "Country Code": "IT", "Population": 1017.0, "Lat": 45.28258, "Lon": 11.40724}], "Pressath": [{"Name": "Pressath", "Country Code": "DE", "Population": 4654.0, "Lat": 49.76859, "Lon": 11.93972}], "Pressbaum": [{"Name": "Pressbaum", "Country Code": "AT", "Population": 6237.0, "Lat": 48.18333, "Lon": 16.08333}], "Presseck": [{"Name": "Presseck", "Country Code": "DE", "Population": 2159.0, "Lat": 50.22804, "Lon": 11.55508}], "Pressig": [{"Name": "Pressig", "Country Code": "DE", "Population": 4277.0, "Lat": 50.35245, "Lon": 11.30969}], "Pressou": [{"Name": "Pressou", "Country Code": "CI", "Population": 3313.0, "Lat": 7.17228, "Lon": -3.13545}], "Prestatyn": [{"Name": "Prestatyn", "Country Code": "GB", "Population": 18701.0, "Lat": 53.33748, "Lon": -3.40776}], "Prestbury": [{"Name": "Prestbury", "Country Code": "GB", "Population": 3342.0, "Lat": 53.28333, "Lon": -2.15}, {"Name": "Prestbury", "Country Code": "US", "Population": 1722.0, "Lat": 41.78329, "Lon": -88.41764}], "Prestea": [{"Name": "Prestea", "Country Code": "GH", "Population": 35611.0, "Lat": 5.43385, "Lon": -2.14295}], "Presteigne": [{"Name": "Presteigne", "Country Code": "GB", "Population": 2056.0, "Lat": 52.27183, "Lon": -3.00579}], "Prestestranda": [{"Name": "Prestestranda", "Country Code": "NO", "Population": 1215.0, "Lat": 59.09773, "Lon": 9.05866}], "Prestfoss": [{"Name": "Prestfoss", "Country Code": "NO", "Population": 465.0, "Lat": 60.04343, "Lon": 9.6352}], "Prestice": [{"Name": "P\u0159e\u0161tice", "Country Code": "CZ", "Population": 6353.0, "Lat": 49.57298, "Lon": 13.3335}], "Preston": [{"Name": "Preston", "Country Code": "AU", "Population": 33790.0, "Lat": -37.75, "Lon": 145.01667}, {"Name": "Preston", "Country Code": "GB", "Population": 0.0, "Lat": 52.61264, "Lon": -0.71437}, {"Name": "Preston", "Country Code": "GB", "Population": 0.0, "Lat": 53.75663, "Lon": -0.19775}, {"Name": "Preston", "Country Code": "GB", "Population": 313332.0, "Lat": 53.76282, "Lon": -2.70452}, {"Name": "Preston", "Country Code": "US", "Population": 419.0, "Lat": 32.06599, "Lon": -84.53742}, {"Name": "Preston", "Country Code": "US", "Population": 1012.0, "Lat": 42.0503, "Lon": -90.41402}, {"Name": "Preston", "Country Code": "US", "Population": 2096.0, "Lat": 33.88232, "Lon": -96.63305}, {"Name": "Preston", "Country Code": "US", "Population": 5212.0, "Lat": 42.09631, "Lon": -111.87662}, {"Name": "Preston", "Country Code": "US", "Population": 1299.0, "Lat": 43.67024, "Lon": -92.08322}], "Preston City": [{"Name": "Preston City", "Country Code": "US", "Population": 5000.0, "Lat": 41.52899, "Lon": -71.97396}], "Preston Heights": [{"Name": "Preston Heights", "Country Code": "US", "Population": 2575.0, "Lat": 41.4917, "Lon": -88.08172}], "Prestonpans": [{"Name": "Prestonpans", "Country Code": "GB", "Population": 9490.0, "Lat": 55.95939, "Lon": -2.98038}], "Prestons": [{"Name": "Prestons", "Country Code": "AU", "Population": 15312.0, "Lat": -33.94185, "Lon": 150.8717}], "Prestonsburg": [{"Name": "Prestonsburg", "Country Code": "US", "Population": 3347.0, "Lat": 37.66565, "Lon": -82.77155}], "Prestwich": [{"Name": "Prestwich", "Country Code": "GB", "Population": 32125.0, "Lat": 53.53333, "Lon": -2.28333}], "Prestwick": [{"Name": "Prestwick", "Country Code": "GB", "Population": 14750.0, "Lat": 55.48333, "Lon": -4.61667}], "Pretoria": [{"Name": "Pretoria", "Country Code": "ZA", "Population": 1619438.0, "Lat": -25.74486, "Lon": 28.18783}], "Pretoro": [{"Name": "Pretoro", "Country Code": "IT", "Population": 546.0, "Lat": 42.21923, "Lon": 14.14248}], "Prettin": [{"Name": "Prettin", "Country Code": "DE", "Population": 2128.0, "Lat": 51.66077, "Lon": 12.92353}], "Pretty Bayou": [{"Name": "Pretty Bayou", "Country Code": "US", "Population": 3206.0, "Lat": 30.19659, "Lon": -85.6966}], "Preturo": [{"Name": "Preturo", "Country Code": "IT", "Population": 2076.0, "Lat": 42.37808, "Lon": 13.29633}], "Pretzfeld": [{"Name": "Pretzfeld", "Country Code": "DE", "Population": 2499.0, "Lat": 49.75454, "Lon": 11.1743}], "Pretzier": [{"Name": "Pretzier", "Country Code": "DE", "Population": 1310.0, "Lat": 52.83224, "Lon": 11.26105}], "Pretzsch": [{"Name": "Pretzsch", "Country Code": "DE", "Population": 1688.0, "Lat": 51.71466, "Lon": 12.80663}], "Pretzschendorf": [{"Name": "Pretzschendorf", "Country Code": "DE", "Population": 4440.0, "Lat": 50.87385, "Lon": 13.52499}], "Preuilly-sur-Claise": [{"Name": "Preuilly-sur-Claise", "Country Code": "FR", "Population": 1122.0, "Lat": 46.85424, "Lon": 0.92954}], "Preussisch Oldendorf": [{"Name": "Preu\u00dfisch Oldendorf", "Country Code": "DE", "Population": 13447.0, "Lat": 52.30589, "Lon": 8.49341}], "Preutesti": [{"Name": "Preute\u015fti", "Country Code": "RO", "Population": 9048.0, "Lat": 47.45, "Lon": 26.41667}], "Prevalje": [{"Name": "Prevalje", "Country Code": "SI", "Population": 4643.0, "Lat": 46.54694, "Lon": 14.92083}], "Prevalle": [{"Name": "Prevalle", "Country Code": "IT", "Population": 6476.0, "Lat": 45.55138, "Lon": 10.42207}], "Preverenges": [{"Name": "Pr\u00e9verenges", "Country Code": "CH", "Population": 4695.0, "Lat": 46.51854, "Lon": 6.52682}], "Preveza": [{"Name": "Pr\u00e9veza", "Country Code": "GR", "Population": 17283.0, "Lat": 38.95617, "Lon": 20.7505}], "Prevost": [{"Name": "Pr\u00e9vost", "Country Code": "CA", "Population": 10132.0, "Lat": 45.86678, "Lon": -74.08251}], "Prey Chhor": [{"Name": "Prey Chhor", "Country Code": "KH", "Population": 0.0, "Lat": 12.05804, "Lon": 105.25723}], "Prey Nob": [{"Name": "Prey Nob", "Country Code": "KH", "Population": 0.0, "Lat": 10.70939, "Lon": 103.82091}], "Prey Veaeng": [{"Name": "Prey Veaeng", "Country Code": "KH", "Population": 0.0, "Lat": 11.57101, "Lon": 105.42058}], "Prey Veng": [{"Name": "Prey Veng", "Country Code": "KH", "Population": 33079.0, "Lat": 11.48682, "Lon": 105.32533}], "Preze": [{"Name": "Prez\u00eb", "Country Code": "AL", "Population": 0.0, "Lat": 41.42722, "Lon": 19.67278}], "Prezza": [{"Name": "Prezza", "Country Code": "IT", "Population": 683.0, "Lat": 42.05789, "Lon": 13.83592}], "Prezzo": [{"Name": "Prezzo", "Country Code": "IT", "Population": 208.0, "Lat": 45.9347, "Lon": 10.63297}], "Prgomet": [{"Name": "Prgomet", "Country Code": "HR", "Population": 87.0, "Lat": 43.60631, "Lon": 16.22912}], "Priamurskiy": [{"Name": "Priamurskiy", "Country Code": "RU", "Population": 3560.0, "Lat": 48.52716, "Lon": 134.90359}], "Priaranza del Bierzo": [{"Name": "Priaranza del Bierzo", "Country Code": "ES", "Population": 844.0, "Lat": 42.50978, "Lon": -6.67017}], "Priargunsk": [{"Name": "Priargunsk", "Country Code": "RU", "Population": 7902.0, "Lat": 50.3691, "Lon": 119.1012}], "Priay": [{"Name": "Priay", "Country Code": "FR", "Population": 1263.0, "Lat": 46.00183, "Lon": 5.28684}], "Pribesti": [{"Name": "Pribe\u0219ti", "Country Code": "RO", "Population": 1306.0, "Lat": 46.91001, "Lon": 27.79659}], "Pribinic": [{"Name": "Pribini\u0107", "Country Code": "BA", "Population": 3558.0, "Lat": 44.6101, "Lon": 17.68981}], "Pribislavec": [{"Name": "Pribislavec", "Country Code": "HR", "Population": 2963.0, "Lat": 46.3925, "Lon": 16.4825}], "Priboieni": [{"Name": "Priboieni", "Country Code": "RO", "Population": 3583.0, "Lat": 44.88333, "Lon": 25.08333}], "Priboiu": [{"Name": "Priboiu", "Country Code": "RO", "Population": 1083.0, "Lat": 45.03006, "Lon": 25.2579}], "Priboj": [{"Name": "Priboj", "Country Code": "BA", "Population": 4351.0, "Lat": 44.60233, "Lon": 18.93165}, {"Name": "Priboj", "Country Code": "RS", "Population": 3.0, "Lat": 43.58306, "Lon": 19.52519}], "Pribor": [{"Name": "P\u0159\u00edbor", "Country Code": "CZ", "Population": 8789.0, "Lat": 49.64094, "Lon": 18.14499}], "Pribram": [{"Name": "P\u0159\u00edbram", "Country Code": "CZ", "Population": 35251.0, "Lat": 49.68988, "Lon": 14.01043}], "Pribrezhnyy": [{"Name": "Pribrezhnyy", "Country Code": "RU", "Population": 11500.0, "Lat": 53.48662, "Lon": 49.85836}], "Pribylina": [{"Name": "Pribylina", "Country Code": "SK", "Population": 1360.0, "Lat": 49.0995, "Lon": 19.79427}], "Pribyslav": [{"Name": "P\u0159ibyslav", "Country Code": "CZ", "Population": 3965.0, "Lat": 49.57684, "Lon": 15.73855}], "Pricaz": [{"Name": "Pricaz", "Country Code": "RO", "Population": 1141.0, "Lat": 45.85929, "Lon": 23.17266}], "Price": [{"Name": "Price", "Country Code": "US", "Population": 8378.0, "Lat": 39.59941, "Lon": -110.81071}], "Price Town": [{"Name": "Price Town", "Country Code": "GB", "Population": 2348.0, "Lat": 51.61832, "Lon": -3.53662}], "Prices Fork": [{"Name": "Prices Fork", "Country Code": "US", "Population": 1066.0, "Lat": 37.20985, "Lon": -80.49005}], "Priceville": [{"Name": "Priceville", "Country Code": "US", "Population": 3179.0, "Lat": 34.52509, "Lon": -86.89473}], "Prichard": [{"Name": "Prichard", "Country Code": "US", "Population": 22351.0, "Lat": 30.7388, "Lon": -88.07889}], "Prichsenstadt": [{"Name": "Prichsenstadt", "Country Code": "DE", "Population": 3216.0, "Lat": 49.81933, "Lon": 10.34773}], "Pridonskoy": [{"Name": "Pridonskoy", "Country Code": "RU", "Population": 16896.0, "Lat": 51.6826, "Lon": 39.0676}], "Pridraga": [{"Name": "Pridraga", "Country Code": "HR", "Population": 1346.0, "Lat": 44.15135, "Lon": 15.58437}], "Priego": [{"Name": "Priego", "Country Code": "ES", "Population": 1055.0, "Lat": 40.44936, "Lon": -2.31435}], "Priego de Cordoba": [{"Name": "Priego de C\u00f3rdoba", "Country Code": "ES", "Population": 23513.0, "Lat": 37.43807, "Lon": -4.19523}], "Priekule": [{"Name": "Priekul\u0117", "Country Code": "LT", "Population": 1710.0, "Lat": 55.55427, "Lon": 21.31903}, {"Name": "Priekule", "Country Code": "LV", "Population": 2550.0, "Lat": 56.44679, "Lon": 21.58968}], "Priekuli": [{"Name": "Prieku\u013ci", "Country Code": "LV", "Population": 2532.0, "Lat": 57.315, "Lon": 25.36147}], "Priel": [{"Name": "Priel", "Country Code": "AT", "Population": 3034.0, "Lat": 46.82758, "Lon": 14.8333}], "Prien": [{"Name": "Prien", "Country Code": "US", "Population": 7810.0, "Lat": 30.18187, "Lon": -93.27377}], "Prien am Chiemsee": [{"Name": "Prien am Chiemsee", "Country Code": "DE", "Population": 10872.0, "Lat": 47.85602, "Lon": 12.34623}], "Prienai": [{"Name": "Prienai", "Country Code": "LT", "Population": 8610.0, "Lat": 54.636, "Lon": 23.94585}], "Priero": [{"Name": "Priero", "Country Code": "IT", "Population": 366.0, "Lat": 44.37604, "Lon": 8.09334}], "Priesendorf": [{"Name": "Priesendorf", "Country Code": "DE", "Population": 1544.0, "Lat": 49.9075, "Lon": 10.71183}], "Prieska": [{"Name": "Prieska", "Country Code": "ZA", "Population": 11236.0, "Lat": -29.66803, "Lon": 22.74251}], "Priest River": [{"Name": "Priest River", "Country Code": "US", "Population": 1758.0, "Lat": 48.18097, "Lon": -116.91157}], "Priestewitz": [{"Name": "Priestewitz", "Country Code": "DE", "Population": 3598.0, "Lat": 51.25, "Lon": 13.51667}], "Prieta": [{"Name": "Prieta", "Country Code": "HN", "Population": 1103.0, "Lat": 15.5806, "Lon": -86.13664}], "Prieto Diaz": [{"Name": "Prieto Diaz", "Country Code": "PH", "Population": 0.0, "Lat": 13.04167, "Lon": 124.19389}], "Prievidza": [{"Name": "Prievidza", "Country Code": "SK", "Population": 52987.0, "Lat": 48.77446, "Lon": 18.6275}], "Prigen": [{"Name": "Prigen", "Country Code": "ID", "Population": 24164.0, "Lat": -7.68333, "Lon": 112.61667}], "Prigglitz": [{"Name": "Prigglitz", "Country Code": "AT", "Population": 264.0, "Lat": 47.70318, "Lon": 15.92794}], "Prigi": [{"Name": "Prigi", "Country Code": "ID", "Population": 0.0, "Lat": -8.2721, "Lon": 111.7151}], "Prignano": [{"Name": "Prignano", "Country Code": "IT", "Population": 604.0, "Lat": 44.4379, "Lon": 10.69118}], "Prignano Cilento": [{"Name": "Prignano Cilento", "Country Code": "IT", "Population": 914.0, "Lat": 40.33335, "Lon": 15.06739}], "Prignano sulla Secchia": [{"Name": "Prignano sulla Secchia", "Country Code": "IT", "Population": 3551.0, "Lat": 44.43836, "Lon": 10.6919}], "Prigonrieux": [{"Name": "Prigonrieux", "Country Code": "FR", "Population": 4218.0, "Lat": 44.85471, "Lon": 0.40265}], "Prigor": [{"Name": "Prigor", "Country Code": "RO", "Population": 2880.0, "Lat": 44.93833, "Lon": 22.11333}], "Prigoria": [{"Name": "Prigoria", "Country Code": "RO", "Population": 3481.0, "Lat": 45.06667, "Lon": 23.68333}], "Prigorje Brdovecko": [{"Name": "Prigorje Brdove\u010dko", "Country Code": "HR", "Population": 1340.0, "Lat": 45.87944, "Lon": 15.73806}], "Prigorodka": [{"Name": "Prigorodka", "Country Code": "RU", "Population": 3140.0, "Lat": 52.04472, "Lon": 39.71238}], "Prigorodnoye": [{"Name": "Prigorodnoye", "Country Code": "KZ", "Population": 3563.0, "Lat": 49.69244, "Lon": 75.58438}, {"Name": "Prigorodnoye", "Country Code": "RU", "Population": 4863.0, "Lat": 43.25639, "Lon": 45.75929}], "Prigorodnyy": [{"Name": "Prigorodnyy", "Country Code": "RU", "Population": 3222.0, "Lat": 51.76608, "Lon": 55.26648}], "Prigrevica": [{"Name": "Prigrevica", "Country Code": "RS", "Population": 5026.0, "Lat": 45.67636, "Lon": 19.08809}], "Priiskovyy": [{"Name": "Priiskovyy", "Country Code": "RU", "Population": 1578.0, "Lat": 51.93333, "Lon": 116.63333}], "Prijedor": [{"Name": "Prijedor", "Country Code": "BA", "Population": 36347.0, "Lat": 44.97991, "Lon": 16.71401}], "Prijepolje": [{"Name": "Prijepolje", "Country Code": "RS", "Population": 3.0, "Lat": 43.38996, "Lon": 19.6487}], "Prikazy": [{"Name": "P\u0159\u00edkazy", "Country Code": "CZ", "Population": 1224.0, "Lat": 49.6436, "Lon": 17.14337}], "Prikro": [{"Name": "Prikro", "Country Code": "CI", "Population": 9839.0, "Lat": 7.64705, "Lon": -3.99626}], "Prikro-Ouelle": [{"Name": "Prikro-Ouell\u00e9", "Country Code": "CI", "Population": 2509.0, "Lat": 7.30293, "Lon": -4.09676}], "Prikubanskiy": [{"Name": "Prikubanskiy", "Country Code": "RU", "Population": 3168.0, "Lat": 45.0015, "Lon": 41.1795}], "Priladozhskiy": [{"Name": "Priladozhskiy", "Country Code": "RU", "Population": 5159.0, "Lat": 59.87202, "Lon": 31.31751}], "Prilep": [{"Name": "Prilep", "Country Code": "MK", "Population": 73814.0, "Lat": 41.34514, "Lon": 21.55504}, {"Name": "Prilep", "Country Code": "XK", "Population": 2500.0, "Lat": 42.5075, "Lon": 20.31778}], "Prilly": [{"Name": "Prilly", "Country Code": "CH", "Population": 10524.0, "Lat": 46.53698, "Lon": 6.60456}], "Primalkinskoye": [{"Name": "Primalkinskoye", "Country Code": "RU", "Population": 4873.0, "Lat": 43.74667, "Lon": 44.00833}], "Primaluna": [{"Name": "Primaluna", "Country Code": "IT", "Population": 2124.0, "Lat": 45.98379, "Lon": 9.43764}], "Primbee": [{"Name": "Primbee", "Country Code": "AU", "Population": 1639.0, "Lat": -34.50358, "Lon": 150.8795}], "Primda": [{"Name": "P\u0159imda", "Country Code": "CZ", "Population": 1364.0, "Lat": 49.67488, "Lon": 12.67366}], "Primer Canton": [{"Name": "Primer Cant\u00f3n", "Country Code": "MX", "Population": 1477.0, "Lat": 15.12056, "Lon": -92.44}], "Primer Ensanche": [{"Name": "Primer Ensanche", "Country Code": "ES", "Population": 22538.0, "Lat": 42.81483, "Lon": -1.64898}], "Primera": [{"Name": "Primera", "Country Code": "US", "Population": 4626.0, "Lat": 26.22591, "Lon": -97.75805}], "Primera Fraccion de Crespo": [{"Name": "Primera Fracci\u00f3n de Crespo", "Country Code": "MX", "Population": 3062.0, "Lat": 20.49638, "Lon": -100.8515}], "Primera de Analco": [{"Name": "Primera de Analco", "Country Code": "MX", "Population": 1551.0, "Lat": 18.9025, "Lon": -99.77556}], "Primero de Enero": [{"Name": "Primero de Enero", "Country Code": "CU", "Population": 17934.0, "Lat": 21.94501, "Lon": -78.4313}], "Primero de Mayo": [{"Name": "Primero de Mayo", "Country Code": "MX", "Population": 5011.0, "Lat": 22.22524, "Lon": -97.8194}, {"Name": "Primero de Mayo", "Country Code": "MX", "Population": 2445.0, "Lat": 22.96058, "Lon": -98.94992}, {"Name": "Primero de Mayo", "Country Code": "MX", "Population": 1599.0, "Lat": 19.08167, "Lon": -98.09778}, {"Name": "Primero de Mayo", "Country Code": "MX", "Population": 2225.0, "Lat": 27.38825, "Lon": -110.12163}, {"Name": "Primero de Mayo", "Country Code": "MX", "Population": 3710.0, "Lat": 25.73942, "Lon": -108.93491}, {"Name": "Primero de Mayo", "Country Code": "MX", "Population": 1613.0, "Lat": 27.23675, "Lon": -101.2236}], "Primero de Mayo (Chupaderos)": [{"Name": "Primero de Mayo (Chupaderos)", "Country Code": "MX", "Population": 1210.0, "Lat": 21.46611, "Lon": -101.82722}], "Primghar": [{"Name": "Primghar", "Country Code": "US", "Population": 879.0, "Lat": 43.08692, "Lon": -95.62723}], "Primo Tapia": [{"Name": "Primo Tapia", "Country Code": "MX", "Population": 4921.0, "Lat": 32.22226, "Lon": -116.9139}], "Primorka": [{"Name": "Primorka", "Country Code": "RU", "Population": 3780.0, "Lat": 47.28395, "Lon": 39.06408}], "Primorsk": [{"Name": "Primorsk", "Country Code": "RU", "Population": 3235.0, "Lat": 49.26532, "Lon": 45.02889}, {"Name": "Primorsk", "Country Code": "RU", "Population": 5107.0, "Lat": 60.36622, "Lon": 28.60615}, {"Name": "Primorsk", "Country Code": "RU", "Population": 2222.0, "Lat": 54.73905, "Lon": 20.00553}], "Primorski Dolac": [{"Name": "Primorski Dolac", "Country Code": "HR", "Population": 686.0, "Lat": 43.64113, "Lon": 16.16467}], "Primorskiy": [{"Name": "Primorskiy", "Country Code": "RU", "Population": 1708.0, "Lat": 43.09962, "Lon": 131.58938}, {"Name": "Primorskiy", "Country Code": "UA", "Population": 12560.0, "Lat": 45.11201, "Lon": 35.4786}], "Primorsko": [{"Name": "Primorsko", "Country Code": "BG", "Population": 2798.0, "Lat": 42.26791, "Lon": 27.75611}], "Primorsko-Akhtarsk": [{"Name": "Primorsko-Akhtarsk", "Country Code": "RU", "Population": 33102.0, "Lat": 46.04817, "Lon": 38.17929}], "Primosten": [{"Name": "Primo\u0161ten", "Country Code": "HR", "Population": 1555.0, "Lat": 43.58632, "Lon": 15.92302}], "Prince Albert": [{"Name": "Prince Albert", "Country Code": "CA", "Population": 35102.0, "Lat": 53.20008, "Lon": -105.76772}, {"Name": "Prince Albert", "Country Code": "ZA", "Population": 13136.0, "Lat": -33.22476, "Lon": 22.02673}], "Prince Edward": [{"Name": "Prince Edward", "Country Code": "CA", "Population": 25496.0, "Lat": 44.00012, "Lon": -77.24946}, {"Name": "Prince Edward", "Country Code": "HK", "Population": 15481.0, "Lat": 22.3236, "Lon": 114.17938}], "Prince Frederick": [{"Name": "Prince Frederick", "Country Code": "US", "Population": 2538.0, "Lat": 38.5404, "Lon": -76.5844}], "Prince George": [{"Name": "Prince George", "Country Code": "CA", "Population": 74003.0, "Lat": 53.9166, "Lon": -122.75301}, {"Name": "Prince George", "Country Code": "US", "Population": 2066.0, "Lat": 37.22043, "Lon": -77.28803}], "Prince Rupert": [{"Name": "Prince Rupert", "Country Code": "CA", "Population": 14708.0, "Lat": 54.31507, "Lon": -130.32098}], "Princenhage": [{"Name": "Princenhage", "Country Code": "NL", "Population": 8535.0, "Lat": 51.57632, "Lon": 4.73906}], "Princes Hill": [{"Name": "Princes Hill", "Country Code": "AU", "Population": 2069.0, "Lat": -37.78185, "Lon": 144.96656}], "Princes Lakes": [{"Name": "Princes Lakes", "Country Code": "US", "Population": 1330.0, "Lat": 39.35366, "Lon": -86.09805}], "Princes Risborough": [{"Name": "Princes Risborough", "Country Code": "GB", "Population": 8231.0, "Lat": 51.72549, "Lon": -0.83144}], "Princes Town": [{"Name": "Princes Town", "Country Code": "TT", "Population": 10000.0, "Lat": 10.27184, "Lon": -61.37103}], "Princesa Isabel": [{"Name": "Princesa Isabel", "Country Code": "BR", "Population": 12616.0, "Lat": -7.73667, "Lon": -37.99333}], "Princess Anne": [{"Name": "Princess Anne", "Country Code": "US", "Population": 3303.0, "Lat": 38.2029, "Lon": -75.69243}], "Princess-Rosethorn": [{"Name": "Princess-Rosethorn", "Country Code": "CA", "Population": 11051.0, "Lat": 43.66605, "Lon": -79.54456}], "Princeton": [{"Name": "Princeton", "Country Code": "CA", "Population": 2828.0, "Lat": 49.45802, "Lon": -120.51076}, {"Name": "Princeton", "Country Code": "US", "Population": 1185.0, "Lat": 43.85081, "Lon": -89.12178}, {"Name": "Princeton", "Country Code": "US", "Population": 1284.0, "Lat": 35.46599, "Lon": -78.16055}, {"Name": "Princeton", "Country Code": "US", "Population": 7594.0, "Lat": 41.36809, "Lon": -89.46481}, {"Name": "Princeton", "Country Code": "US", "Population": 8626.0, "Lat": 38.35532, "Lon": -87.56752}, {"Name": "Princeton", "Country Code": "US", "Population": 39308.0, "Lat": 25.53844, "Lon": -80.40894}, {"Name": "Princeton", "Country Code": "US", "Population": 3412.0, "Lat": 42.4487, "Lon": -71.8773}, {"Name": "Princeton", "Country Code": "US", "Population": 6035.0, "Lat": 37.36623, "Lon": -81.10259}, {"Name": "Princeton", "Country Code": "US", "Population": 4680.0, "Lat": 45.56997, "Lon": -93.58163}, {"Name": "Princeton", "Country Code": "US", "Population": 1133.0, "Lat": 40.40084, "Lon": -93.5805}, {"Name": "Princeton", "Country Code": "US", "Population": 8939.0, "Lat": 33.18012, "Lon": -96.49804}, {"Name": "Princeton", "Country Code": "US", "Population": 6174.0, "Lat": 37.10922, "Lon": -87.88196}, {"Name": "Princeton", "Country Code": "US", "Population": 29603.0, "Lat": 40.34872, "Lon": -74.65905}], "Princeton Junction": [{"Name": "Princeton Junction", "Country Code": "US", "Population": 2465.0, "Lat": 40.31733, "Lon": -74.61988}], "Princeton Meadows": [{"Name": "Princeton Meadows", "Country Code": "US", "Population": 13834.0, "Lat": 40.33177, "Lon": -74.56377}], "Princetown": [{"Name": "Princetown", "Country Code": "GB", "Population": 1366.0, "Lat": 50.54393, "Lon": -3.98855}], "Princeville": [{"Name": "Princeville", "Country Code": "CA", "Population": 5571.0, "Lat": 45.76684, "Lon": -61.29853}, {"Name": "Princeville", "Country Code": "CA", "Population": 5693.0, "Lat": 46.17163, "Lon": -71.87462}, {"Name": "Princeville", "Country Code": "US", "Population": 1991.0, "Lat": 35.8896, "Lon": -77.53219}, {"Name": "Princeville", "Country Code": "US", "Population": 2158.0, "Lat": 22.21758, "Lon": -159.47888}, {"Name": "Princeville", "Country Code": "US", "Population": 1726.0, "Lat": 40.92976, "Lon": -89.7576}], "Prineville": [{"Name": "Prineville", "Country Code": "US", "Population": 9530.0, "Lat": 44.29985, "Lon": -120.83447}], "Pringgabaya": [{"Name": "Pringgabaya", "Country Code": "ID", "Population": 0.0, "Lat": -8.557, "Lon": 116.6319}], "Pringi": [{"Name": "Pringi", "Country Code": "EE", "Population": 603.0, "Lat": 59.53459, "Lon": 24.79726}], "Pringsewu": [{"Name": "Pringsewu", "Country Code": "ID", "Population": 0.0, "Lat": -5.35822, "Lon": 104.97441}], "Pringy": [{"Name": "Pringy", "Country Code": "FR", "Population": 2944.0, "Lat": 45.94622, "Lon": 6.12608}, {"Name": "Pringy", "Country Code": "FR", "Population": 2569.0, "Lat": 48.51815, "Lon": 2.56333}], "Prinos": [{"Name": "Pr\u00ednos", "Country Code": "GR", "Population": 1211.0, "Lat": 40.7409, "Lon": 24.57787}], "Prinquiau": [{"Name": "Prinquiau", "Country Code": "FR", "Population": 2243.0, "Lat": 47.3628, "Lon": -2.01217}], "Prinsenbeek": [{"Name": "Prinsenbeek", "Country Code": "NL", "Population": 10720.0, "Lat": 51.59833, "Lon": 4.7125}], "Prinza": [{"Name": "Prinza", "Country Code": "PH", "Population": 3731.0, "Lat": 13.99679, "Lon": 120.65409}, {"Name": "Prinza", "Country Code": "PH", "Population": 2907.0, "Lat": 14.19607, "Lon": 121.13696}], "Prinzapolka": [{"Name": "Prinzapolka", "Country Code": "NI", "Population": 394.0, "Lat": 13.40708, "Lon": -83.56452}], "Prinzenpark": [{"Name": "Prinzenpark", "Country Code": "DE", "Population": 13956.0, "Lat": 52.26525, "Lon": 10.55013}], "Prinzersdorf": [{"Name": "Prinzersdorf", "Country Code": "AT", "Population": 1554.0, "Lat": 48.2, "Lon": 15.51667}], "Priob'ye": [{"Name": "Priob\u2019ye", "Country Code": "RU", "Population": 7400.0, "Lat": 62.52056, "Lon": 65.59639}], "Priocca": [{"Name": "Priocca", "Country Code": "IT", "Population": 1668.0, "Lat": 44.78624, "Lon": 8.06424}], "Priola": [{"Name": "Priola", "Country Code": "IT", "Population": 245.0, "Lat": 44.24478, "Lon": 8.02149}], "Priolo Gargallo": [{"Name": "Priolo Gargallo", "Country Code": "IT", "Population": 11724.0, "Lat": 37.15512, "Lon": 15.18248}], "Prior Lake": [{"Name": "Prior Lake", "Country Code": "US", "Population": 25282.0, "Lat": 44.7133, "Lon": -93.42273}], "Prior Velho": [{"Name": "Prior Velho", "Country Code": "PT", "Population": 6500.0, "Lat": 38.79174, "Lon": -9.12119}], "Prioro": [{"Name": "Prioro", "Country Code": "ES", "Population": 433.0, "Lat": 42.89481, "Lon": -4.96349}], "Priozersk": [{"Name": "Priozersk", "Country Code": "KZ", "Population": 13457.0, "Lat": 46.03106, "Lon": 73.70247}, {"Name": "Prioz\u00ebrsk", "Country Code": "RU", "Population": 18300.0, "Lat": 61.04027, "Lon": 30.13915}], "Priozyornoye": [{"Name": "Priozyornoye", "Country Code": "UA", "Population": 3005.0, "Lat": 45.2699, "Lon": 36.33405}], "Priponesti": [{"Name": "Pripone\u015fti", "Country Code": "RO", "Population": 2574.0, "Lat": 46.08333, "Lon": 27.43333}], "Prisacani": [{"Name": "Pris\u0103cani", "Country Code": "RO", "Population": 3578.0, "Lat": 47.08333, "Lon": 27.88333}], "Prisdorf": [{"Name": "Prisdorf", "Country Code": "DE", "Population": 2283.0, "Lat": 53.68333, "Lon": 9.75}], "Priseaca": [{"Name": "Priseaca", "Country Code": "RO", "Population": 1920.0, "Lat": 44.51667, "Lon": 24.45}], "Prislonica": [{"Name": "Prislonica", "Country Code": "RS", "Population": 1735.0, "Lat": 43.95223, "Lon": 20.43521}], "Prisovice": [{"Name": "P\u0159\u00ed\u0161ovice", "Country Code": "CZ", "Population": 1277.0, "Lat": 50.57813, "Lon": 15.0839}], "Prisse": [{"Name": "Priss\u00e9", "Country Code": "FR", "Population": 1726.0, "Lat": 46.3213, "Lon": 4.74469}], "Pristen'": [{"Name": "Pristen\u2019", "Country Code": "RU", "Population": 5463.0, "Lat": 51.23738, "Lon": 36.69796}], "Pristina": [{"Name": "Pristina", "Country Code": "XK", "Population": 550000.0, "Lat": 42.67272, "Lon": 21.16688}], "Pristol": [{"Name": "Pristol", "Country Code": "RO", "Population": 1774.0, "Lat": 44.22472, "Lon": 22.70917}], "Priston": [{"Name": "Priston", "Country Code": "GB", "Population": 232.0, "Lat": 51.34306, "Lon": -2.43917}], "Priti-Ahingro": [{"Name": "Priti-Ahingro", "Country Code": "CI", "Population": 1622.0, "Lat": 7.54543, "Lon": -3.07489}], "Pritomskiy": [{"Name": "Pritomskiy", "Country Code": "RU", "Population": 4261.0, "Lat": 53.7724, "Lon": 87.6082}], "Prittitz": [{"Name": "Prittitz", "Country Code": "DE", "Population": 1040.0, "Lat": 51.14996, "Lon": 11.9302}], "Prittriching": [{"Name": "Prittriching", "Country Code": "DE", "Population": 2345.0, "Lat": 48.20074, "Lon": 10.92801}], "Pritzwalk": [{"Name": "Pritzwalk", "Country Code": "DE", "Population": 13485.0, "Lat": 53.14945, "Lon": 12.17405}], "Priula-Colfosco": [{"Name": "Priula-Colfosco", "Country Code": "IT", "Population": 6743.0, "Lat": 45.81998, "Lon": 12.25847}], "Priupskiy": [{"Name": "Priupskiy", "Country Code": "RU", "Population": 3324.0, "Lat": 53.9096, "Lon": 37.736}], "Privada del Alamo": [{"Name": "Privada del \u00c1lamo", "Country Code": "MX", "Population": 1259.0, "Lat": 20.09833, "Lon": -98.70028}], "Privas": [{"Name": "Privas", "Country Code": "FR", "Population": 9545.0, "Lat": 44.735, "Lon": 4.59918}], "Privateer": [{"Name": "Privateer", "Country Code": "US", "Population": 2349.0, "Lat": 33.83321, "Lon": -80.41425}], "Priverno": [{"Name": "Priverno", "Country Code": "IT", "Population": 10005.0, "Lat": 41.47047, "Lon": 13.17867}], "Privetnoye": [{"Name": "Privetnoye", "Country Code": "UA", "Population": 1867.0, "Lat": 44.82145, "Lon": 34.67935}, {"Name": "Privetnoye", "Country Code": "UA", "Population": 2592.0, "Lat": 45.11969, "Lon": 35.0596}], "Privlaka": [{"Name": "Privlaka", "Country Code": "HR", "Population": 2128.0, "Lat": 44.26227, "Lon": 15.11718}, {"Name": "Privlaka", "Country Code": "HR", "Population": 2192.0, "Lat": 45.19472, "Lon": 18.8375}], "Privodino": [{"Name": "Privodino", "Country Code": "RU", "Population": 3140.0, "Lat": 61.07599, "Lon": 46.50238}], "Privolzhsk": [{"Name": "Privolzhsk", "Country Code": "RU", "Population": 17864.0, "Lat": 57.38395, "Lon": 41.29165}], "Privolzhskiy": [{"Name": "Privolzhskiy", "Country Code": "RU", "Population": 4110.0, "Lat": 55.96135, "Lon": 48.41512}, {"Name": "Privolzhskiy", "Country Code": "RU", "Population": 31849.0, "Lat": 51.40944, "Lon": 46.04833}], "Privolzhskoye": [{"Name": "Privolzhskoye", "Country Code": "RU", "Population": 1326.0, "Lat": 51.69194, "Lon": 46.72361}], "Prix-les-Mezieres": [{"Name": "Prix-l\u00e8s-M\u00e9zi\u00e8res", "Country Code": "FR", "Population": 1438.0, "Lat": 49.75549, "Lon": 4.69113}], "Priyutnoye": [{"Name": "Priyutnoye", "Country Code": "RU", "Population": 5632.0, "Lat": 46.10111, "Lon": 43.50722}], "Priyutovo": [{"Name": "Priyutovo", "Country Code": "RU", "Population": 20847.0, "Lat": 53.9, "Lon": 53.93333}], "Priziac ( Priziac )": [{"Name": "Priziac ( Priziac )", "Country Code": "FR", "Population": 1310.0, "Lat": 48.06045, "Lon": -3.41037}], "Prizren": [{"Name": "Prizren", "Country Code": "XK", "Population": 171464.0, "Lat": 42.21389, "Lon": 20.73972}], "Prizzi": [{"Name": "Prizzi", "Country Code": "IT", "Population": 4514.0, "Lat": 37.72088, "Lon": 13.43435}], "Prnjavor": [{"Name": "Prnjavor", "Country Code": "BA", "Population": 7099.0, "Lat": 44.87021, "Lon": 17.66256}, {"Name": "Prnjavor", "Country Code": "RS", "Population": 4892.0, "Lat": 44.70061, "Lon": 19.38695}], "Proastio": [{"Name": "Pro\u00e1stio", "Country Code": "GR", "Population": 1766.0, "Lat": 39.48682, "Lon": 21.90288}], "Proaza": [{"Name": "Proaza", "Country Code": "ES", "Population": 789.0, "Lat": 43.25178, "Lon": -6.01633}], "Probishtip": [{"Name": "Probishtip", "Country Code": "MK", "Population": 12702.0, "Lat": 42.00306, "Lon": 22.17861}], "Probolinggo": [{"Name": "Probolinggo", "Country Code": "ID", "Population": 241202.0, "Lat": -7.7543, "Lon": 113.2159}], "Probostov": [{"Name": "Probo\u0161tov", "Country Code": "CZ", "Population": 2333.0, "Lat": 50.66773, "Lon": 13.83601}], "Probota": [{"Name": "Probota", "Country Code": "RO", "Population": 3685.0, "Lat": 47.38333, "Lon": 27.5}, {"Name": "Probota", "Country Code": "RO", "Population": 1813.0, "Lat": 47.37584, "Lon": 26.62415}], "Probsteierhagen": [{"Name": "Probsteierhagen", "Country Code": "DE", "Population": 1899.0, "Lat": 54.36153, "Lon": 10.28772}], "Probstzella": [{"Name": "Probstzella", "Country Code": "DE", "Population": 3122.0, "Lat": 50.53333, "Lon": 11.38333}], "Probus": [{"Name": "Probus", "Country Code": "GB", "Population": 1906.0, "Lat": 50.29267, "Lon": -4.95401}], "Proceno": [{"Name": "Proceno", "Country Code": "IT", "Population": 410.0, "Lat": 42.75745, "Lon": 11.829}], "Prochnookopskaya": [{"Name": "Prochnookopskaya", "Country Code": "RU", "Population": 4916.0, "Lat": 45.0666, "Lon": 41.1175}], "Prochoma": [{"Name": "Pr\u00f3choma", "Country Code": "GR", "Population": 1214.0, "Lat": 40.79826, "Lon": 22.66659}], "Prochowice": [{"Name": "Prochowice", "Country Code": "PL", "Population": 3743.0, "Lat": 51.27307, "Lon": 16.36532}], "Procida": [{"Name": "Procida", "Country Code": "IT", "Population": 10228.0, "Lat": 40.75636, "Lon": 14.01457}], "Proctor": [{"Name": "Proctor", "Country Code": "US", "Population": 3068.0, "Lat": 46.74716, "Lon": -92.22547}], "Proddatur": [{"Name": "Proddat\u016br", "Country Code": "IN", "Population": 177797.0, "Lat": 14.7502, "Lon": 78.54813}], "Produlesti": [{"Name": "Produle\u015fti", "Country Code": "RO", "Population": 3546.0, "Lat": 44.7, "Lon": 25.5}], "Proenca-a-Nova": [{"Name": "Proen\u00e7a-a-Nova", "Country Code": "PT", "Population": 4590.0, "Lat": 39.7522, "Lon": -7.9239}], "Profesor Carlos Hank Gonzalez": [{"Name": "Profesor Carlos Hank Gonz\u00e1lez", "Country Code": "MX", "Population": 10416.0, "Lat": 19.37222, "Lon": -98.93889}], "Profitis Ilias": [{"Name": "Prof\u00edtis Il\u00edas", "Country Code": "GR", "Population": 1225.0, "Lat": 40.81373, "Lon": 22.16166}, {"Name": "Prof\u00edtis Il\u00edas", "Country Code": "GR", "Population": 1482.0, "Lat": 35.20555, "Lon": 25.09985}], "Profondeville": [{"Name": "Profondeville", "Country Code": "BE", "Population": 11401.0, "Lat": 50.37581, "Lon": 4.86506}], "Profresor Roberto Barrios": [{"Name": "Profresor Roberto Barrios", "Country Code": "MX", "Population": 1173.0, "Lat": 17.32583, "Lon": -91.92639}], "Proger": [{"Name": "Prog\u00ebr", "Country Code": "AL", "Population": 0.0, "Lat": 40.69417, "Lon": 20.94028}], "Progetto Case Bazzano": [{"Name": "Progetto Case Bazzano", "Country Code": "IT", "Population": 1575.0, "Lat": 42.33643, "Lon": 13.4441}], "Progetto Case Coppito 3": [{"Name": "Progetto Case Coppito 3", "Country Code": "IT", "Population": 1294.0, "Lat": 42.36981, "Lon": 13.31973}], "Progetto Case Sassa Nsi": [{"Name": "Progetto Case Sassa Nsi", "Country Code": "IT", "Population": 1180.0, "Lat": 42.3656, "Lon": 13.31509}], "Progonat": [{"Name": "Progonat", "Country Code": "AL", "Population": 0.0, "Lat": 40.21333, "Lon": 19.94472}], "Progreso": [{"Name": "Progreso", "Country Code": "MX", "Population": 1070.0, "Lat": 17.04528, "Lon": -97.57028}, {"Name": "Progreso", "Country Code": "MX", "Population": 2460.0, "Lat": 20.01972, "Lon": -99.23861}, {"Name": "Progreso", "Country Code": "MX", "Population": 12557.0, "Lat": 32.58039, "Lon": -115.58479}, {"Name": "Progreso", "Country Code": "MX", "Population": 14525.0, "Lat": 18.88008, "Lon": -99.1526}, {"Name": "Progreso", "Country Code": "MX", "Population": 37369.0, "Lat": 21.28298, "Lon": -89.66416}, {"Name": "Progreso", "Country Code": "MX", "Population": 2144.0, "Lat": 22.22833, "Lon": -100.12806}, {"Name": "Progreso", "Country Code": "MX", "Population": 1313.0, "Lat": 19.48833, "Lon": -97.67722}, {"Name": "Progreso", "Country Code": "MX", "Population": 796.0, "Lat": 27.42841, "Lon": -100.98892}, {"Name": "Progreso", "Country Code": "MX", "Population": 1121.0, "Lat": 18.03748, "Lon": -98.31122}, {"Name": "Progreso", "Country Code": "PA", "Population": 2211.0, "Lat": 8.44669, "Lon": -82.83859}, {"Name": "Progreso", "Country Code": "PE", "Population": 708.0, "Lat": -14.07223, "Lon": -72.47652}, {"Name": "Progreso", "Country Code": "PH", "Population": 3097.0, "Lat": 13.9083, "Lon": 122.0906}, {"Name": "Progreso", "Country Code": "US", "Population": 5922.0, "Lat": 26.0923, "Lon": -97.95722}, {"Name": "Progreso", "Country Code": "UY", "Population": 16244.0, "Lat": -34.66737, "Lon": -56.21758}], "Progreso (Campo 47)": [{"Name": "Progreso (Campo 47)", "Country Code": "MX", "Population": 1170.0, "Lat": 27.34028, "Lon": -110.09361}], "Progreso Industrial": [{"Name": "Progreso Industrial", "Country Code": "MX", "Population": 11289.0, "Lat": 19.63635, "Lon": -99.35687}], "Progreso de Alvaro Obregon": [{"Name": "Progreso de Alvaro Obregon", "Country Code": "MX", "Population": 17486.0, "Lat": 20.24929, "Lon": -99.18988}], "Progreso de Juarez": [{"Name": "Progreso de Ju\u00e1rez", "Country Code": "MX", "Population": 2004.0, "Lat": 18.96167, "Lon": -97.75556}], "Progreso de Zaragoza": [{"Name": "Progreso de Zaragoza", "Country Code": "MX", "Population": 2474.0, "Lat": 20.2749, "Lon": -97.71163}], "Progress": [{"Name": "Progress", "Country Code": "US", "Population": 9765.0, "Lat": 40.28509, "Lon": -76.83136}], "Progress Village": [{"Name": "Progress Village", "Country Code": "US", "Population": 5392.0, "Lat": 27.9003, "Lon": -82.36454}], "Progresso": [{"Name": "Progresso", "Country Code": "BZ", "Population": 1357.0, "Lat": 18.23085, "Lon": -88.41073}, {"Name": "Progresso", "Country Code": "IT", "Population": 12441.0, "Lat": 44.56892, "Lon": 11.3642}], "Progresu": [{"Name": "Progresu", "Country Code": "RO", "Population": 1584.0, "Lat": 44.35886, "Lon": 26.4611}], "Prohn": [{"Name": "Prohn", "Country Code": "DE", "Population": 1970.0, "Lat": 54.36901, "Lon": 13.02369}], "Prohozesti": [{"Name": "Prohoze\u0219ti", "Country Code": "RO", "Population": 1018.0, "Lat": 46.48155, "Lon": 26.5517}], "Prokhladnyy": [{"Name": "Prokhladnyy", "Country Code": "RU", "Population": 60800.0, "Lat": 43.75741, "Lon": 44.0297}], "Prokhorovka": [{"Name": "Prokhorovka", "Country Code": "RU", "Population": 10136.0, "Lat": 51.03741, "Lon": 36.73252}], "Prokop'yevsk": [{"Name": "Prokop\u2019yevsk", "Country Code": "RU", "Population": 219000.0, "Lat": 53.9059, "Lon": 86.719}], "Prokopi": [{"Name": "Prok\u00f3pi", "Country Code": "GR", "Population": 1108.0, "Lat": 38.73402, "Lon": 23.4906}], "Prokudskoye": [{"Name": "Prokudskoye", "Country Code": "RU", "Population": 6043.0, "Lat": 55.0089, "Lon": 82.4574}], "Prokuplje": [{"Name": "Prokuplje", "Country Code": "RS", "Population": 27673.0, "Lat": 43.23417, "Lon": 21.58806}], "Proleb": [{"Name": "Proleb", "Country Code": "AT", "Population": 1146.0, "Lat": 47.4, "Lon": 15.13333}], "Proletar": [{"Name": "Proletar", "Country Code": "TJ", "Population": 16441.0, "Lat": 40.16713, "Lon": 69.50163}], "Proletariy": [{"Name": "Proletariy", "Country Code": "RU", "Population": 5240.0, "Lat": 58.43423, "Lon": 31.70462}], "Proletarsk": [{"Name": "Proletarsk", "Country Code": "RU", "Population": 19493.0, "Lat": 46.70289, "Lon": 41.72717}], "Proletarskiy": [{"Name": "Proletarskiy", "Country Code": "RU", "Population": 4069.0, "Lat": 55.02219, "Lon": 37.39019}, {"Name": "Proletarskiy", "Country Code": "RU", "Population": 8786.0, "Lat": 50.79139, "Lon": 35.77306}], "Prolisky": [{"Name": "Prolisky", "Country Code": "UA", "Population": 1852.0, "Lat": 50.39118, "Lon": 30.78}], "Prollo": [{"Name": "Prollo", "Country Code": "CI", "Population": 1243.0, "Lat": 4.43432, "Lon": -7.53378}], "Promachoi": [{"Name": "Pr\u00f3machoi", "Country Code": "GR", "Population": 1740.0, "Lat": 41.02517, "Lon": 22.00437}], "Promissao": [{"Name": "Promiss\u00e3o", "Country Code": "BR", "Population": 27031.0, "Lat": -21.53667, "Lon": -49.85806}], "Promna": [{"Name": "Promna", "Country Code": "PL", "Population": 333.0, "Lat": 51.68006, "Lon": 20.95917}], "Promontogno": [{"Name": "Promontogno", "Country Code": "CH", "Population": 0.0, "Lat": 46.33939, "Lon": 9.55759}], "Promyshlennaya": [{"Name": "Promyshlennaya", "Country Code": "RU", "Population": 17216.0, "Lat": 54.9159, "Lon": 85.6385}], "Promyshlennovskiy": [{"Name": "Promyshlennovskiy", "Country Code": "RU", "Population": 6152.0, "Lat": 55.48333, "Lon": 86.2}], "Promyshlennyy": [{"Name": "Promyshlennyy", "Country Code": "RU", "Population": 1112.0, "Lat": 67.58333, "Lon": 63.91667}], "Pronsk": [{"Name": "Pronsk", "Country Code": "RU", "Population": 4222.0, "Lat": 54.11361, "Lon": 39.59909}], "Pronstorf": [{"Name": "Pronstorf", "Country Code": "DE", "Population": 1690.0, "Lat": 53.95, "Lon": 10.46667}], "Pronunciamiento": [{"Name": "Pronunciamiento", "Country Code": "AR", "Population": 1301.0, "Lat": -32.3448, "Lon": -58.44268}], "Propata": [{"Name": "Propata", "Country Code": "IT", "Population": 45.0, "Lat": 44.56487, "Lon": 9.18587}], "Prophetstown": [{"Name": "Prophetstown", "Country Code": "US", "Population": 2012.0, "Lat": 41.67142, "Lon": -89.93622}], "Propria": [{"Name": "Propri\u00e1", "Country Code": "BR", "Population": 23786.0, "Lat": -10.21111, "Lon": -36.84028}], "Propriano": [{"Name": "Propriano", "Country Code": "FR", "Population": 3312.0, "Lat": 41.6759, "Lon": 8.90412}], "Proptisht": [{"Name": "Proptisht", "Country Code": "AL", "Population": 0.0, "Lat": 40.98611, "Lon": 20.5025}], "Prosec": [{"Name": "Prose\u010d", "Country Code": "CZ", "Population": 2098.0, "Lat": 49.8059, "Lon": 16.11621}], "Prosecco-Contovello": [{"Name": "Prosecco-Contovello", "Country Code": "IT", "Population": 1994.0, "Lat": 45.70807, "Lon": 13.73376}], "Prosek": [{"Name": "Prosek", "Country Code": "CZ", "Population": 15581.0, "Lat": 50.11525, "Lon": 14.50685}], "Proserpine": [{"Name": "Proserpine", "Country Code": "AU", "Population": 3630.0, "Lat": -20.4011, "Lon": 148.5802}], "Proserpio": [{"Name": "Proserpio", "Country Code": "IT", "Population": 822.0, "Lat": 45.82828, "Lon": 9.24554}], "Prosinec": [{"Name": "Prosinec", "Country Code": "HR", "Population": 85.0, "Lat": 45.96854, "Lon": 15.7161}], "Prosotsani": [{"Name": "Prosots\u00e1ni", "Country Code": "GR", "Population": 4021.0, "Lat": 41.18333, "Lon": 23.96667}], "Prospect": [{"Name": "Prospect", "Country Code": "AU", "Population": 4722.0, "Lat": -33.80154, "Lon": 150.91358}, {"Name": "Prospect", "Country Code": "AU", "Population": 12995.0, "Lat": -34.88241, "Lon": 138.5933}, {"Name": "Prospect", "Country Code": "US", "Population": 9476.0, "Lat": 41.50232, "Lon": -72.97872}, {"Name": "Prospect", "Country Code": "US", "Population": 4881.0, "Lat": 38.34507, "Lon": -85.61552}, {"Name": "Prospect", "Country Code": "US", "Population": 1070.0, "Lat": 40.45034, "Lon": -83.18853}, {"Name": "Prospect", "Country Code": "US", "Population": 1135.0, "Lat": 40.90451, "Lon": -80.04645}], "Prospect Heights": [{"Name": "Prospect Heights", "Country Code": "US", "Population": 16386.0, "Lat": 42.0953, "Lon": -87.93757}], "Prospect Park": [{"Name": "Prospect Park", "Country Code": "US", "Population": 5953.0, "Lat": 40.93704, "Lon": -74.17431}, {"Name": "Prospect Park", "Country Code": "US", "Population": 5794.0, "Lat": 40.24039, "Lon": -74.76627}, {"Name": "Prospect Park", "Country Code": "US", "Population": 6481.0, "Lat": 39.88789, "Lon": -75.30824}], "Prospect Vale": [{"Name": "Prospect Vale", "Country Code": "AU", "Population": 4952.0, "Lat": -41.481, "Lon": 147.10406}], "Prosper": [{"Name": "Prosper", "Country Code": "US", "Population": 15967.0, "Lat": 33.23623, "Lon": -96.80111}], "Prosperidad": [{"Name": "Prosperidad", "Country Code": "PH", "Population": 0.0, "Lat": 8.58, "Lon": 125.89639}, {"Name": "Prosperidad", "Country Code": "PH", "Population": 4470.0, "Lat": 10.51596, "Lon": 123.3085}], "Prosperity": [{"Name": "Prosperity", "Country Code": "US", "Population": 1200.0, "Lat": 34.20931, "Lon": -81.53316}, {"Name": "Prosperity", "Country Code": "US", "Population": 1498.0, "Lat": 37.8365, "Lon": -81.20177}], "Prosperous": [{"Name": "Prosperous", "Country Code": "IE", "Population": 2248.0, "Lat": 53.29028, "Lon": -6.75389}], "Prosperous Garden": [{"Name": "Prosperous Garden", "Country Code": "HK", "Population": 4090.0, "Lat": 22.31009, "Lon": 114.16829}], "Prossedi": [{"Name": "Prossedi", "Country Code": "IT", "Population": 571.0, "Lat": 41.51674, "Lon": 13.261}], "Prosselsheim": [{"Name": "Prosselsheim", "Country Code": "DE", "Population": 1213.0, "Lat": 49.86309, "Lon": 10.12666}], "Prosser": [{"Name": "Prosser", "Country Code": "US", "Population": 5869.0, "Lat": 46.2068, "Lon": -119.76892}], "Prostejov": [{"Name": "Prost\u011bjov", "Country Code": "CZ", "Population": 47374.0, "Lat": 49.47188, "Lon": 17.11184}], "Prostki": [{"Name": "Prostki", "Country Code": "PL", "Population": 2541.0, "Lat": 53.69901, "Lon": 22.43183}], "Prosto": [{"Name": "Prosto", "Country Code": "IT", "Population": 998.0, "Lat": 46.32946, "Lon": 9.42094}], "Prostornoye": [{"Name": "Prostornoye", "Country Code": "UA", "Population": 635.0, "Lat": 45.65597, "Lon": 34.69837}], "Prostredni Becva": [{"Name": "Prost\u0159edn\u00ed Be\u010dva", "Country Code": "CZ", "Population": 1661.0, "Lat": 49.43609, "Lon": 18.252}], "Prosvet": [{"Name": "Prosvet", "Country Code": "RU", "Population": 2961.0, "Lat": 55.57028, "Lon": 65.0825}], "Prosyana": [{"Name": "Prosyana", "Country Code": "UA", "Population": 4840.0, "Lat": 48.11368, "Lon": 36.37175}], "Proszkow": [{"Name": "Pr\u00f3szk\u00f3w", "Country Code": "PL", "Population": 2691.0, "Lat": 50.5767, "Lon": 17.87143}], "Proszowice": [{"Name": "Proszowice", "Country Code": "PL", "Population": 6146.0, "Lat": 50.19275, "Lon": 20.28909}], "Protaras": [{"Name": "Protaras", "Country Code": "CY", "Population": 20230.0, "Lat": 35.0125, "Lon": 34.05833}], "Proteccion": [{"Name": "Protecci\u00f3n", "Country Code": "HN", "Population": 2101.0, "Lat": 15.02764, "Lon": -88.6469}], "Proti": [{"Name": "Pr\u00f3ti", "Country Code": "GR", "Population": 1176.0, "Lat": 40.94411, "Lon": 24.00118}], "Protivanov": [{"Name": "Protivanov", "Country Code": "CZ", "Population": 1077.0, "Lat": 49.48351, "Lon": 16.83594}], "Protivin": [{"Name": "Protiv\u00edn", "Country Code": "CZ", "Population": 4760.0, "Lat": 49.19949, "Lon": 14.21717}], "Prottes": [{"Name": "Prottes", "Country Code": "AT", "Population": 1436.0, "Lat": 48.3868, "Lon": 16.7389}], "Protvino": [{"Name": "Protvino", "Country Code": "RU", "Population": 37329.0, "Lat": 54.86821, "Lon": 37.21583}], "Protzel": [{"Name": "Pr\u00f6tzel", "Country Code": "DE", "Population": 1204.0, "Lat": 52.63723, "Lon": 13.98783}], "Proukro": [{"Name": "Proukro", "Country Code": "CI", "Population": 1444.0, "Lat": 6.97222, "Lon": -4.31444}], "Proura": [{"Name": "Proura", "Country Code": "CI", "Population": 1148.0, "Lat": 9.89034, "Lon": -3.38634}], "Prouvy": [{"Name": "Prouvy", "Country Code": "FR", "Population": 2481.0, "Lat": 50.31793, "Lon": 3.45096}], "Provadia": [{"Name": "Provadia", "Country Code": "BG", "Population": 13755.0, "Lat": 43.18333, "Lon": 27.43333}], "Provaglio Val Sabbia": [{"Name": "Provaglio Val Sabbia", "Country Code": "IT", "Population": 919.0, "Lat": 45.68879, "Lon": 10.43397}], "Provaglio d'Iseo": [{"Name": "Provaglio d'Iseo", "Country Code": "IT", "Population": 5885.0, "Lat": 45.63538, "Lon": 10.04466}], "Provatas": [{"Name": "Provat\u00e1s", "Country Code": "GR", "Population": 1099.0, "Lat": 41.06825, "Lon": 23.3903}], "Proven": [{"Name": "Proven", "Country Code": "BE", "Population": 1212.0, "Lat": 50.88976, "Lon": 2.65721}], "Provenals del Poblenou": [{"Name": "Provenals del Poblenou", "Country Code": "ES", "Population": 20306.0, "Lat": 41.41109, "Lon": 2.2026}], "Proves - Proveis": [{"Name": "Proves - Proveis", "Country Code": "IT", "Population": 288.0, "Lat": 46.47661, "Lon": 11.02247}], "Provezze": [{"Name": "Provezze", "Country Code": "IT", "Population": 1165.0, "Lat": 45.63139, "Lon": 10.07287}], "Providence": [{"Name": "Providence", "Country Code": "MU", "Population": 3126.0, "Lat": -20.24472, "Lon": 57.61222}, {"Name": "Providence", "Country Code": "US", "Population": 190934.0, "Lat": 41.82399, "Lon": -71.41283}, {"Name": "Providence", "Country Code": "US", "Population": 3492.0, "Lat": 38.57451, "Lon": -85.22107}, {"Name": "Providence", "Country Code": "US", "Population": 7124.0, "Lat": 41.70632, "Lon": -111.81717}, {"Name": "Providence", "Country Code": "US", "Population": 3065.0, "Lat": 37.39755, "Lon": -87.76279}], "Providence Village": [{"Name": "Providence Village", "Country Code": "US", "Population": 4786.0, "Lat": 33.2334, "Lon": -96.96158}], "Providencia": [{"Name": "Providencia", "Country Code": "CL", "Population": 0.0, "Lat": -33.43107, "Lon": -70.60454}, {"Name": "Providencia", "Country Code": "CO", "Population": 3326.0, "Lat": 1.56976, "Lon": -77.464}, {"Name": "Providencia", "Country Code": "CO", "Population": 0.0, "Lat": 1.23907, "Lon": -77.59721}, {"Name": "Providencia", "Country Code": "MX", "Population": 4501.0, "Lat": 27.51219, "Lon": -109.9908}, {"Name": "Providencia", "Country Code": "MX", "Population": 1173.0, "Lat": 20.35439, "Lon": -101.01895}, {"Name": "Providencia", "Country Code": "PE", "Population": 265.0, "Lat": -6.2975, "Lon": -78.24}], "Providencia de Napoles": [{"Name": "Providencia de N\u00e1poles", "Country Code": "MX", "Population": 1417.0, "Lat": 21.02297, "Lon": -101.45775}], "Provideniya": [{"Name": "Provideniya", "Country Code": "RU", "Population": 2536.0, "Lat": 64.42289, "Lon": -173.22641}], "Provident Centre": [{"Name": "Provident Centre", "Country Code": "HK", "Population": 4873.0, "Lat": 22.29214, "Lon": 114.19566}], "Proville": [{"Name": "Proville", "Country Code": "FR", "Population": 3607.0, "Lat": 50.16137, "Lon": 3.20629}], "Provin": [{"Name": "Provin", "Country Code": "FR", "Population": 3745.0, "Lat": 50.5143, "Lon": 2.90794}], "Provincetown": [{"Name": "Provincetown", "Country Code": "US", "Population": 2642.0, "Lat": 42.05295, "Lon": -70.1864}], "Provins": [{"Name": "Provins", "Country Code": "FR", "Population": 12685.0, "Lat": 48.55897, "Lon": 3.29939}], "Provita de Jos": [{"Name": "Provi\u0163a de Jos", "Country Code": "RO", "Population": 2513.0, "Lat": 45.11667, "Lon": 25.65}], "Provita de Sus": [{"Name": "Provi\u0163a de Sus", "Country Code": "RO", "Population": 2333.0, "Lat": 45.13333, "Lon": 25.63333}], "Provo": [{"Name": "Provo", "Country Code": "US", "Population": 115264.0, "Lat": 40.23384, "Lon": -111.65853}], "Provodov-Sonov": [{"Name": "Provodov-\u0160onov", "Country Code": "CZ", "Population": 1225.0, "Lat": 50.38711, "Lon": 16.10797}], "Provost": [{"Name": "Provost", "Country Code": "CA", "Population": 2082.0, "Lat": 52.35014, "Lon": -110.26828}], "Provvidenti": [{"Name": "Provvidenti", "Country Code": "IT", "Population": 147.0, "Lat": 41.71795, "Lon": 14.82349}], "Proziblanfla": [{"Name": "Proziblanfla", "Country Code": "CI", "Population": 1418.0, "Lat": 6.6865, "Lon": -5.87626}], "Prozor": [{"Name": "Prozor", "Country Code": "BA", "Population": 10349.0, "Lat": 43.82222, "Lon": 17.60917}], "Prroshyan": [{"Name": "Prroshyan", "Country Code": "AM", "Population": 4333.0, "Lat": 40.24731, "Lon": 44.41949}], "Prsovce": [{"Name": "Pr\u0161ovce", "Country Code": "MK", "Population": 1999.0, "Lat": 42.08336, "Lon": 21.05994}], "Pruchna": [{"Name": "Pruchna", "Country Code": "PL", "Population": 2446.0, "Lat": 49.86527, "Lon": 18.68191}], "Pruchnik": [{"Name": "Pruchnik", "Country Code": "PL", "Population": 3694.0, "Lat": 49.9062, "Lon": 22.51554}], "Prudentopolis": [{"Name": "Prudent\u00f3polis", "Country Code": "BR", "Population": 19611.0, "Lat": -25.21306, "Lon": -50.97778}], "Prudenville": [{"Name": "Prudenville", "Country Code": "US", "Population": 1682.0, "Lat": 44.29835, "Lon": -84.65197}], "Prudhoe": [{"Name": "Prudhoe", "Country Code": "GB", "Population": 12075.0, "Lat": 54.96154, "Lon": -1.85168}], "Prudhoe Bay": [{"Name": "Prudhoe Bay", "Country Code": "US", "Population": 2174.0, "Lat": 70.25528, "Lon": -148.33722}], "Prudianka": [{"Name": "Prudianka", "Country Code": "UA", "Population": 1924.0, "Lat": 50.23606, "Lon": 36.16835}], "Prudnik": [{"Name": "Prudnik", "Country Code": "PL", "Population": 23343.0, "Lat": 50.32124, "Lon": 17.57461}], "Prudovoye": [{"Name": "Prudovoye", "Country Code": "UA", "Population": 1009.0, "Lat": 44.90424, "Lon": 33.78114}], "Prudy": [{"Name": "Prudy", "Country Code": "RU", "Population": 3806.0, "Lat": 57.5738, "Lon": 46.27176}, {"Name": "Prudy", "Country Code": "UA", "Population": 1876.0, "Lat": 45.23922, "Lon": 34.70217}], "Pruem": [{"Name": "Pr\u00fcm", "Country Code": "DE", "Population": 5471.0, "Lat": 50.20785, "Lon": 6.42019}], "Pruggern": [{"Name": "Pruggern", "Country Code": "AT", "Population": 754.0, "Lat": 47.4237, "Lon": 13.87625}], "Prugy": [{"Name": "Pr\u00fcgy", "Country Code": "HU", "Population": 2568.0, "Lat": 48.08333, "Lon": 21.25}], "Pruhonice": [{"Name": "Pr\u016fhonice", "Country Code": "CZ", "Population": 2007.0, "Lat": 49.99962, "Lon": 14.55017}], "Pruille-le-Chetif": [{"Name": "Pruill\u00e9-le-Ch\u00e9tif", "Country Code": "FR", "Population": 1282.0, "Lat": 47.99383, "Lon": 0.10677}], "Pruna": [{"Name": "Pruna", "Country Code": "ES", "Population": 3047.0, "Lat": 36.97226, "Lon": -5.2223}], "Prundeni": [{"Name": "Prundeni", "Country Code": "RO", "Population": 4596.0, "Lat": 44.73333, "Lon": 24.26667}], "Prundu": [{"Name": "Prundu", "Country Code": "RO", "Population": 1060.0, "Lat": 43.82394, "Lon": 24.69196}, {"Name": "Prundu", "Country Code": "RO", "Population": 4708.0, "Lat": 44.09472, "Lon": 26.22694}], "Prundu Bargaului": [{"Name": "Prundu B\u00e2rg\u0103ului", "Country Code": "RO", "Population": 4345.0, "Lat": 47.21975, "Lon": 24.74123}], "Prunedale": [{"Name": "Prunedale", "Country Code": "US", "Population": 17560.0, "Lat": 36.77579, "Lon": -121.66967}], "Prunelli-di-Fiumorbo": [{"Name": "Prunelli-di-Fiumorbo", "Country Code": "FR", "Population": 2988.0, "Lat": 42.01047, "Lon": 9.32473}], "Prunetto": [{"Name": "Prunetto", "Country Code": "IT", "Population": 118.0, "Lat": 44.48894, "Lon": 8.14374}], "Pruniers-en-Sologne": [{"Name": "Pruniers-en-Sologne", "Country Code": "FR", "Population": 2277.0, "Lat": 47.31667, "Lon": 1.66667}], "Prunisor": [{"Name": "Pruni\u015for", "Country Code": "RO", "Population": 2531.0, "Lat": 44.60944, "Lon": 22.91528}], "Prupuh": [{"Name": "Prupuh", "Country Code": "ID", "Population": 0.0, "Lat": -6.9127, "Lon": 112.4578}], "Prusanky": [{"Name": "Pru\u0161\u00e1nky", "Country Code": "CZ", "Population": 2183.0, "Lat": 48.8284, "Lon": 16.98068}], "Prusice": [{"Name": "Prusice", "Country Code": "PL", "Population": 2203.0, "Lat": 51.37116, "Lon": 16.96025}], "Prusinovice": [{"Name": "Prusinovice", "Country Code": "CZ", "Population": 1207.0, "Lat": 49.37898, "Lon": 17.5871}], "Pruszcz": [{"Name": "Pruszcz", "Country Code": "PL", "Population": 2300.0, "Lat": 53.33021, "Lon": 18.19894}], "Pruszcz Gdanski": [{"Name": "Pruszcz Gda\u0144ski", "Country Code": "PL", "Population": 23618.0, "Lat": 54.26217, "Lon": 18.63625}], "Pruszkow": [{"Name": "Pruszk\u00f3w", "Country Code": "PL", "Population": 55371.0, "Lat": 52.17072, "Lon": 20.81214}], "Prutting": [{"Name": "Prutting", "Country Code": "DE", "Population": 2325.0, "Lat": 47.89321, "Lon": 12.20238}], "Prutz": [{"Name": "Prutz", "Country Code": "AT", "Population": 1825.0, "Lat": 47.08333, "Lon": 10.66667}], "Pruzhany": [{"Name": "Pruzhany", "Country Code": "BY", "Population": 19135.0, "Lat": 52.55464, "Lon": 24.45483}], "Prvacina": [{"Name": "Prva\u010dina", "Country Code": "SI", "Population": 1268.0, "Lat": 45.89, "Lon": 13.71806}], "Pryamitsyno": [{"Name": "Pryamitsyno", "Country Code": "RU", "Population": 5120.0, "Lat": 51.65608, "Lon": 35.9373}], "Pryamobalka": [{"Name": "Pryamobalka", "Country Code": "UA", "Population": 1075.0, "Lat": 45.89069, "Lon": 29.30175}], "Pryazha": [{"Name": "Pryazha", "Country Code": "RU", "Population": 4156.0, "Lat": 61.69812, "Lon": 33.62948}], "Pryazovske": [{"Name": "Pryazovske", "Country Code": "UA", "Population": 6578.0, "Lat": 46.73123, "Lon": 35.64082}], "Prybuzhany": [{"Name": "Prybuzhany", "Country Code": "UA", "Population": 2013.0, "Lat": 47.53085, "Lon": 31.32975}], "Prybuzhzhya": [{"Name": "Prybuzhzhya", "Country Code": "UA", "Population": 1989.0, "Lat": 47.67286, "Lon": 31.23443}], "Prybuzske": [{"Name": "Prybuzske", "Country Code": "UA", "Population": 1440.0, "Lat": 46.77968, "Lon": 32.09732}], "Prykolotne": [{"Name": "Prykolotne", "Country Code": "UA", "Population": 2499.0, "Lat": 50.16273, "Lon": 37.34524}], "Pryluky": [{"Name": "Pryluky", "Country Code": "UA", "Population": 52553.0, "Lat": 50.59323, "Lon": 32.38761}], "Prylymanske": [{"Name": "Prylymanske", "Country Code": "UA", "Population": 3852.0, "Lat": 46.42369, "Lon": 30.61446}], "Prymors'ke": [{"Name": "Prymors\u2019ke", "Country Code": "UA", "Population": 1612.0, "Lat": 45.51761, "Lon": 29.60528}], "Prymorsk": [{"Name": "Prymorsk", "Country Code": "UA", "Population": 11157.0, "Lat": 46.73415, "Lon": 36.34599}], "Prymorske": [{"Name": "Prymorske", "Country Code": "UA", "Population": 1841.0, "Lat": 45.69012, "Lon": 29.7974}], "Pryor": [{"Name": "Pryor", "Country Code": "US", "Population": 8708.0, "Lat": 36.30843, "Lon": -95.31691}], "Pryor Creek": [{"Name": "Pryor Creek", "Country Code": "US", "Population": 9469.0, "Lat": 36.30862, "Lon": -95.31777}], "Pryozerne": [{"Name": "Pryozerne", "Country Code": "UA", "Population": 1778.0, "Lat": 45.60961, "Lon": 29.16376}], "Prypruttya": [{"Name": "Prypruttya", "Country Code": "UA", "Population": 2206.0, "Lat": 48.25521, "Lon": 26.16782}], "Pryshyb": [{"Name": "Pryshyb", "Country Code": "UA", "Population": 3110.0, "Lat": 47.25614, "Lon": 35.32426}], "Pryvillia": [{"Name": "Pryvillia", "Country Code": "UA", "Population": 6520.0, "Lat": 49.00556, "Lon": 38.29883}], "Pryvilne": [{"Name": "Pryvilne", "Country Code": "UA", "Population": 2659.0, "Lat": 47.49339, "Lon": 32.29702}], "Pryvol'ny": [{"Name": "Pryvol\u2019ny", "Country Code": "BY", "Population": 2000.0, "Lat": 53.7969, "Lon": 27.7967}], "Pryvoroky": [{"Name": "Pryvoroky", "Country Code": "UA", "Population": 1284.0, "Lat": 48.10648, "Lon": 26.03536}], "Pryyutivka": [{"Name": "Pryyutivka", "Country Code": "UA", "Population": 3148.0, "Lat": 48.72925, "Lon": 33.06617}], "Przasnysz": [{"Name": "Przasnysz", "Country Code": "PL", "Population": 16718.0, "Lat": 53.01907, "Lon": 20.88029}], "Przechlewo": [{"Name": "Przechlewo", "Country Code": "PL", "Population": 2826.0, "Lat": 53.79847, "Lon": 17.25205}], "Przecieszyn": [{"Name": "Przecieszyn", "Country Code": "PL", "Population": 1157.0, "Lat": 49.97838, "Lon": 19.17046}], "Przeciszow": [{"Name": "Przecisz\u00f3w", "Country Code": "PL", "Population": 3996.0, "Lat": 50.00647, "Lon": 19.37576}], "Przeclaw": [{"Name": "Przec\u0142aw", "Country Code": "PL", "Population": 1599.0, "Lat": 50.19339, "Lon": 21.48007}, {"Name": "Przec\u0142aw", "Country Code": "PL", "Population": 3362.0, "Lat": 53.37447, "Lon": 14.47251}], "Przedborz": [{"Name": "Przedb\u00f3rz", "Country Code": "PL", "Population": 3765.0, "Lat": 51.08789, "Lon": 19.87384}], "Przedecz": [{"Name": "Przedecz", "Country Code": "PL", "Population": 1780.0, "Lat": 52.3344, "Lon": 18.89915}], "Przedmiescie Dubieckie": [{"Name": "Przedmie\u015bcie Dubieckie", "Country Code": "PL", "Population": 1100.0, "Lat": 49.8371, "Lon": 22.37177}], "Przedzel": [{"Name": "Prz\u0119dzel", "Country Code": "PL", "Population": 1823.0, "Lat": 50.49465, "Lon": 22.21925}], "Przeginia": [{"Name": "Przeginia", "Country Code": "PL", "Population": 2093.0, "Lat": 50.23831, "Lon": 19.68853}], "Przelewice": [{"Name": "Przelewice", "Country Code": "PL", "Population": 770.0, "Lat": 53.10413, "Lon": 15.07625}], "Przemet": [{"Name": "Przem\u0119t", "Country Code": "PL", "Population": 1600.0, "Lat": 52.00808, "Lon": 16.30114}], "Przemkow": [{"Name": "Przemk\u00f3w", "Country Code": "PL", "Population": 6487.0, "Lat": 51.5253, "Lon": 15.79441}], "Przemysl": [{"Name": "Przemy\u015bl", "Country Code": "PL", "Population": 67013.0, "Lat": 49.78498, "Lon": 22.76728}], "Przesmyki": [{"Name": "Przesmyki", "Country Code": "PL", "Population": 670.0, "Lat": 52.26816, "Lon": 22.58394}], "Przeworno": [{"Name": "Przeworno", "Country Code": "PL", "Population": 1259.0, "Lat": 50.68629, "Lon": 17.16588}], "Przeworsk": [{"Name": "Przeworsk", "Country Code": "PL", "Population": 15805.0, "Lat": 50.05912, "Lon": 22.49408}], "Przewoz": [{"Name": "Przew\u00f3z", "Country Code": "PL", "Population": 850.0, "Lat": 51.48053, "Lon": 14.95188}], "Przodkowo": [{"Name": "Przodkowo", "Country Code": "PL", "Population": 1286.0, "Lat": 54.37991, "Lon": 18.2876}], "Przybiernow": [{"Name": "Przybiern\u00f3w", "Country Code": "PL", "Population": 1700.0, "Lat": 53.7578, "Lon": 14.78529}], "Przyborow": [{"Name": "Przybor\u00f3w", "Country Code": "PL", "Population": 1200.0, "Lat": 51.79991, "Lon": 15.7689}, {"Name": "Przybor\u00f3w", "Country Code": "PL", "Population": 1757.0, "Lat": 50.03035, "Lon": 20.66279}, {"Name": "Przybor\u00f3w", "Country Code": "PL", "Population": 1793.0, "Lat": 49.6215, "Lon": 19.38701}], "Przybyszowka": [{"Name": "Przybysz\u00f3wka", "Country Code": "PL", "Population": 2000.0, "Lat": 50.04788, "Lon": 21.92579}], "Przygodzice": [{"Name": "Przygodzice", "Country Code": "PL", "Population": 3000.0, "Lat": 51.59195, "Lon": 17.82412}], "Przykona": [{"Name": "Przykona", "Country Code": "PL", "Population": 520.0, "Lat": 51.98171, "Lon": 18.61247}], "Przylek": [{"Name": "Przy\u0142\u0119k", "Country Code": "PL", "Population": 559.0, "Lat": 51.30856, "Lon": 21.74744}], "Przyrow": [{"Name": "Przyr\u00f3w", "Country Code": "PL", "Population": 1222.0, "Lat": 50.80051, "Lon": 19.52794}], "Przysietnica": [{"Name": "Przysietnica", "Country Code": "PL", "Population": 3953.0, "Lat": 49.73019, "Lon": 22.05257}], "Przystajn": [{"Name": "Przystaj\u0144", "Country Code": "PL", "Population": 2283.0, "Lat": 50.88495, "Lon": 18.69169}], "Przysucha": [{"Name": "Przysucha", "Country Code": "PL", "Population": 6188.0, "Lat": 51.35858, "Lon": 20.62889}], "Przyszowice": [{"Name": "Przyszowice", "Country Code": "PL", "Population": 3203.0, "Lat": 50.24841, "Lon": 18.74594}], "Przytkowice": [{"Name": "Przytkowice", "Country Code": "PL", "Population": 2560.0, "Lat": 49.91785, "Lon": 19.6857}], "Przytoczna": [{"Name": "Przytoczna", "Country Code": "PL", "Population": 2400.0, "Lat": 52.57755, "Lon": 15.67878}], "Przytoczno": [{"Name": "Przytoczno", "Country Code": "PL", "Population": 1100.0, "Lat": 51.61951, "Lon": 22.27135}], "Przytyk": [{"Name": "Przytyk", "Country Code": "PL", "Population": 990.0, "Lat": 51.46567, "Lon": 20.90587}], "Przywidz": [{"Name": "Przywidz", "Country Code": "PL", "Population": 1673.0, "Lat": 54.19524, "Lon": 18.32116}], "Psachna": [{"Name": "Psachn\u00e1", "Country Code": "GR", "Population": 5828.0, "Lat": 38.57852, "Lon": 23.64326}], "Psara": [{"Name": "Psar\u00e1", "Country Code": "GR", "Population": 454.0, "Lat": 38.54097, "Lon": 25.56287}], "Psary": [{"Name": "Ps\u00e1ry", "Country Code": "CZ", "Population": 2243.0, "Lat": 49.93622, "Lon": 14.51276}, {"Name": "Psary", "Country Code": "PL", "Population": 1018.0, "Lat": 51.18712, "Lon": 17.03173}, {"Name": "Psary", "Country Code": "PL", "Population": 1429.0, "Lat": 50.17242, "Lon": 19.52953}, {"Name": "Psary", "Country Code": "PL", "Population": 1304.0, "Lat": 50.6147, "Lon": 18.96991}, {"Name": "Psary", "Country Code": "PL", "Population": 2717.0, "Lat": 50.37964, "Lon": 19.11548}], "Psebay": [{"Name": "Psebay", "Country Code": "RU", "Population": 10700.0, "Lat": 44.1234, "Lon": 40.8107}], "Psedakh": [{"Name": "Psedakh", "Country Code": "RU", "Population": 6964.0, "Lat": 43.46722, "Lon": 44.56917}], "Psevdas": [{"Name": "Psevd\u00e1s", "Country Code": "CY", "Population": 1070.0, "Lat": 34.94478, "Lon": 33.46072}], "Pshada": [{"Name": "Pshada", "Country Code": "RU", "Population": 2875.0, "Lat": 44.47097, "Lon": 38.40317}], "Pshekhskaya": [{"Name": "Pshekhskaya", "Country Code": "RU", "Population": 4979.0, "Lat": 44.69597, "Lon": 39.79665}], "Pshenichnoye": [{"Name": "Pshenichnoye", "Country Code": "UA", "Population": 868.0, "Lat": 45.64627, "Lon": 34.83767}], "Psie Pole Poludnie-Kielczow": [{"Name": "Psie Pole Po\u0142udnie-Kie\u0142cz\u00f3w", "Country Code": "PL", "Population": 5263.0, "Lat": 51.14783, "Lon": 17.12744}], "Psimolofou": [{"Name": "Psimolofou", "Country Code": "CY", "Population": 1686.0, "Lat": 35.0625, "Lon": 33.2625}], "Pskov": [{"Name": "Pskov", "Country Code": "RU", "Population": 210501.0, "Lat": 57.81404, "Lon": 28.34493}], "Psychiko": [{"Name": "Psychik\u00f3", "Country Code": "GR", "Population": 9529.0, "Lat": 38.01324, "Lon": 23.77223}], "Psygansu": [{"Name": "Psygansu", "Country Code": "RU", "Population": 6885.0, "Lat": 43.41338, "Lon": 43.79066}], "Psyzh": [{"Name": "Psyzh", "Country Code": "RU", "Population": 6840.0, "Lat": 44.23306, "Lon": 42.01833}], "Pszczew": [{"Name": "Pszczew", "Country Code": "PL", "Population": 1826.0, "Lat": 52.47724, "Lon": 15.7816}], "Pszczolki": [{"Name": "Pszcz\u00f3\u0142ki", "Country Code": "PL", "Population": 4053.0, "Lat": 54.17304, "Lon": 18.69787}], "Pszczyna": [{"Name": "Pszczyna", "Country Code": "PL", "Population": 25288.0, "Lat": 49.98037, "Lon": 18.95382}], "Pszow": [{"Name": "Psz\u00f3w", "Country Code": "PL", "Population": 14028.0, "Lat": 50.03994, "Lon": 18.39472}], "Pteleos": [{"Name": "Ptele\u00f3s", "Country Code": "GR", "Population": 1140.0, "Lat": 39.05261, "Lon": 22.95271}], "Pteni": [{"Name": "Pten\u00ed", "Country Code": "CZ", "Population": 1093.0, "Lat": 49.51163, "Lon": 16.9611}], "Ptghni": [{"Name": "Ptghni", "Country Code": "AM", "Population": 1231.0, "Lat": 40.25568, "Lon": 44.58612}], "Ptghunk'": [{"Name": "Ptghunk\u2019", "Country Code": "AM", "Population": 1345.0, "Lat": 40.16388, "Lon": 44.36389}], "Ptolemaida": [{"Name": "Ptolema\u1e2fda", "Country Code": "GR", "Population": 30045.0, "Lat": 40.51472, "Lon": 21.67861}], "Ptuj": [{"Name": "Ptuj", "Country Code": "SI", "Population": 18164.0, "Lat": 46.42005, "Lon": 15.87018}], "Pu'an": [{"Name": "Pu\u2019an", "Country Code": "CN", "Population": 42577.0, "Lat": 32.03728, "Lon": 105.46686}], "Pua": [{"Name": "Pua", "Country Code": "TH", "Population": 0.0, "Lat": 19.17503, "Lon": 100.91622}], "Puacuaro": [{"Name": "Pu\u00e1cuaro", "Country Code": "MX", "Population": 1807.0, "Lat": 19.6028, "Lon": -101.67419}], "Pualas": [{"Name": "Pualas", "Country Code": "PH", "Population": 0.0, "Lat": 7.81624, "Lon": 124.07105}, {"Name": "Pualas", "Country Code": "PH", "Population": 2100.0, "Lat": 8.01722, "Lon": 123.84806}], "Puan": [{"Name": "Pu\u00e1n", "Country Code": "AR", "Population": 0.0, "Lat": -37.5481, "Lon": -62.76834}, {"Name": "Puan", "Country Code": "KR", "Population": 22267.0, "Lat": 35.72806, "Lon": 126.73194}], "Pubal": [{"Name": "Pubal", "Country Code": "KR", "Population": 63026.0, "Lat": 37.29167, "Lon": 127.50778}], "Publier": [{"Name": "Publier", "Country Code": "FR", "Population": 5525.0, "Lat": 46.38773, "Lon": 6.54356}], "Publow": [{"Name": "Publow", "Country Code": "GB", "Population": 0.0, "Lat": 51.37877, "Lon": -2.54351}], "Pubu": [{"Name": "Pubu", "Country Code": "CN", "Population": 0.0, "Lat": 31.39625, "Lon": 90.00958}], "Pucacaca": [{"Name": "Pucacaca", "Country Code": "PE", "Population": 0.0, "Lat": -6.85167, "Lon": -76.34167}], "Pucak": [{"Name": "Pucak", "Country Code": "HR", "Population": 1.0, "Lat": 45.44661, "Lon": 14.8917}], "Pucallpa": [{"Name": "Pucallpa", "Country Code": "PE", "Population": 326040.0, "Lat": -8.37915, "Lon": -74.55387}], "Pucanglaban": [{"Name": "Pucanglaban", "Country Code": "ID", "Population": 0.0, "Lat": -8.2626, "Lon": 112.0153}], "Pucara": [{"Name": "Pucara", "Country Code": "PE", "Population": 4335.0, "Lat": -15.97993, "Lon": -71.45988}], "Puch bei Hallein": [{"Name": "Puch bei Hallein", "Country Code": "AT", "Population": 4065.0, "Lat": 47.71536, "Lon": 13.09296}], "Puch bei Weiz": [{"Name": "Puch bei Weiz", "Country Code": "AT", "Population": 589.0, "Lat": 47.22413, "Lon": 15.72504}], "Puchaczow": [{"Name": "Puchacz\u00f3w", "Country Code": "PL", "Population": 817.0, "Lat": 51.3105, "Lon": 22.9737}], "Puchavicy": [{"Name": "Puchavi\u010dy", "Country Code": "BY", "Population": 2800.0, "Lat": 53.5297, "Lon": 28.2467}], "Puchberg am Schneeberg": [{"Name": "Puchberg am Schneeberg", "Country Code": "AT", "Population": 2683.0, "Lat": 47.78709, "Lon": 15.91352}], "Puchenau": [{"Name": "Puchenau", "Country Code": "AT", "Population": 2663.0, "Lat": 48.31214, "Lon": 14.23614}], "Pucheng": [{"Name": "Pucheng", "Country Code": "CN", "Population": 0.0, "Lat": 36.41361, "Lon": 111.095},