{"Hlohovec": [{"Name": "Hlohovec", "Country Code": "CZ", "Population": 1315.0, "Lat": 48.77399, "Lon": 16.7623}, {"Name": "Hlohovec", "Country Code": "SK", "Population": 23930.0, "Lat": 48.43174, "Lon": 17.8031}], "Hlotse": [{"Name": "Hlotse", "Country Code": "LS", "Population": 43967.0, "Lat": -28.87185, "Lon": 28.04501}], "Hlubocky": [{"Name": "Hlubo\u010dky", "Country Code": "CZ", "Population": 4448.0, "Lat": 49.61783, "Lon": 17.39436}], "Hluboka nad Vltavou": [{"Name": "Hlubok\u00e1 nad Vltavou", "Country Code": "CZ", "Population": 4682.0, "Lat": 49.05225, "Lon": 14.43427}], "Hlucin": [{"Name": "Hlu\u010d\u00edn", "Country Code": "CZ", "Population": 14228.0, "Lat": 49.89795, "Lon": 18.19196}], "Hluhluwe": [{"Name": "Hluhluwe", "Country Code": "ZA", "Population": 1500.0, "Lat": -28.01895, "Lon": 32.26762}], "Hluk": [{"Name": "Hluk", "Country Code": "CZ", "Population": 4424.0, "Lat": 48.98805, "Lon": 17.52744}], "Hlukhiv": [{"Name": "Hlukhiv", "Country Code": "UA", "Population": 31789.0, "Lat": 51.67822, "Lon": 33.9162}], "Hlukhivtsi": [{"Name": "Hlukhivtsi", "Country Code": "UA", "Population": 3277.0, "Lat": 49.77149, "Lon": 28.72976}], "Hlusha": [{"Name": "Hlusha", "Country Code": "BY", "Population": 1400.0, "Lat": 53.0868, "Lon": 28.8567}], "Hlusk": [{"Name": "Hlusk", "Country Code": "BY", "Population": 7800.0, "Lat": 52.903, "Lon": 28.6845}], "Hluti": [{"Name": "Hluti", "Country Code": "SZ", "Population": 6763.0, "Lat": -27.21667, "Lon": 31.61667}], "Hlybochok": [{"Name": "Hlybochok", "Country Code": "UA", "Population": 0.0, "Lat": 48.86686, "Lon": 30.79897}], "Hlyboka": [{"Name": "Hlyboka", "Country Code": "UA", "Population": 9424.0, "Lat": 48.08756, "Lon": 25.9284}], "Hlybokaye": [{"Name": "Hlybokaye", "Country Code": "BY", "Population": 22000.0, "Lat": 55.1384, "Lon": 27.6905}], "Hlyboke": [{"Name": "Hlyboke", "Country Code": "UA", "Population": 1232.0, "Lat": 45.73036, "Lon": 29.60853}], "Hlyns'k": [{"Name": "Hlyns'k", "Country Code": "UA", "Population": 1698.0, "Lat": 50.06033, "Lon": 23.89956}], "Hlynytsya": [{"Name": "Hlynytsya", "Country Code": "UA", "Population": 1641.0, "Lat": 48.33406, "Lon": 25.70507}], "Hmas Cerberus": [{"Name": "Hmas Cerberus", "Country Code": "AU", "Population": 1278.0, "Lat": -38.36491, "Lon": 145.20038}], "Hmawbi": [{"Name": "Hmawbi", "Country Code": "MM", "Population": 0.0, "Lat": 17.10311, "Lon": 96.03615}], "Hnaberd": [{"Name": "Hnaberd", "Country Code": "AM", "Population": 1817.0, "Lat": 40.63721, "Lon": 44.14058}], "Hnahthial": [{"Name": "Hnahthial", "Country Code": "IN", "Population": 0.0, "Lat": 22.96611, "Lon": 92.92966}, {"Name": "Hnahthial", "Country Code": "IN", "Population": 0.0, "Lat": 22.91, "Lon": 92.76}], "Hnevosice": [{"Name": "Hn\u011bvo\u0161ice", "Country Code": "CZ", "Population": 1028.0, "Lat": 50.00299, "Lon": 18.00829}], "Hnevotin": [{"Name": "Hn\u011bvot\u00edn", "Country Code": "CZ", "Population": 1201.0, "Lat": 49.57205, "Lon": 17.17954}], "Hnidyn": [{"Name": "Hnidyn", "Country Code": "UA", "Population": 5400.0, "Lat": 50.32899, "Lon": 30.71059}], "Hnivan": [{"Name": "Hnivan", "Country Code": "UA", "Population": 12191.0, "Lat": 49.0939, "Lon": 28.33785}], "Hnizdychiv": [{"Name": "Hnizdychiv", "Country Code": "UA", "Population": 3983.0, "Lat": 49.33742, "Lon": 24.10786}], "Hnizdychne": [{"Name": "Hnizdychne", "Country Code": "UA", "Population": 1146.0, "Lat": 49.80708, "Lon": 25.64503}], "Hnojnik": [{"Name": "Hnojn\u00edk", "Country Code": "CZ", "Population": 1492.0, "Lat": 49.6825, "Lon": 18.54143}], "Ho": [{"Name": "Ho", "Country Code": "GH", "Population": 130701.0, "Lat": 6.60084, "Lon": 0.4713}, {"Name": "H\u1ed3", "Country Code": "VN", "Population": 0.0, "Lat": 21.06308, "Lon": 106.0857}], "Ho Chi Minh City": [{"Name": "Ho Chi Minh City", "Country Code": "VN", "Population": 8993082.0, "Lat": 10.82302, "Lon": 106.62965}], "Ho Man Tin": [{"Name": "Ho Man Tin", "Country Code": "HK", "Population": 19830.0, "Lat": 22.31584, "Lon": 114.18181}], "Ho Man Tin Estate": [{"Name": "Ho Man Tin Estate", "Country Code": "HK", "Population": 12329.0, "Lat": 22.3149, "Lon": 114.18252}], "Ho Xa": [{"Name": "H\u1ed3 X\u00e1", "Country Code": "VN", "Population": 0.0, "Lat": 17.06836, "Lon": 107.0052}], "Ho-Ho-Kus": [{"Name": "Ho-Ho-Kus", "Country Code": "US", "Population": 4165.0, "Lat": 40.99649, "Lon": -74.10125}], "Hoa Binh": [{"Name": "H\u00f2a B\u00ecnh", "Country Code": "VN", "Population": 105260.0, "Lat": 20.81717, "Lon": 105.33759}, {"Name": "H\u00f2a B\u00ecnh", "Country Code": "VN", "Population": 0.0, "Lat": 19.26393, "Lon": 104.47232}], "Hoa Mac": [{"Name": "H\u00f2a M\u1ea1c", "Country Code": "VN", "Population": 0.0, "Lat": 20.64173, "Lon": 105.989}], "Hoa Thanh": [{"Name": "H\u00f2a Th\u00e0nh", "Country Code": "VN", "Population": 0.0, "Lat": 11.28696, "Lon": 106.12936}], "Hoa Vang": [{"Name": "H\u00f2a Vang", "Country Code": "VN", "Population": 0.0, "Lat": 15.98764, "Lon": 108.13893}], "Hoachanas": [{"Name": "Hoachanas", "Country Code": NaN, "Population": 3000.0, "Lat": -23.92109, "Lon": 18.05328}], "Hoai An": [{"Name": "Ho\u00e0i \u00c2n", "Country Code": "VN", "Population": 0.0, "Lat": 14.36352, "Lon": 108.96476}], "Hoan Kiem": [{"Name": "Ho\u00e0n Ki\u1ebfm", "Country Code": "VN", "Population": 0.0, "Lat": 21.02857, "Lon": 105.85064}], "Hoan Lao": [{"Name": "Ho\u00e0n L\u00e3o", "Country Code": "VN", "Population": 0.0, "Lat": 17.58436, "Lon": 106.53425}], "Hoang Sa": [{"Name": "Ho\u00e0ng Sa", "Country Code": "VN", "Population": 0.0, "Lat": 16.66657, "Lon": 112.72541}, {"Name": "Ho\u00e0ng Sa", "Country Code": "VN", "Population": 0.0, "Lat": 16.83517, "Lon": 112.33873}], "Hoani": [{"Name": "Hoani", "Country Code": "KM", "Population": 1114.0, "Lat": -12.25083, "Lon": 43.67472}], "Hoback": [{"Name": "Hoback", "Country Code": "US", "Population": 1176.0, "Lat": 43.28187, "Lon": -110.78381}], "Hobaramachi": [{"Name": "Hobaramachi", "Country Code": "JP", "Population": 24515.0, "Lat": 37.81667, "Lon": 140.55}], "Hobart": [{"Name": "Hobart", "Country Code": "AU", "Population": 247086.0, "Lat": -42.87936, "Lon": 147.32941}, {"Name": "Hobart", "Country Code": "US", "Population": 3621.0, "Lat": 35.0295, "Lon": -99.09313}, {"Name": "Hobart", "Country Code": "US", "Population": 6221.0, "Lat": 47.42177, "Lon": -121.97289}, {"Name": "Hobart", "Country Code": "US", "Population": 8283.0, "Lat": 44.49925, "Lon": -88.14986}, {"Name": "Hobart", "Country Code": "US", "Population": 28404.0, "Lat": 41.53226, "Lon": -87.25504}], "Hobart city centre": [{"Name": "Hobart city centre", "Country Code": "AU", "Population": 3971.0, "Lat": -42.8828, "Lon": 147.32582}], "Hobartville": [{"Name": "Hobartville", "Country Code": "AU", "Population": 2734.0, "Lat": -33.60435, "Lon": 150.74299}], "Hobbs": [{"Name": "Hobbs", "Country Code": "US", "Population": 38416.0, "Lat": 32.70261, "Lon": -103.13604}], "Hobe Sound": [{"Name": "Hobe Sound", "Country Code": "US", "Population": 11521.0, "Lat": 27.0595, "Lon": -80.13643}], "Hobo": [{"Name": "Hobo", "Country Code": "CO", "Population": 4444.0, "Lat": 2.58333, "Lon": -75.45}, {"Name": "Hobo", "Country Code": "PH", "Population": 3373.0, "Lat": 13.5101, "Lon": 123.1792}], "Hoboken": [{"Name": "Hoboken", "Country Code": "BE", "Population": 34443.0, "Lat": 51.17611, "Lon": 4.34844}, {"Name": "Hoboken", "Country Code": "US", "Population": 53635.0, "Lat": 40.74399, "Lon": -74.03236}], "Hobor": [{"Name": "Hobor", "Country Code": "CN", "Population": 0.0, "Lat": 41.27154, "Lon": 112.62663}], "Hobro": [{"Name": "Hobro", "Country Code": "DK", "Population": 12071.0, "Lat": 56.64306, "Lon": 9.79029}], "Hobscheid": [{"Name": "Hobscheid", "Country Code": "LU", "Population": 1051.0, "Lat": 49.68861, "Lon": 5.91472}], "Hobyo": [{"Name": "Hobyo", "Country Code": "SO", "Population": 12564.0, "Lat": 5.3505, "Lon": 48.5268}], "Hoc Mon": [{"Name": "H\u00f3c M\u00f4n", "Country Code": "VN", "Population": 0.0, "Lat": 10.8891, "Lon": 106.59533}], "Hocaba": [{"Name": "Hocaba", "Country Code": "MX", "Population": 4127.0, "Lat": 20.8162, "Lon": -89.24626}], "Hocalar": [{"Name": "Hocalar", "Country Code": "TR", "Population": 2588.0, "Lat": 38.57824, "Lon": 29.96768}], "Hoceni": [{"Name": "Hoceni", "Country Code": "RO", "Population": 3192.0, "Lat": 46.53917, "Lon": 28.00667}], "Hochberg": [{"Name": "H\u00f6chberg", "Country Code": "DE", "Population": 9372.0, "Lat": 49.78446, "Lon": 9.88223}], "Hochburg-Ach": [{"Name": "Hochburg-Ach", "Country Code": "AT", "Population": 0.0, "Lat": 48.13001, "Lon": 12.87735}], "Hochdonn": [{"Name": "Hochdonn", "Country Code": "DE", "Population": 1233.0, "Lat": 54.02663, "Lon": 9.27624}], "Hochdorf": [{"Name": "Hochdorf", "Country Code": "CH", "Population": 8192.0, "Lat": 47.16841, "Lon": 8.29179}, {"Name": "Hochdorf", "Country Code": "DE", "Population": 4665.0, "Lat": 48.69283, "Lon": 9.46494}, {"Name": "Hochdorf", "Country Code": "DE", "Population": 2069.0, "Lat": 48.0256, "Lon": 9.78778}], "Hochdorf-Assenheim": [{"Name": "Hochdorf-Assenheim", "Country Code": "DE", "Population": 3041.0, "Lat": 49.41944, "Lon": 8.28167}], "Hochenschwand": [{"Name": "H\u00f6chenschwand", "Country Code": "DE", "Population": 2478.0, "Lat": 47.73333, "Lon": 8.16667}], "Hochfeld": [{"Name": "Hochfeld", "Country Code": "DE", "Population": 16292.0, "Lat": 51.41943, "Lon": 6.75462}], "Hochfelden": [{"Name": "Hochfelden", "Country Code": "CH", "Population": 1442.0, "Lat": 47.52262, "Lon": 8.51564}, {"Name": "Hochfelden", "Country Code": "FR", "Population": 3120.0, "Lat": 48.75738, "Lon": 7.56769}], "Hochfilzen": [{"Name": "Hochfilzen", "Country Code": "AT", "Population": 1196.0, "Lat": 47.46667, "Lon": 12.61667}], "Hochheim": [{"Name": "H\u00f6chheim", "Country Code": "DE", "Population": 1295.0, "Lat": 50.36667, "Lon": 10.45}], "Hochheim am Main": [{"Name": "Hochheim am Main", "Country Code": "DE", "Population": 17027.0, "Lat": 50.01436, "Lon": 8.35218}], "Hochkirch": [{"Name": "Hochkirch", "Country Code": "DE", "Population": 2525.0, "Lat": 51.14898, "Lon": 14.57063}], "Hochleithen": [{"Name": "Hochleithen", "Country Code": "AT", "Population": 0.0, "Lat": 48.45317, "Lon": 16.5309}], "Hochpoint": [{"Name": "Hochpoint", "Country Code": "AT", "Population": 1545.0, "Lat": 48.16139, "Lon": 14.03838}], "Hochspeyer": [{"Name": "Hochspeyer", "Country Code": "DE", "Population": 4877.0, "Lat": 49.44207, "Lon": 7.89504}], "Hochstadt": [{"Name": "Hochstadt", "Country Code": "DE", "Population": 2461.0, "Lat": 49.2475, "Lon": 8.20889}], "Hochstadt am Main": [{"Name": "Hochstadt am Main", "Country Code": "DE", "Population": 1702.0, "Lat": 50.15009, "Lon": 11.17116}], "Hochstadt an der Aisch": [{"Name": "H\u00f6chstadt an der Aisch", "Country Code": "DE", "Population": 13418.0, "Lat": 49.70617, "Lon": 10.81329}], "Hochstadt an der Donau": [{"Name": "H\u00f6chst\u00e4dt an der Donau", "Country Code": "DE", "Population": 6795.0, "Lat": 48.61124, "Lon": 10.56816}], "Hochstadt bei Thiersheim": [{"Name": "H\u00f6chst\u00e4dt bei Thiersheim", "Country Code": "DE", "Population": 1225.0, "Lat": 50.10157, "Lon": 12.08711}], "Hochstatt": [{"Name": "Hochstatt", "Country Code": "FR", "Population": 1973.0, "Lat": 47.70389, "Lon": 7.2765}], "Hochstetten-Dhaun": [{"Name": "Hochstetten-Dhaun", "Country Code": "DE", "Population": 1648.0, "Lat": 49.8, "Lon": 7.5}], "Hochtregist": [{"Name": "Hochtregist", "Country Code": "AT", "Population": 1129.0, "Lat": 47.1, "Lon": 15.13333}], "Hochwald": [{"Name": "Hochwald", "Country Code": "CH", "Population": 1254.0, "Lat": 47.45389, "Lon": 7.64459}], "Hochwolkersdorf": [{"Name": "Hochwolkersdorf", "Country Code": "AT", "Population": 865.0, "Lat": 47.66127, "Lon": 16.28072}], "Hocisht": [{"Name": "Ho\u00e7isht", "Country Code": "AL", "Population": 0.0, "Lat": 40.60833, "Lon": 20.91417}], "Hociungi": [{"Name": "Hociungi", "Country Code": "RO", "Population": 1155.0, "Lat": 46.81311, "Lon": 26.77596}], "Hockenheim": [{"Name": "Hockenheim", "Country Code": "DE", "Population": 20614.0, "Lat": 49.32334, "Lon": 8.55194}], "Hockessin": [{"Name": "Hockessin", "Country Code": "US", "Population": 13527.0, "Lat": 39.78761, "Lon": -75.6966}], "Hocking": [{"Name": "Hocking", "Country Code": "AU", "Population": 5783.0, "Lat": -31.77012, "Lon": 115.81832}], "Hockinson": [{"Name": "Hockinson", "Country Code": "US", "Population": 4771.0, "Lat": 45.73789, "Lon": -122.48704}], "Hockley": [{"Name": "Hockley", "Country Code": "GB", "Population": 13919.0, "Lat": 52.5, "Lon": -1.91667}], "Hockley Heath": [{"Name": "Hockley Heath", "Country Code": "GB", "Population": 1604.0, "Lat": 52.35294, "Lon": -1.77816}], "Hockliffe": [{"Name": "Hockliffe", "Country Code": "GB", "Population": 823.0, "Lat": 51.93109, "Lon": -0.58652}], "Hockwold cum Wilton": [{"Name": "Hockwold cum Wilton", "Country Code": "GB", "Population": 1195.0, "Lat": 52.4638, "Lon": 0.54614}], "Hoctun": [{"Name": "Hoctun", "Country Code": "MX", "Population": 4686.0, "Lat": 20.86513, "Lon": -89.20125}], "Hod HaSharon": [{"Name": "Hod HaSharon", "Country Code": "IL", "Population": 63175.0, "Lat": 32.15934, "Lon": 34.8932}], "Hodac": [{"Name": "Hodac", "Country Code": "RO", "Population": 4892.0, "Lat": 46.77967, "Lon": 24.93667}], "Hodal": [{"Name": "Hodal", "Country Code": "IN", "Population": 44300.0, "Lat": 27.89196, "Lon": 77.36744}], "Hodasz": [{"Name": "Hod\u00e1sz", "Country Code": "HU", "Population": 3489.0, "Lat": 47.91834, "Lon": 22.20153}], "Hoddesdon": [{"Name": "Hoddesdon", "Country Code": "GB", "Population": 35174.0, "Lat": 51.76148, "Lon": -0.01144}], "Hodeige": [{"Name": "Hodeige", "Country Code": "BE", "Population": 1063.0, "Lat": 50.69635, "Lon": 5.34159}], "Hodenhagen": [{"Name": "Hodenhagen", "Country Code": "DE", "Population": 3168.0, "Lat": 52.76506, "Lon": 9.59495}], "Hodgdon": [{"Name": "Hodgdon", "Country Code": "US", "Population": 1289.0, "Lat": 46.05394, "Lon": -67.86668}], "Hodgenville": [{"Name": "Hodgenville", "Country Code": "US", "Population": 3256.0, "Lat": 37.57395, "Lon": -85.73996}], "Hodgkins": [{"Name": "Hodgkins", "Country Code": "US", "Population": 1868.0, "Lat": 41.76892, "Lon": -87.85783}], "Hodgson Vale": [{"Name": "Hodgson Vale", "Country Code": "AU", "Population": 1345.0, "Lat": -27.66518, "Lon": 151.93251}], "Hodkovice nad Mohelkou": [{"Name": "Hodkovice nad Mohelkou", "Country Code": "CZ", "Population": 2659.0, "Lat": 50.66586, "Lon": 15.08985}], "Hodkovicky": [{"Name": "Hodkovi\u010dky", "Country Code": "CZ", "Population": 3584.0, "Lat": 50.02346, "Lon": 14.41415}], "Hodmezovasarhely": [{"Name": "H\u00f3dmez\u0151v\u00e1s\u00e1rhely", "Country Code": "HU", "Population": 44009.0, "Lat": 46.41667, "Lon": 20.33333}], "Hodod": [{"Name": "Hodod", "Country Code": "RO", "Population": 3131.0, "Lat": 47.4, "Lon": 23.03333}], "Hodoni": [{"Name": "Hodoni", "Country Code": "RO", "Population": 1108.0, "Lat": 45.90646, "Lon": 21.08851}], "Hodonice": [{"Name": "Hodonice", "Country Code": "CZ", "Population": 1648.0, "Lat": 48.8368, "Lon": 16.16337}], "Hodonin": [{"Name": "Hodon\u00edn", "Country Code": "CZ", "Population": 26345.0, "Lat": 48.84893, "Lon": 17.13244}], "Hodora": [{"Name": "Hodora", "Country Code": "RO", "Population": 1387.0, "Lat": 47.33712, "Lon": 27.0197}], "Hodos": [{"Name": "Hodo\u0161", "Country Code": "SI", "Population": 228.0, "Lat": 46.82333, "Lon": 16.33417}], "Hodosa": [{"Name": "Hodo\u0219a", "Country Code": "RO", "Population": 1592.0, "Lat": 46.86558, "Lon": 25.4462}, {"Name": "Hodo\u015fa", "Country Code": "RO", "Population": 1390.0, "Lat": 46.63333, "Lon": 24.81667}], "Hodosan": [{"Name": "Hodo\u0161an", "Country Code": "HR", "Population": 1063.0, "Lat": 46.39528, "Lon": 16.64389}], "Hodrogo": [{"Name": "H\u00f6dr\u00f6g\u00f6", "Country Code": "MN", "Population": 0.0, "Lat": 48.87284, "Lon": 96.96259}], "Hodslavice": [{"Name": "Hodslavice", "Country Code": "CZ", "Population": 1699.0, "Lat": 49.53856, "Lon": 18.02367}], "Hodyliv": [{"Name": "Hodyliv", "Country Code": "UA", "Population": 1255.0, "Lat": 48.24623, "Lon": 25.92636}], "Hodynivka": [{"Name": "Hodynivka", "Country Code": "UA", "Population": 1261.0, "Lat": 48.18333, "Lon": 26.13333}], "Hoechst": [{"Name": "H\u00f6chst", "Country Code": "AT", "Population": 7995.0, "Lat": 47.45934, "Lon": 9.6405}], "Hoechst im Odenwald": [{"Name": "H\u00f6chst im Odenwald", "Country Code": "DE", "Population": 10209.0, "Lat": 49.79972, "Lon": 8.99944}], "Hoeckendorf": [{"Name": "H\u00f6ckendorf", "Country Code": "DE", "Population": 3156.0, "Lat": 51.22423, "Lon": 13.90935}], "Hoedspruit": [{"Name": "Hoedspruit", "Country Code": "ZA", "Population": 0.0, "Lat": -24.35122, "Lon": 30.95332}], "Hoef": [{"Name": "H\u00f6f", "Country Code": "AT", "Population": 1027.0, "Lat": 47.13401, "Lon": 15.49092}], "Hoefen": [{"Name": "H\u00f6fen", "Country Code": "AT", "Population": 1200.0, "Lat": 47.46667, "Lon": 10.68333}], "Hoeflein": [{"Name": "H\u00f6flein", "Country Code": "AT", "Population": 1234.0, "Lat": 48.06667, "Lon": 16.78333}], "Hoefling": [{"Name": "H\u00f6fling", "Country Code": "AT", "Population": 11.0, "Lat": 48.05444, "Lon": 15.03672}], "Hoefn": [{"Name": "H\u00f6fn", "Country Code": "IS", "Population": 1690.0, "Lat": 64.25388, "Lon": -15.21212}], "Hoegaarden": [{"Name": "Hoegaarden", "Country Code": "BE", "Population": 3226.0, "Lat": 50.7756, "Lon": 4.88952}], "Hoeganaes": [{"Name": "H\u00f6gan\u00e4s", "Country Code": "SE", "Population": 14778.0, "Lat": 56.19971, "Lon": 12.55795}], "Hoegsby": [{"Name": "H\u00f6gsby", "Country Code": "SE", "Population": 1923.0, "Lat": 57.16597, "Lon": 16.02562}], "Hoeheinoed": [{"Name": "H\u00f6hein\u00f6d", "Country Code": "DE", "Population": 1253.0, "Lat": 49.28966, "Lon": 7.60673}], "Hoehenberg": [{"Name": "H\u00f6henberg", "Country Code": "DE", "Population": 12133.0, "Lat": 50.93323, "Lon": 7.04138}], "Hoehnstedt": [{"Name": "H\u00f6hnstedt", "Country Code": "DE", "Population": 1645.0, "Lat": 51.50268, "Lon": 11.73844}], "Hoehr-Grenzhausen": [{"Name": "H\u00f6hr-Grenzhausen", "Country Code": "DE", "Population": 9794.0, "Lat": 50.43474, "Lon": 7.66903}], "Hoeilaart": [{"Name": "Hoeilaart", "Country Code": "BE", "Population": 10272.0, "Lat": 50.7673, "Lon": 4.46835}], "Hoeingen": [{"Name": "H\u00f6ingen", "Country Code": "DE", "Population": 1954.0, "Lat": 50.7191, "Lon": 8.91961}], "Hoek": [{"Name": "Hoek", "Country Code": "NL", "Population": 1100.0, "Lat": 53.20455, "Lon": 5.80192}], "Hoek van Holland": [{"Name": "Hoek van Holland", "Country Code": "NL", "Population": 9400.0, "Lat": 51.9775, "Lon": 4.13333}], "Hoekasen": [{"Name": "H\u00f6k\u00e5sen", "Country Code": "SE", "Population": 2986.0, "Lat": 59.66667, "Lon": 16.58333}], "Hoekoepinge": [{"Name": "H\u00f6k\u00f6pinge", "Country Code": "SE", "Population": 1164.0, "Lat": 55.49411, "Lon": 13.00782}], "Hoeleden": [{"Name": "Hoeleden", "Country Code": "BE", "Population": 1831.0, "Lat": 50.86662, "Lon": 4.98538}], "Hoellviken": [{"Name": "H\u00f6llviken", "Country Code": "SE", "Population": 14889.0, "Lat": 55.40982, "Lon": 12.9558}], "Hoeloe": [{"Name": "H\u00f6l\u00f6", "Country Code": "SE", "Population": 1477.0, "Lat": 59.01667, "Lon": 17.53333}], "Hoemul-li": [{"Name": "Hoemul-li", "Country Code": "KP", "Population": 11681.0, "Lat": 41.43389, "Lon": 129.67}], "Hoenam": [{"Name": "Hoenam", "Country Code": "KR", "Population": 0.0, "Lat": 36.44445, "Lon": 127.58033}], "Hoenigsberg": [{"Name": "H\u00f6nigsberg", "Country Code": "AT", "Population": 1789.0, "Lat": 47.58038, "Lon": 15.64808}], "Hoenoe": [{"Name": "H\u00f6n\u00f6", "Country Code": "SE", "Population": 5293.0, "Lat": 57.68972, "Lon": 11.64972}], "Hoensbroek": [{"Name": "Hoensbroek", "Country Code": "NL", "Population": 25000.0, "Lat": 50.92387, "Lon": 5.92528}], "Hoeoer": [{"Name": "H\u00f6\u00f6r", "Country Code": "SE", "Population": 12152.0, "Lat": 55.93444, "Lon": 13.5385}], "Hoepertingen": [{"Name": "Hoepertingen", "Country Code": "BE", "Population": 2264.0, "Lat": 50.81217, "Lon": 5.28442}], "Hoerbranz": [{"Name": "H\u00f6rbranz", "Country Code": "AT", "Population": 6346.0, "Lat": 47.55, "Lon": 9.75}], "Hoerby": [{"Name": "H\u00f6rby", "Country Code": "SE", "Population": 7459.0, "Lat": 55.85238, "Lon": 13.66094}], "Hoerden": [{"Name": "H\u00f6rden", "Country Code": "DE", "Population": 1135.0, "Lat": 51.66835, "Lon": 10.28372}], "Hoeri": [{"Name": "H\u00f6ri", "Country Code": "CH", "Population": 1041.0, "Lat": 47.50799, "Lon": 8.51203}], "Hoernefors": [{"Name": "H\u00f6rnefors", "Country Code": "SE", "Population": 2514.0, "Lat": 63.62312, "Lon": 19.90856}], "Hoernsheim": [{"Name": "H\u00f6rnsheim", "Country Code": "DE", "Population": 3000.0, "Lat": 50.51828, "Lon": 8.62976}], "Hoersching": [{"Name": "H\u00f6rsching", "Country Code": "AT", "Population": 2155.0, "Lat": 48.22627, "Lon": 14.17786}], "Hoerselgau": [{"Name": "H\u00f6rselgau", "Country Code": "DE", "Population": 1311.0, "Lat": 50.91988, "Lon": 10.58444}], "Hoerstel": [{"Name": "H\u00f6rstel", "Country Code": "DE", "Population": 19894.0, "Lat": 52.29763, "Lon": 7.58382}], "Hoertendorf": [{"Name": "H\u00f6rtendorf", "Country Code": "AT", "Population": 2437.0, "Lat": 46.63333, "Lon": 14.4}], "Hoeryong": [{"Name": "Hoery\u014fng", "Country Code": "KP", "Population": 43831.0, "Lat": 42.44113, "Lon": 129.74601}], "Hoeselt": [{"Name": "Hoeselt", "Country Code": "BE", "Population": 9265.0, "Lat": 50.84714, "Lon": 5.48767}], "Hoetting": [{"Name": "H\u00f6tting", "Country Code": "AT", "Population": 35043.0, "Lat": 47.26815, "Lon": 11.36868}], "Hoeven": [{"Name": "Hoeven", "Country Code": "NL", "Population": 4895.0, "Lat": 51.57917, "Lon": 4.58333}, {"Name": "Hoeven", "Country Code": "NL", "Population": 1960.0, "Lat": 51.67206, "Lon": 5.63444}], "Hoevenen": [{"Name": "Hoevenen", "Country Code": "BE", "Population": 8473.0, "Lat": 51.30604, "Lon": 4.40203}], "Hoeviksnaes": [{"Name": "H\u00f6viksn\u00e4s", "Country Code": "SE", "Population": 1750.0, "Lat": 58.03333, "Lon": 11.76667}], "Hoeviyn Am": [{"Name": "H\u00f6viyn Am", "Country Code": "MN", "Population": 0.0, "Lat": 47.23123, "Lon": 98.5714}], "Hoexter": [{"Name": "H\u00f6xter", "Country Code": "DE", "Population": 32713.0, "Lat": 51.77501, "Lon": 9.38155}], "Hoeyang": [{"Name": "Hoeyang", "Country Code": "KP", "Population": 21111.0, "Lat": 38.71028, "Lon": 127.59833}], "Hof": [{"Name": "Hof", "Country Code": "AT", "Population": 1295.0, "Lat": 47.35, "Lon": 13.31667}, {"Name": "Hof", "Country Code": "AT", "Population": 1187.0, "Lat": 47.86667, "Lon": 13.31667}, {"Name": "Hof", "Country Code": "DE", "Population": 49239.0, "Lat": 50.31297, "Lon": 11.91261}, {"Name": "Hof", "Country Code": "DE", "Population": 1284.0, "Lat": 50.66667, "Lon": 8.01667}], "Hof am Leithaberge": [{"Name": "Hof am Leithaberge", "Country Code": "AT", "Population": 1549.0, "Lat": 47.95, "Lon": 16.58333}], "Hof bei Salzburg": [{"Name": "Hof bei Salzburg", "Country Code": "AT", "Population": 3562.0, "Lat": 47.81929, "Lon": 13.21488}], "Hof bei Straden": [{"Name": "Hof bei Straden", "Country Code": "AT", "Population": 380.0, "Lat": 46.8, "Lon": 15.93333}], "Hofamt Priel": [{"Name": "Hofamt Priel", "Country Code": "AT", "Population": 475.0, "Lat": 48.19581, "Lon": 15.07746}], "Hofbieber": [{"Name": "Hofbieber", "Country Code": "DE", "Population": 6372.0, "Lat": 50.58629, "Lon": 9.83534}], "Hofen an der Enz": [{"Name": "H\u00f6fen an der Enz", "Country Code": "DE", "Population": 1726.0, "Lat": 48.8, "Lon": 8.58333}], "Hoffman Estates": [{"Name": "Hoffman Estates", "Country Code": "US", "Population": 52138.0, "Lat": 42.04281, "Lon": -88.0798}], "Hofgeest": [{"Name": "Hofgeest", "Country Code": "NL", "Population": 1440.0, "Lat": 52.44333, "Lon": 4.65833}], "Hofgeismar": [{"Name": "Hofgeismar", "Country Code": "DE", "Population": 16444.0, "Lat": 51.49607, "Lon": 9.385}], "Hofheim am Taunus": [{"Name": "Hofheim am Taunus", "Country Code": "DE", "Population": 37750.0, "Lat": 50.09019, "Lon": 8.4493}], "Hofheim in Unterfranken": [{"Name": "Hofheim in Unterfranken", "Country Code": "DE", "Population": 5199.0, "Lat": 50.13675, "Lon": 10.52321}], "Hofkirchen": [{"Name": "Hofkirchen", "Country Code": "DE", "Population": 3712.0, "Lat": 48.67805, "Lon": 13.11917}], "Hofkirchen im Traunkreis": [{"Name": "Hofkirchen im Traunkreis", "Country Code": "AT", "Population": 1266.0, "Lat": 48.14312, "Lon": 14.37776}], "Hofmeyr": [{"Name": "Hofmeyr", "Country Code": "ZA", "Population": 4410.0, "Lat": -31.65349, "Lon": 25.80366}], "Hofors": [{"Name": "Hofors", "Country Code": "SE", "Population": 6090.0, "Lat": 60.54573, "Lon": 16.28668}], "Hofstade": [{"Name": "Hofstade", "Country Code": "BE", "Population": 5927.0, "Lat": 50.9613, "Lon": 4.02663}, {"Name": "Hofstade", "Country Code": "BE", "Population": 4868.0, "Lat": 50.99134, "Lon": 4.49229}], "Hofstaetten an der Raab": [{"Name": "Hofst\u00e4tten an der Raab", "Country Code": "AT", "Population": 574.0, "Lat": 47.06667, "Lon": 15.73333}], "Hofstetten": [{"Name": "Hofstetten", "Country Code": "AT", "Population": 1141.0, "Lat": 48.09711, "Lon": 15.51149}, {"Name": "Hofstetten", "Country Code": "CH", "Population": 1115.0, "Lat": 47.47778, "Lon": 8.50646}, {"Name": "Hofstetten", "Country Code": "DE", "Population": 1764.0, "Lat": 48.00847, "Lon": 10.97114}, {"Name": "Hofstetten", "Country Code": "DE", "Population": 1661.0, "Lat": 48.25846, "Lon": 8.06595}], "Hofterup": [{"Name": "Hofterup", "Country Code": "SE", "Population": 3814.0, "Lat": 55.80485, "Lon": 12.9797}], "Hofu": [{"Name": "H\u014dfu", "Country Code": "JP", "Population": 116925.0, "Lat": 34.05, "Lon": 131.56667}], "Hogansville": [{"Name": "Hogansville", "Country Code": "US", "Population": 3110.0, "Lat": 33.17318, "Lon": -84.91494}], "Hoge Mors": [{"Name": "Hoge Mors", "Country Code": "NL", "Population": 5050.0, "Lat": 52.15616, "Lon": 4.46025}], "Hoge Vucht": [{"Name": "Hoge Vucht", "Country Code": "NL", "Population": 16000.0, "Lat": 51.60794, "Lon": 4.7915}], "Hoghilag": [{"Name": "Hoghilag", "Country Code": "RO", "Population": 2110.0, "Lat": 46.23333, "Lon": 24.61667}], "Hoghiz": [{"Name": "Hoghiz", "Country Code": "RO", "Population": 4876.0, "Lat": 45.98333, "Lon": 25.3}], "Hognoul": [{"Name": "Hognoul", "Country Code": "BE", "Population": 1298.0, "Lat": 50.68178, "Lon": 5.45385}], "Hogsback": [{"Name": "Hogsback", "Country Code": "ZA", "Population": 1232.0, "Lat": -32.59527, "Lon": 26.94019}], "Hogyesz": [{"Name": "H\u0151gy\u00e9sz", "Country Code": "HU", "Population": 3029.0, "Lat": 46.49697, "Lon": 18.41841}], "Hoh Ereg": [{"Name": "Hoh Ereg", "Country Code": "CN", "Population": 0.0, "Lat": 41.09556, "Lon": 111.44083}], "Hohberg": [{"Name": "Hohberg", "Country Code": "DE", "Population": 7809.0, "Lat": 48.3227, "Lon": 7.89972}], "Hohburd": [{"Name": "H\u00f6hb\u00fcrd", "Country Code": "MN", "Population": 0.0, "Lat": 46.28575, "Lon": 100.44834}], "Hohburg": [{"Name": "Hohburg", "Country Code": "DE", "Population": 3061.0, "Lat": 51.41168, "Lon": 12.80508}], "Hoheischweiler": [{"Name": "H\u00f6heischweiler", "Country Code": "DE", "Population": 1018.0, "Lat": 49.23333, "Lon": 7.55}], "Hoheluft-Ost": [{"Name": "Hoheluft-Ost", "Country Code": "DE", "Population": 23116.0, "Lat": 53.58399, "Lon": 9.97585}], "Hoheluft-West": [{"Name": "Hoheluft-West", "Country Code": "DE", "Population": 13435.0, "Lat": 53.58067, "Lon": 9.96704}], "Hohen Neuendorf": [{"Name": "Hohen Neuendorf", "Country Code": "DE", "Population": 21893.0, "Lat": 52.67631, "Lon": 13.27775}], "Hohenaspe": [{"Name": "Hohenaspe", "Country Code": "DE", "Population": 2089.0, "Lat": 53.98898, "Lon": 9.52774}], "Hohenau": [{"Name": "Hohenau", "Country Code": "AT", "Population": 2738.0, "Lat": 48.6042, "Lon": 16.9047}, {"Name": "Hohenau", "Country Code": "DE", "Population": 3536.0, "Lat": 48.84983, "Lon": 13.48825}, {"Name": "Hohenau", "Country Code": "PY", "Population": 5306.0, "Lat": -27.07315, "Lon": -55.64247}], "Hohenau an der Raab": [{"Name": "Hohenau an der Raab", "Country Code": "AT", "Population": 492.0, "Lat": 47.3, "Lon": 15.55}], "Hohenberg": [{"Name": "Hohenberg", "Country Code": "AT", "Population": 850.0, "Lat": 47.90679, "Lon": 15.61998}], "Hohenberg an der Eger": [{"Name": "Hohenberg an der Eger", "Country Code": "DE", "Population": 1567.0, "Lat": 50.09501, "Lon": 12.22008}], "Hohenbocka": [{"Name": "Hohenbocka", "Country Code": "DE", "Population": 1192.0, "Lat": 51.43099, "Lon": 14.00982}], "Hohenbrunn": [{"Name": "Hohenbrunn", "Country Code": "DE", "Population": 8590.0, "Lat": 48.04785, "Lon": 11.70224}], "Hohenburg": [{"Name": "Hohenburg", "Country Code": "DE", "Population": 1544.0, "Lat": 49.29507, "Lon": 11.79906}], "Hohendodeleben": [{"Name": "Hohendodeleben", "Country Code": "DE", "Population": 1834.0, "Lat": 52.10412, "Lon": 11.50473}], "Hoheneich": [{"Name": "Hoheneich", "Country Code": "AT", "Population": 1035.0, "Lat": 48.77195, "Lon": 15.02857}], "Hohenems": [{"Name": "Hohenems", "Country Code": "AT", "Population": 16317.0, "Lat": 47.36121, "Lon": 9.68694}], "Hohenfelde": [{"Name": "Hohenfelde", "Country Code": "DE", "Population": 1104.0, "Lat": 54.36667, "Lon": 10.5}], "Hohenfels": [{"Name": "Hohenfels", "Country Code": "DE", "Population": 2156.0, "Lat": 49.20397, "Lon": 11.84841}], "Hohenfurch": [{"Name": "Hohenfurch", "Country Code": "DE", "Population": 1512.0, "Lat": 47.85, "Lon": 10.9}], "Hohenhameln": [{"Name": "Hohenhameln", "Country Code": "DE", "Population": 9815.0, "Lat": 52.25755, "Lon": 10.06416}], "Hohenkammer": [{"Name": "Hohenkammer", "Country Code": "DE", "Population": 2256.0, "Lat": 48.42406, "Lon": 11.52522}], "Hohenkirchen-Siegertsbrunn": [{"Name": "H\u00f6henkirchen-Siegertsbrunn", "Country Code": "DE", "Population": 9465.0, "Lat": 48.01932, "Lon": 11.71906}], "Hohenleipisch": [{"Name": "Hohenleipisch", "Country Code": "DE", "Population": 2562.0, "Lat": 51.5, "Lon": 13.55}], "Hohenleuben": [{"Name": "Hohenleuben", "Country Code": "DE", "Population": 1778.0, "Lat": 50.71128, "Lon": 12.05427}], "Hohenlinden": [{"Name": "Hohenlinden", "Country Code": "DE", "Population": 2769.0, "Lat": 48.15612, "Lon": 11.99458}], "Hohenlockstedt": [{"Name": "Hohenlockstedt", "Country Code": "DE", "Population": 6224.0, "Lat": 53.96667, "Lon": 9.61667}], "Hohenmoelsen": [{"Name": "Hohenm\u00f6lsen", "Country Code": "DE", "Population": 9772.0, "Lat": 51.15769, "Lon": 12.1}], "Hohenpeissenberg": [{"Name": "Hohenpei\u00dfenberg", "Country Code": "DE", "Population": 3924.0, "Lat": 47.8, "Lon": 11.0}], "Hohenpolding": [{"Name": "Hohenpolding", "Country Code": "DE", "Population": 1410.0, "Lat": 48.38333, "Lon": 12.13333}], "Hohenrain": [{"Name": "Hohenrain", "Country Code": "CH", "Population": 2090.0, "Lat": 47.18083, "Lon": 8.31802}], "Hohenruppersdorf": [{"Name": "Hohenruppersdorf", "Country Code": "AT", "Population": 910.0, "Lat": 48.46439, "Lon": 16.65244}], "Hohenstein-Ernstthal": [{"Name": "Hohenstein-Ernstthal", "Country Code": "DE", "Population": 16542.0, "Lat": 50.80064, "Lon": 12.71287}], "Hohentannen": [{"Name": "Hohentannen", "Country Code": "CH", "Population": 0.0, "Lat": 47.50862, "Lon": 9.225}], "Hohentauern": [{"Name": "Hohentauern", "Country Code": "AT", "Population": 327.0, "Lat": 47.43333, "Lon": 14.48333}], "Hohentengen": [{"Name": "Hohentengen", "Country Code": "DE", "Population": 3556.0, "Lat": 47.57005, "Lon": 8.4325}, {"Name": "Hohentengen", "Country Code": "DE", "Population": 4453.0, "Lat": 48.02946, "Lon": 9.37739}], "Hohenthann": [{"Name": "Hohenthann", "Country Code": "DE", "Population": 3741.0, "Lat": 48.66115, "Lon": 12.09251}], "Hohenthurm": [{"Name": "Hohenthurm", "Country Code": "DE", "Population": 2285.0, "Lat": 51.51807, "Lon": 12.09749}], "Hohenthurn": [{"Name": "Hohenthurn", "Country Code": "AT", "Population": 209.0, "Lat": 46.55774, "Lon": 13.66038}], "Hohenwald": [{"Name": "Hohenwald", "Country Code": "US", "Population": 3667.0, "Lat": 35.54785, "Lon": -87.55196}], "Hohenwarsleben": [{"Name": "Hohenwarsleben", "Country Code": "DE", "Population": 1550.0, "Lat": 52.17898, "Lon": 11.49994}], "Hohenwarth": [{"Name": "Hohenwarth", "Country Code": "DE", "Population": 2132.0, "Lat": 49.2, "Lon": 12.93333}], "Hohenwarthe": [{"Name": "Hohenwarthe", "Country Code": "DE", "Population": 1475.0, "Lat": 52.22968, "Lon": 11.71528}], "Hohenweiler": [{"Name": "Hohenweiler", "Country Code": "AT", "Population": 1271.0, "Lat": 47.58449, "Lon": 9.7795}], "Hohenwestedt": [{"Name": "Hohenwestedt", "Country Code": "DE", "Population": 5092.0, "Lat": 54.08886, "Lon": 9.65359}], "Hohetor": [{"Name": "Hohetor", "Country Code": "DE", "Population": 1836.0, "Lat": 52.26275, "Lon": 10.51255}], "Hohhot": [{"Name": "Hohhot", "Country Code": "CN", "Population": 2350000.0, "Lat": 40.81056, "Lon": 111.65222}], "Hohn": [{"Name": "H\u00f6hn", "Country Code": "DE", "Population": 3238.0, "Lat": 50.61667, "Lon": 7.98333}, {"Name": "Hohn", "Country Code": "DE", "Population": 2326.0, "Lat": 54.3, "Lon": 9.5}], "Hohndorf": [{"Name": "Hohndorf", "Country Code": "DE", "Population": 3976.0, "Lat": 50.74044, "Lon": 12.68058}], "Hohnhorst": [{"Name": "Hohnhorst", "Country Code": "DE", "Population": 2262.0, "Lat": 52.36942, "Lon": 9.37168}], "Hohnstein": [{"Name": "Hohnstein", "Country Code": "DE", "Population": 3806.0, "Lat": 50.97991, "Lon": 14.11408}], "Hohoe": [{"Name": "Hohoe", "Country Code": "GH", "Population": 92076.0, "Lat": 7.15181, "Lon": 0.47362}], "Hoholeve": [{"Name": "Hoholeve", "Country Code": "UA", "Population": 2503.0, "Lat": 49.92113, "Lon": 33.82236}], "Hohtolgoy": [{"Name": "H\u00f6htolgoy", "Country Code": "MN", "Population": 0.0, "Lat": 49.28001, "Lon": 90.91015}], "Hoi An": [{"Name": "Hoi An", "Country Code": "VN", "Population": 32757.0, "Lat": 15.87944, "Lon": 108.335}], "Hoi Fu Court": [{"Name": "Hoi Fu Court", "Country Code": "HK", "Population": 9540.0, "Lat": 22.31631, "Lon": 114.16466}], "Hoi Lai Estate": [{"Name": "Hoi Lai Estate", "Country Code": "HK", "Population": 16071.0, "Lat": 22.33182, "Lon": 114.14667}], "Hoi Lok Court": [{"Name": "Hoi Lok Court", "Country Code": "HK", "Population": 7247.0, "Lat": 22.32781, "Lon": 114.14913}], "Hoi Tat Estate": [{"Name": "Hoi Tat Estate", "Country Code": "HK", "Population": 3415.0, "Lat": 22.33017, "Lon": 114.14946}], "Hoi Ying Estate": [{"Name": "Hoi Ying Estate", "Country Code": "HK", "Population": 3444.0, "Lat": 22.32853, "Lon": 114.14825}], "Hoima": [{"Name": "Hoima", "Country Code": "UG", "Population": 39625.0, "Lat": 1.43314, "Lon": 31.35241}], "Hoisdorf": [{"Name": "Hoisdorf", "Country Code": "DE", "Population": 3460.0, "Lat": 53.65, "Lon": 10.31667}], "Hoisington": [{"Name": "Hoisington", "Country Code": "US", "Population": 2623.0, "Lat": 38.51807, "Lon": -98.77814}], "Hojai": [{"Name": "Hoj\u0101i", "Country Code": "IN", "Population": 36869.0, "Lat": 26.00281, "Lon": 92.85605}], "Hojancha": [{"Name": "Hojancha", "Country Code": "CR", "Population": 1823.0, "Lat": 10.0581, "Lon": -85.41809}], "Hojby": [{"Name": "H\u00f8jby", "Country Code": "DK", "Population": 4406.0, "Lat": 55.33177, "Lon": 10.43725}, {"Name": "H\u00f8jby", "Country Code": "DK", "Population": 1422.0, "Lat": 55.91148, "Lon": 11.59756}], "Hojer": [{"Name": "H\u00f8jer", "Country Code": "DK", "Population": 1102.0, "Lat": 54.96344, "Lon": 8.69853}], "Hojo": [{"Name": "H\u014dj\u014d", "Country Code": "JP", "Population": 27992.0, "Lat": 33.97661, "Lon": 132.77767}], "Hok Yuen": [{"Name": "Hok Yuen", "Country Code": "HK", "Population": 18091.0, "Lat": 22.31027, "Lon": 114.18816}], "Hokendauqua": [{"Name": "Hokendauqua", "Country Code": "US", "Population": 3378.0, "Lat": 40.66204, "Lon": -75.49102}], "Hokes Bluff": [{"Name": "Hokes Bluff", "Country Code": "US", "Population": 4301.0, "Lat": 33.99815, "Lon": -85.86636}], "Hokitika": [{"Name": "Hokitika", "Country Code": "NZ", "Population": 2860.0, "Lat": -42.71667, "Lon": 170.96667}], "Hokksund": [{"Name": "Hokksund", "Country Code": "NO", "Population": 0.0, "Lat": 59.77077, "Lon": 9.90987}], "Hokota": [{"Name": "Hokota", "Country Code": "JP", "Population": 0.0, "Lat": 36.15, "Lon": 140.51667}], "Hokowhitu": [{"Name": "Hokowhitu", "Country Code": "NZ", "Population": 10950.0, "Lat": -40.3626, "Lon": 175.63379}], "Hokuryu": [{"Name": "Hokury\u016b", "Country Code": "JP", "Population": 1965.0, "Lat": 43.78333, "Lon": 141.91667}], "Hokuto": [{"Name": "Hokuto", "Country Code": "JP", "Population": 46888.0, "Lat": 35.83458, "Lon": 138.39606}, {"Name": "Hokuto", "Country Code": "JP", "Population": 46083.0, "Lat": 41.81626, "Lon": 140.63472}], "Hol": [{"Name": "Hol", "Country Code": "NO", "Population": 0.0, "Lat": 60.61511, "Lon": 8.29398}], "Hola": [{"Name": "Hola", "Country Code": "KE", "Population": 20912.0, "Lat": -1.48256, "Lon": 40.03341}], "Hola Prystan": [{"Name": "Hola Prystan", "Country Code": "UA", "Population": 13544.0, "Lat": 46.52973, "Lon": 32.52408}], "Holalkere": [{"Name": "Holalkere", "Country Code": "IN", "Population": 15480.0, "Lat": 14.04295, "Lon": 76.18496}], "Holasovice": [{"Name": "Holasovice", "Country Code": "CZ", "Population": 1366.0, "Lat": 49.99843, "Lon": 17.80847}], "Holbaek": [{"Name": "Holb\u00e6k", "Country Code": "DK", "Population": 29608.0, "Lat": 55.7175, "Lon": 11.71279}], "Holbav": [{"Name": "Holbav", "Country Code": "RO", "Population": 1506.0, "Lat": 45.65922, "Lon": 25.38744}], "Holbeach": [{"Name": "Holbeach", "Country Code": "GB", "Population": 7914.0, "Lat": 52.80401, "Lon": 0.01442}], "Holbeck": [{"Name": "Holbeck", "Country Code": "GB", "Population": 5505.0, "Lat": 53.78359, "Lon": -1.56791}], "Holboca": [{"Name": "Holboca", "Country Code": "RO", "Population": 11971.0, "Lat": 47.15, "Lon": 27.7}], "Holboo": [{"Name": "Holboo", "Country Code": "MN", "Population": 0.0, "Lat": 48.58876, "Lon": 95.43257}], "Holborn": [{"Name": "Holborn", "Country Code": "GB", "Population": 13023.0, "Lat": 51.51753, "Lon": -0.12045}], "Holbrook": [{"Name": "Holbrook", "Country Code": "AU", "Population": 1688.0, "Lat": -35.721, "Lon": 147.31605}, {"Name": "Holbrook", "Country Code": "GB", "Population": 1090.0, "Lat": 51.9834, "Lon": 1.15854}, {"Name": "Holbrook", "Country Code": "US", "Population": 10791.0, "Lat": 42.1551, "Lon": -71.00866}, {"Name": "Holbrook", "Country Code": "US", "Population": 27195.0, "Lat": 40.81232, "Lon": -73.07844}, {"Name": "Holbrook", "Country Code": "US", "Population": 5019.0, "Lat": 34.90225, "Lon": -110.15818}], "Holca": [{"Name": "Holc\u00e1", "Country Code": "MX", "Population": 1988.0, "Lat": 20.75647, "Lon": -88.92916}], "Holcomb": [{"Name": "Holcomb", "Country Code": "US", "Population": 1361.0, "Lat": 42.90229, "Lon": -77.41971}, {"Name": "Holcomb", "Country Code": "US", "Population": 2163.0, "Lat": 37.98614, "Lon": -100.98933}], "Holden": [{"Name": "Holden", "Country Code": "US", "Population": 2263.0, "Lat": 38.71418, "Lon": -93.99133}, {"Name": "Holden", "Country Code": "US", "Population": 2939.0, "Lat": 44.75285, "Lon": -68.67892}, {"Name": "Holden", "Country Code": "US", "Population": 17016.0, "Lat": 42.35176, "Lon": -71.86341}], "Holden Heights": [{"Name": "Holden Heights", "Country Code": "US", "Population": 3679.0, "Lat": 28.49667, "Lon": -81.38785}], "Holden Hill": [{"Name": "Holden Hill", "Country Code": "AU", "Population": 3224.0, "Lat": -34.85161, "Lon": 138.67232}], "Holdenville": [{"Name": "Holdenville", "Country Code": "US", "Population": 5750.0, "Lat": 35.08036, "Lon": -96.39918}], "Holder": [{"Name": "Holder", "Country Code": "AU", "Population": 2539.0, "Lat": -35.33439, "Lon": 149.04614}], "Holderness": [{"Name": "Holderness", "Country Code": "US", "Population": 2056.0, "Lat": 43.73202, "Lon": -71.58841}], "Holdorf": [{"Name": "Holdorf", "Country Code": "DE", "Population": 6557.0, "Lat": 52.58333, "Lon": 8.11667}], "Holdrege": [{"Name": "Holdrege", "Country Code": "US", "Population": 5561.0, "Lat": 40.44029, "Lon": -99.36982}], "Hole Narsipur": [{"Name": "Hole Narsipur", "Country Code": "IN", "Population": 28285.0, "Lat": 12.78635, "Lon": 76.24331}], "Holeby": [{"Name": "Holeby", "Country Code": "DK", "Population": 1400.0, "Lat": 54.71148, "Lon": 11.46416}], "Holesov": [{"Name": "Hole\u0161ov", "Country Code": "CZ", "Population": 12384.0, "Lat": 49.33331, "Lon": 17.57832}], "Holetown": [{"Name": "Holetown", "Country Code": "BB", "Population": 1350.0, "Lat": 13.18672, "Lon": -59.63808}], "Holgate": [{"Name": "Holgate", "Country Code": "US", "Population": 1096.0, "Lat": 41.24894, "Lon": -84.133}], "Holguera": [{"Name": "Holguera", "Country Code": "ES", "Population": 770.0, "Lat": 39.89916, "Lon": -6.34999}], "Holguin": [{"Name": "Holgu\u00edn", "Country Code": "CU", "Population": 319102.0, "Lat": 20.88722, "Lon": -76.26306}], "Holhol": [{"Name": "Holhol", "Country Code": "DJ", "Population": 3519.0, "Lat": 11.31028, "Lon": 42.92944}], "Holic": [{"Name": "Hol\u00ed\u010d", "Country Code": "SK", "Population": 11174.0, "Lat": 48.81105, "Lon": 17.16238}], "Holice": [{"Name": "Holice", "Country Code": "CZ", "Population": 6219.0, "Lat": 50.06601, "Lon": 15.9859}], "Holiday": [{"Name": "Holiday", "Country Code": "US", "Population": 22403.0, "Lat": 28.18779, "Lon": -82.73955}], "Holiday City South": [{"Name": "Holiday City South", "Country Code": "US", "Population": 3689.0, "Lat": 39.95324, "Lon": -74.23778}], "Holiday City-Berkeley": [{"Name": "Holiday City-Berkeley", "Country Code": "US", "Population": 12831.0, "Lat": 39.9638, "Lon": -74.27803}], "Holiday Heights": [{"Name": "Holiday Heights", "Country Code": "US", "Population": 2099.0, "Lat": 39.94595, "Lon": -74.25403}], "Holiday Island": [{"Name": "Holiday Island", "Country Code": "US", "Population": 2373.0, "Lat": 36.48535, "Lon": -93.73214}], "Holiday Lakes": [{"Name": "Holiday Lakes", "Country Code": "US", "Population": 1166.0, "Lat": 29.20969, "Lon": -95.51689}], "Holiday Shores": [{"Name": "Holiday Shores", "Country Code": "US", "Population": 2882.0, "Lat": 38.92199, "Lon": -89.94066}], "Holiday Valley": [{"Name": "Holiday Valley", "Country Code": "US", "Population": 1510.0, "Lat": 39.85617, "Lon": -83.96854}], "Hollabrunn": [{"Name": "Hollabrunn", "Country Code": "AT", "Population": 6882.0, "Lat": 48.55, "Lon": 16.08333}], "Holladay": [{"Name": "Holladay", "Country Code": "US", "Population": 30864.0, "Lat": 40.66884, "Lon": -111.82466}], "Hollain": [{"Name": "Hollain", "Country Code": "BE", "Population": 1276.0, "Lat": 50.54165, "Lon": 3.42605}], "Holland": [{"Name": "Holland", "Country Code": "US", "Population": 1464.0, "Lat": 42.06398, "Lon": -72.1573}, {"Name": "Holland", "Country Code": "US", "Population": 1699.0, "Lat": 41.62172, "Lon": -83.7116}, {"Name": "Holland", "Country Code": "US", "Population": 33742.0, "Lat": 42.78752, "Lon": -86.10893}, {"Name": "Holland", "Country Code": "US", "Population": 1129.0, "Lat": 30.87824, "Lon": -97.40167}, {"Name": "Holland", "Country Code": "US", "Population": 1206.0, "Lat": 42.64117, "Lon": -78.54169}], "Holland Park": [{"Name": "Holland Park", "Country Code": "AU", "Population": 7983.0, "Lat": -27.51704, "Lon": 153.06744}], "Holland Park West": [{"Name": "Holland Park West", "Country Code": "AU", "Population": 6266.0, "Lat": -27.52625, "Lon": 153.06046}], "Hollandale": [{"Name": "Hollandale", "Country Code": "US", "Population": 2545.0, "Lat": 33.16901, "Lon": -90.85399}], "Hollandsche Rading": [{"Name": "Hollandsche Rading", "Country Code": "NL", "Population": 1325.0, "Lat": 52.175, "Lon": 5.17778}], "Holle": [{"Name": "Holle", "Country Code": "DE", "Population": 7349.0, "Lat": 52.08721, "Lon": 10.16012}], "Holleben": [{"Name": "Holleben", "Country Code": "DE", "Population": 1741.0, "Lat": 51.44047, "Lon": 11.89915}], "Hollenbach": [{"Name": "Hollenbach", "Country Code": "DE", "Population": 2372.0, "Lat": 48.48333, "Lon": 11.06667}], "Hollenegg": [{"Name": "Hollenegg", "Country Code": "AT", "Population": 201.0, "Lat": 46.79147, "Lon": 15.21345}], "Hollenstedt": [{"Name": "Hollenstedt", "Country Code": "DE", "Population": 3092.0, "Lat": 53.36667, "Lon": 9.71667}], "Hollenstein an der Ybbs": [{"Name": "Hollenstein an der Ybbs", "Country Code": "AT", "Population": 554.0, "Lat": 47.80305, "Lon": 14.77312}], "Hollenthon": [{"Name": "Hollenthon", "Country Code": "AT", "Population": 422.0, "Lat": 47.58938, "Lon": 16.26131}], "Holler": [{"Name": "Holler", "Country Code": "DE", "Population": 1191.0, "Lat": 50.41667, "Lon": 7.83333}], "Hollersbach im Pinzgau": [{"Name": "Hollersbach im Pinzgau", "Country Code": "AT", "Population": 415.0, "Lat": 47.27658, "Lon": 12.42326}], "Holley": [{"Name": "Holley", "Country Code": "US", "Population": 1630.0, "Lat": 30.44686, "Lon": -86.90691}, {"Name": "Holley", "Country Code": "US", "Population": 1735.0, "Lat": 43.22645, "Lon": -78.02668}], "Hollfeld": [{"Name": "Hollfeld", "Country Code": "DE", "Population": 5206.0, "Lat": 49.93793, "Lon": 11.29153}], "Holliday": [{"Name": "Holliday", "Country Code": "US", "Population": 1706.0, "Lat": 33.81621, "Lon": -98.69506}], "Hollidaysburg": [{"Name": "Hollidaysburg", "Country Code": "US", "Population": 5784.0, "Lat": 40.42729, "Lon": -78.3889}], "Hollingstedt": [{"Name": "Hollingstedt", "Country Code": "DE", "Population": 1021.0, "Lat": 54.45934, "Lon": 9.33695}], "Hollingworth": [{"Name": "Hollingworth", "Country Code": "GB", "Population": 2447.0, "Lat": 53.463, "Lon": -1.991}], "Hollins": [{"Name": "Hollins", "Country Code": "US", "Population": 14673.0, "Lat": 37.34125, "Lon": -79.9431}], "Hollis": [{"Name": "Hollis", "Country Code": "US", "Population": 7711.0, "Lat": 42.74314, "Lon": -71.59174}, {"Name": "Hollis", "Country Code": "US", "Population": 20269.0, "Lat": 40.71344, "Lon": -73.76708}, {"Name": "Hollis", "Country Code": "US", "Population": 1967.0, "Lat": 34.68839, "Lon": -99.91205}], "Hollis Center": [{"Name": "Hollis Center", "Country Code": "US", "Population": 4637.0, "Lat": 43.60508, "Lon": -70.59311}], "Hollister": [{"Name": "Hollister", "Country Code": "US", "Population": 37462.0, "Lat": 36.85245, "Lon": -121.4016}, {"Name": "Hollister", "Country Code": "US", "Population": 4499.0, "Lat": 36.62117, "Lon": -93.21546}], "Holliston": [{"Name": "Holliston", "Country Code": "US", "Population": 14010.0, "Lat": 42.2001, "Lon": -71.4245}], "Hollogne-aux-Pierres": [{"Name": "Hollogne-aux-Pierres", "Country Code": "BE", "Population": 14944.0, "Lat": 50.64059, "Lon": 5.47179}], "Hollola": [{"Name": "Hollola", "Country Code": "FI", "Population": 20405.0, "Lat": 61.05, "Lon": 25.43333}, {"Name": "Hollola", "Country Code": "FI", "Population": 0.0, "Lat": 61.0, "Lon": 25.5}], "Holloman Air Force Base": [{"Name": "Holloman Air Force Base", "Country Code": "US", "Population": 3054.0, "Lat": 32.84827, "Lon": -106.09977}], "Holloway": [{"Name": "Holloway", "Country Code": "GB", "Population": 41329.0, "Lat": 51.55237, "Lon": -0.12497}], "Holloways Beach": [{"Name": "Holloways Beach", "Country Code": "AU", "Population": 2376.0, "Lat": -16.84209, "Lon": 145.73922}], "Hollstadt": [{"Name": "Hollstadt", "Country Code": "DE", "Population": 1688.0, "Lat": 50.35, "Lon": 10.3}], "Hollum": [{"Name": "Hollum", "Country Code": "NL", "Population": 1160.0, "Lat": 53.4394, "Lon": 5.63805}], "Holly": [{"Name": "Holly", "Country Code": "US", "Population": 6169.0, "Lat": 42.79197, "Lon": -83.62773}], "Holly Hill": [{"Name": "Holly Hill", "Country Code": "US", "Population": 1237.0, "Lat": 33.32266, "Lon": -80.4137}, {"Name": "Holly Hill", "Country Code": "US", "Population": 11943.0, "Lat": 29.24359, "Lon": -81.03756}], "Holly Hills": [{"Name": "Holly Hills", "Country Code": "US", "Population": 2521.0, "Lat": 39.66757, "Lon": -104.91797}], "Holly Lake Ranch": [{"Name": "Holly Lake Ranch", "Country Code": "US", "Population": 2774.0, "Lat": 32.71336, "Lon": -95.19756}], "Holly Ridge": [{"Name": "Holly Ridge", "Country Code": "US", "Population": 2096.0, "Lat": 34.49544, "Lon": -77.55497}], "Holly Springs": [{"Name": "Holly Springs", "Country Code": "US", "Population": 7901.0, "Lat": 31.31573, "Lon": -89.97786}, {"Name": "Holly Springs", "Country Code": "US", "Population": 7610.0, "Lat": 34.7676, "Lon": -89.44869}, {"Name": "Holly Springs", "Country Code": "US", "Population": 10719.0, "Lat": 34.17399, "Lon": -84.50132}, {"Name": "Holly Springs", "Country Code": "US", "Population": 31377.0, "Lat": 35.65127, "Lon": -78.83362}], "Hollym": [{"Name": "Hollym", "Country Code": "GB", "Population": 339.0, "Lat": 53.70402, "Lon": 0.04008}], "Hollymead": [{"Name": "Hollymead", "Country Code": "US", "Population": 7690.0, "Lat": 38.11708, "Lon": -78.44168}], "Hollywell": [{"Name": "Hollywell", "Country Code": "AU", "Population": 2826.0, "Lat": -27.90076, "Lon": 153.39609}], "Hollywood": [{"Name": "Hollywood", "Country Code": "US", "Population": 4962.0, "Lat": 32.73434, "Lon": -80.24177}, {"Name": "Hollywood", "Country Code": "US", "Population": 149728.0, "Lat": 26.0112, "Lon": -80.14949}, {"Name": "Hollywood", "Country Code": "US", "Population": 167664.0, "Lat": 34.09834, "Lon": -118.32674}], "Hollywood Park": [{"Name": "Hollywood Park", "Country Code": "US", "Population": 3298.0, "Lat": 29.6005, "Lon": -98.48724}], "Holm": [{"Name": "Holm", "Country Code": "DE", "Population": 3094.0, "Lat": 53.61667, "Lon": 9.66667}], "Holma": [{"Name": "Holma", "Country Code": "NG", "Population": 9199.0, "Lat": 9.89863, "Lon": 13.0545}, {"Name": "Holma", "Country Code": "UA", "Population": 1635.0, "Lat": 47.92886, "Lon": 29.84923}], "Holmen": [{"Name": "Holmen", "Country Code": "US", "Population": 9651.0, "Lat": 43.9633, "Lon": -91.25625}], "Holmes Beach": [{"Name": "Holmes Beach", "Country Code": "US", "Population": 4199.0, "Lat": 27.49532, "Lon": -82.71093}], "Holmes Chapel": [{"Name": "Holmes Chapel", "Country Code": "GB", "Population": 5605.0, "Lat": 53.2014, "Lon": -2.35742}], "Holmestrand": [{"Name": "Holmestrand", "Country Code": "NO", "Population": 6135.0, "Lat": 59.48761, "Lon": 10.31761}], "Holmesville": [{"Name": "Holmesville", "Country Code": "AU", "Population": 1326.0, "Lat": -32.91667, "Lon": 151.58333}], "Holmfirth": [{"Name": "Holmfirth", "Country Code": "GB", "Population": 1980.0, "Lat": 53.56968, "Lon": -1.78777}], "Holmivskyi": [{"Name": "Holmivskyi", "Country Code": "UA", "Population": 6750.0, "Lat": 48.40463, "Lon": 38.08177}], "Holmpton": [{"Name": "Holmpton", "Country Code": "GB", "Population": 0.0, "Lat": 53.68771, "Lon": 0.06583}], "Holmsund": [{"Name": "Holmsund", "Country Code": "SE", "Population": 5962.0, "Lat": 63.70602, "Lon": 20.36409}], "Holmview": [{"Name": "Holmview", "Country Code": "AU", "Population": 2342.0, "Lat": -27.71631, "Lon": 153.17045}], "Holmwood": [{"Name": "Holmwood", "Country Code": "GB", "Population": 1094.0, "Lat": 51.18049, "Lon": -0.32176}], "Holnon": [{"Name": "Holnon", "Country Code": "FR", "Population": 1348.0, "Lat": 49.86086, "Lon": 3.21509}], "Holo": [{"Name": "H\u00f6l\u00f6", "Country Code": "SE", "Population": 1199.0, "Lat": 59.28333, "Lon": 18.66667}], "Holoby": [{"Name": "Holoby", "Country Code": "UA", "Population": 4203.0, "Lat": 51.08651, "Lon": 25.00767}], "Holod": [{"Name": "Holod", "Country Code": "RO", "Population": 3493.0, "Lat": 46.78333, "Lon": 22.13333}], "Holon": [{"Name": "H\u0331olon", "Country Code": "IL", "Population": 196282.0, "Lat": 32.01034, "Lon": 34.77918}], "Holoubkov": [{"Name": "Holoubkov", "Country Code": "CZ", "Population": 1485.0, "Lat": 49.77598, "Lon": 13.69246}], "Holovanivsk": [{"Name": "Holovanivsk", "Country Code": "UA", "Population": 5857.0, "Lat": 48.3874, "Lon": 30.45947}], "Holovyne": [{"Name": "Holovyne", "Country Code": "UA", "Population": 1785.0, "Lat": 50.47118, "Lon": 28.8253}], "Holroyd": [{"Name": "Holroyd", "Country Code": "AU", "Population": 1279.0, "Lat": -33.83078, "Lon": 150.99725}], "Holsbeek": [{"Name": "Holsbeek", "Country Code": "BE", "Population": 9094.0, "Lat": 50.92097, "Lon": 4.75747}], "Holstebro": [{"Name": "Holstebro", "Country Code": "DK", "Population": 32072.0, "Lat": 56.36009, "Lon": 8.61607}], "Holsted": [{"Name": "Holsted", "Country Code": "DK", "Population": 3046.0, "Lat": 55.51086, "Lon": 8.91872}], "Holstein": [{"Name": "H\u00f6lstein", "Country Code": "CH", "Population": 2249.0, "Lat": 47.4229, "Lon": 7.77041}, {"Name": "Holstein", "Country Code": "US", "Population": 1391.0, "Lat": 42.48915, "Lon": -95.545}], "Holsworthy": [{"Name": "Holsworthy", "Country Code": "AU", "Population": 5771.0, "Lat": -33.98333, "Lon": 150.96667}, {"Name": "Holsworthy", "Country Code": "GB", "Population": 2641.0, "Lat": 50.81196, "Lon": -4.35383}], "Holt": [{"Name": "Holt", "Country Code": "AU", "Population": 4524.0, "Lat": -35.22441, "Lon": 149.01188}, {"Name": "Holt", "Country Code": "GB", "Population": 0.0, "Lat": 53.06667, "Lon": -2.88333}, {"Name": "Holt", "Country Code": "GB", "Population": 1757.0, "Lat": 51.35556, "Lon": -2.19722}, {"Name": "Holt", "Country Code": "GB", "Population": 3810.0, "Lat": 52.90591, "Lon": 1.08863}, {"Name": "Holt", "Country Code": "RO", "Population": 1245.0, "Lat": 46.57856, "Lon": 26.97499}, {"Name": "Holt", "Country Code": "US", "Population": 23973.0, "Lat": 42.64059, "Lon": -84.51525}, {"Name": "Holt", "Country Code": "US", "Population": 3638.0, "Lat": 33.23401, "Lon": -87.48445}], "Holtby": [{"Name": "Holtby", "Country Code": "GB", "Population": 166.0, "Lat": 53.97876, "Lon": -0.97255}], "Holte": [{"Name": "Holte", "Country Code": "DK", "Population": 0.0, "Lat": 55.81667, "Lon": 12.46667}], "Holtland": [{"Name": "Holtland", "Country Code": "DE", "Population": 2248.0, "Lat": 53.28333, "Lon": 7.58333}], "Holton": [{"Name": "Holton", "Country Code": "US", "Population": 3263.0, "Lat": 39.46527, "Lon": -95.73637}], "Holton le Clay": [{"Name": "Holton le Clay", "Country Code": "GB", "Population": 3691.0, "Lat": 53.5052, "Lon": -0.063}], "Holts Summit": [{"Name": "Holts Summit", "Country Code": "US", "Population": 3600.0, "Lat": 38.64032, "Lon": -92.12241}], "Holtsee": [{"Name": "Holtsee", "Country Code": "DE", "Population": 1330.0, "Lat": 54.4, "Lon": 9.85}], "Holtsville": [{"Name": "Holtsville", "Country Code": "US", "Population": 19714.0, "Lat": 40.81538, "Lon": -73.04511}], "Holtum": [{"Name": "Holtum", "Country Code": "NL", "Population": 1170.0, "Lat": 51.0475, "Lon": 5.82222}], "Holtville": [{"Name": "Holtville", "Country Code": "US", "Population": 6404.0, "Lat": 32.81116, "Lon": -115.38026}, {"Name": "Holtville", "Country Code": "US", "Population": 4096.0, "Lat": 32.63624, "Lon": -86.32664}], "Holtze": [{"Name": "Holtze", "Country Code": "AU", "Population": 2333.0, "Lat": -12.4485, "Lon": 131.00556}], "Holtzheim": [{"Name": "Holtzheim", "Country Code": "FR", "Population": 2900.0, "Lat": 48.5582, "Lon": 7.64434}], "Holtzwihr": [{"Name": "Holtzwihr", "Country Code": "FR", "Population": 1129.0, "Lat": 48.11288, "Lon": 7.4208}], "Holualoa": [{"Name": "H\u014dlualoa", "Country Code": "US", "Population": 8538.0, "Lat": 19.61979, "Lon": -155.94831}], "Holubivka": [{"Name": "Holubivka", "Country Code": "UA", "Population": 26654.0, "Lat": 48.63751, "Lon": 38.6428}], "Holving": [{"Name": "Holving", "Country Code": "FR", "Population": 1109.0, "Lat": 49.01162, "Lon": 6.96556}], "Holwerd": [{"Name": "Holwerd", "Country Code": "NL", "Population": 1435.0, "Lat": 53.36815, "Lon": 5.90073}], "Holwick": [{"Name": "Holwick", "Country Code": "GB", "Population": 0.0, "Lat": 54.6358, "Lon": -2.14371}], "Holyhead": [{"Name": "Holyhead", "Country Code": "GB", "Population": 11431.0, "Lat": 53.30621, "Lon": -4.63211}], "Holyoke": [{"Name": "Holyoke", "Country Code": "US", "Population": 40684.0, "Lat": 42.20426, "Lon": -72.6162}, {"Name": "Holyoke", "Country Code": "US", "Population": 2251.0, "Lat": 40.58444, "Lon": -102.30241}], "Holysov": [{"Name": "Hol\u00fd\u0161ov", "Country Code": "CZ", "Population": 4659.0, "Lat": 49.59361, "Lon": 13.10129}], "Holytown": [{"Name": "Holytown", "Country Code": "GB", "Population": 5080.0, "Lat": 55.82011, "Lon": -3.9727}], "Holywell": [{"Name": "Holywell", "Country Code": "GB", "Population": 6969.0, "Lat": 53.27466, "Lon": -3.22895}], "Holywell Green": [{"Name": "Holywell Green", "Country Code": "GB", "Population": 3178.0, "Lat": 53.67406, "Lon": -1.86682}], "Holywood": [{"Name": "Holywood", "Country Code": "GB", "Population": 13109.0, "Lat": 54.63863, "Lon": -5.82473}], "Holz": [{"Name": "Holz", "Country Code": "NL", "Population": 2390.0, "Lat": 50.86415, "Lon": 6.07424}], "Holzappel": [{"Name": "Holzappel", "Country Code": "DE", "Population": 1106.0, "Lat": 50.35, "Lon": 7.9}], "Holzdorf": [{"Name": "Holzdorf", "Country Code": "DE", "Population": 1324.0, "Lat": 51.77873, "Lon": 13.12756}], "Holzgau": [{"Name": "Holzgau", "Country Code": "AT", "Population": 412.0, "Lat": 47.26045, "Lon": 10.34419}], "Holzgerlingen": [{"Name": "Holzgerlingen", "Country Code": "DE", "Population": 11613.0, "Lat": 48.63969, "Lon": 9.01149}], "Holzguenz": [{"Name": "Holzg\u00fcnz", "Country Code": "DE", "Population": 1170.0, "Lat": 48.02503, "Lon": 10.25901}], "Holzhausen": [{"Name": "Holzhausen", "Country Code": "AT", "Population": 661.0, "Lat": 48.22296, "Lon": 14.09683}], "Holzhausen an der Haide": [{"Name": "Holzhausen an der Haide", "Country Code": "DE", "Population": 1291.0, "Lat": 50.21855, "Lon": 7.90973}], "Holzheim": [{"Name": "Holzheim", "Country Code": "DE", "Population": 3755.0, "Lat": 48.51422, "Lon": 10.53057}, {"Name": "Holzheim", "Country Code": "DE", "Population": 1747.0, "Lat": 48.38333, "Lon": 10.1}], "Holzkirchen": [{"Name": "Holzkirchen", "Country Code": "DE", "Population": 16770.0, "Lat": 47.87663, "Lon": 11.70181}], "Holzmaden": [{"Name": "Holzmaden", "Country Code": "DE", "Population": 2172.0, "Lat": 48.63333, "Lon": 9.51667}], "Holzminden": [{"Name": "Holzminden", "Country Code": "DE", "Population": 20998.0, "Lat": 51.82798, "Lon": 9.4455}], "Holzweissig": [{"Name": "Holzwei\u00dfig", "Country Code": "DE", "Population": 3250.0, "Lat": 51.59819, "Lon": 12.30842}], "Holzwickede": [{"Name": "Holzwickede", "Country Code": "DE", "Population": 17821.0, "Lat": 51.5, "Lon": 7.63333}], "Hom": [{"Name": "Hom", "Country Code": "CN", "Population": 2099.0, "Lat": 48.56472, "Lon": 87.42056}], "Homa Bay": [{"Name": "Homa Bay", "Country Code": "KE", "Population": 44949.0, "Lat": -0.52731, "Lon": 34.45714}], "Homagama": [{"Name": "Homagama", "Country Code": "LK", "Population": 34664.0, "Lat": 6.844, "Lon": 80.0024}], "Homai": [{"Name": "Homai", "Country Code": "NZ", "Population": 14870.0, "Lat": -37.01667, "Lon": 174.88333}], "Hombeek": [{"Name": "Hombeek", "Country Code": "BE", "Population": 4182.0, "Lat": 51.01753, "Lon": 4.43891}], "Homberg": [{"Name": "Homberg", "Country Code": "DE", "Population": 14903.0, "Lat": 51.02994, "Lon": 9.40261}, {"Name": "Homberg", "Country Code": "DE", "Population": 7863.0, "Lat": 50.73108, "Lon": 8.99644}], "Hombleux": [{"Name": "Hombleux", "Country Code": "FR", "Population": 1043.0, "Lat": 49.73942, "Lon": 2.98574}], "Homblieres": [{"Name": "Hombli\u00e8res", "Country Code": "FR", "Population": 1493.0, "Lat": 49.85031, "Lon": 3.36456}], "Hombourg": [{"Name": "Hombourg", "Country Code": "BE", "Population": 1707.0, "Lat": 50.72257, "Lon": 5.92051}], "Hombourg-Haut": [{"Name": "Hombourg-Haut", "Country Code": "FR", "Population": 9702.0, "Lat": 49.12819, "Lon": 6.77066}], "Hombrados": [{"Name": "Hombrados", "Country Code": "ES", "Population": 47.0, "Lat": 40.80118, "Lon": -1.68558}], "Hombrechtikon": [{"Name": "Hombrechtikon", "Country Code": "CH", "Population": 9212.0, "Lat": 47.25298, "Lon": 8.77212}], "Homburg": [{"Name": "Homburg", "Country Code": "CH", "Population": 1406.0, "Lat": 47.63469, "Lon": 9.00756}, {"Name": "Homburg", "Country Code": "DE", "Population": 44607.0, "Lat": 49.32637, "Lon": 7.33867}], "Home": [{"Name": "Home", "Country Code": "US", "Population": 1377.0, "Lat": 47.27482, "Lon": -122.76375}], "Home Garden": [{"Name": "Home Garden", "Country Code": "US", "Population": 1761.0, "Lat": 36.30328, "Lon": -119.63624}], "Home Gardens": [{"Name": "Home Gardens", "Country Code": "US", "Population": 11570.0, "Lat": 33.87807, "Lon": -117.52088}], "Home Hill": [{"Name": "Home Hill", "Country Code": "AU", "Population": 3013.0, "Lat": -19.65921, "Lon": 147.41232}], "Homeacre-Lyndora": [{"Name": "Homeacre-Lyndora", "Country Code": "US", "Population": 6906.0, "Lat": 40.87206, "Lon": -79.9206}], "Homebush": [{"Name": "Homebush", "Country Code": "AU", "Population": 6787.0, "Lat": -33.86667, "Lon": 151.08333}], "Homebush West": [{"Name": "Homebush West", "Country Code": "AU", "Population": 8521.0, "Lat": -33.86269, "Lon": 151.06696}], "Homecourt": [{"Name": "Hom\u00e9court", "Country Code": "FR", "Population": 6971.0, "Lat": 49.22071, "Lon": 5.99242}], "Homedale": [{"Name": "Homedale", "Country Code": "NZ", "Population": 6090.0, "Lat": -41.26828, "Lon": 174.95019}, {"Name": "Homedale", "Country Code": "US", "Population": 2565.0, "Lat": 43.61766, "Lon": -116.93376}], "Homeland": [{"Name": "Homeland", "Country Code": "US", "Population": 5969.0, "Lat": 33.74308, "Lon": -117.1092}], "Homeland Park": [{"Name": "Homeland Park", "Country Code": "US", "Population": 6296.0, "Lat": 34.47066, "Lon": -82.67069}], "Homer": [{"Name": "Homer", "Country Code": "US", "Population": 3183.0, "Lat": 42.63701, "Lon": -76.17882}, {"Name": "Homer", "Country Code": "US", "Population": 1198.0, "Lat": 40.03476, "Lon": -87.95809}, {"Name": "Homer", "Country Code": "US", "Population": 1630.0, "Lat": 42.14588, "Lon": -84.80886}, {"Name": "Homer", "Country Code": "US", "Population": 3005.0, "Lat": 32.79192, "Lon": -93.05503}, {"Name": "Homer", "Country Code": "US", "Population": 5515.0, "Lat": 59.6425, "Lon": -151.5494}, {"Name": "Homer", "Country Code": "US", "Population": 1144.0, "Lat": 34.33372, "Lon": -83.49905}], "Homer City": [{"Name": "Homer City", "Country Code": "US", "Population": 1652.0, "Lat": 40.5434, "Lon": -79.16226}], "Homer Glen": [{"Name": "Homer Glen", "Country Code": "US", "Population": 24395.0, "Lat": 41.60003, "Lon": -87.93811}], "Homerville": [{"Name": "Homerville", "Country Code": "US", "Population": 2480.0, "Lat": 31.0366, "Lon": -82.74708}], "Homestead": [{"Name": "Homestead", "Country Code": "US", "Population": 80737.0, "Lat": 25.46872, "Lon": -80.47756}, {"Name": "Homestead", "Country Code": "US", "Population": 3114.0, "Lat": 40.4059, "Lon": -79.91199}], "Homestead Meadows North": [{"Name": "Homestead Meadows North", "Country Code": "US", "Population": 5124.0, "Lat": 31.84963, "Lon": -106.17285}], "Homestead Meadows South": [{"Name": "Homestead Meadows South", "Country Code": "US", "Population": 7247.0, "Lat": 31.81097, "Lon": -106.16427}], "Hometown": [{"Name": "Hometown", "Country Code": "US", "Population": 4342.0, "Lat": 41.73448, "Lon": -87.73144}, {"Name": "Hometown", "Country Code": "US", "Population": 1349.0, "Lat": 40.8237, "Lon": -75.9802}], "Homewood": [{"Name": "Homewood", "Country Code": "US", "Population": 19373.0, "Lat": 41.55726, "Lon": -87.6656}, {"Name": "Homewood", "Country Code": "US", "Population": 25708.0, "Lat": 33.47177, "Lon": -86.80082}], "Homeyo": [{"Name": "Homeyo", "Country Code": "ID", "Population": 0.0, "Lat": -3.663, "Lon": 136.4692}], "Hominy": [{"Name": "Hominy", "Country Code": "US", "Population": 3508.0, "Lat": 36.41424, "Lon": -96.3953}], "Hommelvik": [{"Name": "Hommelvik", "Country Code": "NO", "Population": 5418.0, "Lat": 63.41083, "Lon": 10.79424}], "Hommersak": [{"Name": "Hommers\u00e5k", "Country Code": "NO", "Population": 5692.0, "Lat": 58.92556, "Lon": 5.85104}], "Homnabad": [{"Name": "Homn\u0101b\u0101d", "Country Code": "IN", "Population": 41485.0, "Lat": 17.77074, "Lon": 77.12519}], "Homocea": [{"Name": "Homocea", "Country Code": "RO", "Population": 9869.0, "Lat": 46.13333, "Lon": 27.23333}], "Homoine": [{"Name": "Homo\u00edne", "Country Code": "MZ", "Population": 8447.0, "Lat": -23.88444, "Lon": 35.15139}], "Homoraciu": [{"Name": "Homor\u00e2ciu", "Country Code": "RO", "Population": 2031.0, "Lat": 45.2694, "Lon": 26.01634}], "Homorod": [{"Name": "Homorod", "Country Code": "RO", "Population": 2344.0, "Lat": 46.05, "Lon": 25.26667}], "Homorodu de Jos": [{"Name": "Homorodu de Jos", "Country Code": "RO", "Population": 2019.0, "Lat": 47.66667, "Lon": 23.08333}], "Homosassa": [{"Name": "Homosassa", "Country Code": "US", "Population": 2578.0, "Lat": 28.78137, "Lon": -82.6151}], "Homosassa Springs": [{"Name": "Homosassa Springs", "Country Code": "US", "Population": 13791.0, "Lat": 28.80359, "Lon": -82.57593}], "Homs": [{"Name": "Homs", "Country Code": "SY", "Population": 775404.0, "Lat": 34.72682, "Lon": 36.72339}], "Homun": [{"Name": "Homun", "Country Code": "MX", "Population": 6146.0, "Lat": 20.73918, "Lon": -89.2849}], "Homyel'": [{"Name": "Homyel'", "Country Code": "BY", "Population": 526872.0, "Lat": 52.4345, "Lon": 30.9754}], "Hon GJat": [{"Name": "H\u00f2n \u0110\u1ea5t", "Country Code": "VN", "Population": 0.0, "Lat": 10.18462, "Lon": 104.92959}], "Honaker": [{"Name": "Honaker", "Country Code": "US", "Population": 1392.0, "Lat": 37.01622, "Lon": -81.97429}], "Honalo": [{"Name": "Honalo", "Country Code": "US", "Population": 2423.0, "Lat": 19.54639, "Lon": -155.93194}], "Honaunau-Napoopoo": [{"Name": "Honaunau-Napoopoo", "Country Code": "US", "Population": 2567.0, "Lat": 19.45627, "Lon": -155.86466}], "Honavar": [{"Name": "Honavar", "Country Code": "IN", "Population": 18392.0, "Lat": 14.28088, "Lon": 74.44497}], "Honaz": [{"Name": "Honaz", "Country Code": "TR", "Population": 7974.0, "Lat": 37.7573, "Lon": 29.26996}], "Honcho": [{"Name": "Honch\u014d", "Country Code": "JP", "Population": 4482.0, "Lat": 42.12841, "Lon": 142.91785}, {"Name": "Honch\u014d", "Country Code": "JP", "Population": 28514.0, "Lat": 41.8944, "Lon": 140.69386}, {"Name": "Honch\u014d", "Country Code": "JP", "Population": 644668.0, "Lat": 35.70129, "Lon": 139.98648}, {"Name": "Honch\u014d", "Country Code": "JP", "Population": 5023.0, "Lat": 42.81094, "Lon": 143.65349}, {"Name": "Honch\u014d", "Country Code": "JP", "Population": 5011.0, "Lat": 43.70389, "Lon": 144.02111}], "Honda": [{"Name": "Honda", "Country Code": "CO", "Population": 28158.0, "Lat": 5.20856, "Lon": -74.73584}], "Hondagua": [{"Name": "Hondagua", "Country Code": "PH", "Population": 4587.0, "Lat": 13.9455, "Lon": 122.2417}], "Hondelage": [{"Name": "Hondelage", "Country Code": "DE", "Population": 3719.0, "Lat": 52.31444, "Lon": 10.60567}], "Hondo": [{"Name": "Hondo", "Country Code": "US", "Population": 9119.0, "Lat": 29.34746, "Lon": -99.14142}], "Hondo Valle": [{"Name": "Hondo Valle", "Country Code": "DO", "Population": 3713.0, "Lat": 18.71599, "Lon": -71.69511}], "Hondomachi-hondo": [{"Name": "Hondomachi-hondo", "Country Code": "JP", "Population": 40787.0, "Lat": 32.45993, "Lon": 130.16713}], "Hondon de las Nieves": [{"Name": "Hond\u00f3n de las Nieves", "Country Code": "ES", "Population": 2474.0, "Lat": 38.30844, "Lon": -0.8533}], "Hondon de los Frailes": [{"Name": "Hond\u00f3n de los Frailes", "Country Code": "ES", "Population": 1058.0, "Lat": 38.2739, "Lon": -0.92938}], "Hondschoote": [{"Name": "Hondschoote", "Country Code": "FR", "Population": 3742.0, "Lat": 50.978, "Lon": 2.58372}], "Hone": [{"Name": "Hone", "Country Code": "IT", "Population": 1115.0, "Lat": 45.61356, "Lon": 7.73851}], "Honea Path": [{"Name": "Honea Path", "Country Code": "US", "Population": 3707.0, "Lat": 34.4465, "Lon": -82.39151}], "Honefoss": [{"Name": "H\u00f8nefoss", "Country Code": "NO", "Population": 13678.0, "Lat": 60.16804, "Lon": 10.25647}], "Honeoye Falls": [{"Name": "Honeoye Falls", "Country Code": "US", "Population": 2711.0, "Lat": 42.95229, "Lon": -77.59028}], "Honesdale": [{"Name": "Honesdale", "Country Code": "US", "Population": 4233.0, "Lat": 41.57676, "Lon": -75.25879}], "Honey": [{"Name": "Honey", "Country Code": "MX", "Population": 1131.0, "Lat": 20.23885, "Lon": -98.21253}], "Honey Brook": [{"Name": "Honey Brook", "Country Code": "US", "Population": 1758.0, "Lat": 40.09427, "Lon": -75.91133}], "Honey Grove": [{"Name": "Honey Grove", "Country Code": "US", "Population": 1656.0, "Lat": 33.58344, "Lon": -95.90997}], "Honeybourne": [{"Name": "Honeybourne", "Country Code": "GB", "Population": 1388.0, "Lat": 52.09513, "Lon": -1.83129}], "Honeyville": [{"Name": "Honeyville", "Country Code": "US", "Population": 1454.0, "Lat": 41.63854, "Lon": -112.07939}], "Honfleur": [{"Name": "Honfleur", "Country Code": "FR", "Population": 8148.0, "Lat": 49.41985, "Lon": 0.23294}], "Hong": [{"Name": "H\u00f8ng", "Country Code": "DK", "Population": 4355.0, "Lat": 55.50736, "Lon": 11.28873}, {"Name": "Hong", "Country Code": "NG", "Population": 0.0, "Lat": 10.23305, "Lon": 12.92805}], "Hong Kong": [{"Name": "Hong Kong", "Country Code": "HK", "Population": 7491609.0, "Lat": 22.27832, "Lon": 114.17469}], "Hong Kong Disneyland Resort": [{"Name": "Hong Kong Disneyland Resort", "Country Code": "HK", "Population": 9315.0, "Lat": 22.31338, "Lon": 114.03991}], "Hong Lok Yuen": [{"Name": "Hong Lok Yuen", "Country Code": "HK", "Population": 20389.0, "Lat": 22.46315, "Lon": 114.1552}], "Hong'an": [{"Name": "Hong\u2019an", "Country Code": "CN", "Population": 18235.0, "Lat": 28.50228, "Lon": 109.26661}], "Hong'an Chengguanzhen": [{"Name": "Hong\u2019an Chengguanzhen", "Country Code": "CN", "Population": 0.0, "Lat": 31.36208, "Lon": 114.63689}], "Hongbao": [{"Name": "Hongbao", "Country Code": "CN", "Population": 20868.0, "Lat": 34.75191, "Lon": 106.06026}], "Hongch'on": [{"Name": "Hongch\u2019\u014fn", "Country Code": "KR", "Population": 75251.0, "Lat": 37.6918, "Lon": 127.8857}], "Hongchuan": [{"Name": "Hongchuan", "Country Code": "CN", "Population": 10405.0, "Lat": 33.75056, "Lon": 105.89083}], "Hongchun": [{"Name": "Hongchun", "Country Code": "CN", "Population": 4980.0, "Lat": 30.85239, "Lon": 109.71211}], "Honggang": [{"Name": "Honggang", "Country Code": "CN", "Population": 147977.0, "Lat": 46.3974, "Lon": 124.88447}], "Hongguang Qidui": [{"Name": "Hongguang Qidui", "Country Code": "CN", "Population": 17409.0, "Lat": 38.73322, "Lon": 106.28721}], "Honghe": [{"Name": "Honghe", "Country Code": "CN", "Population": 11942.0, "Lat": 34.40972, "Lon": 105.39}, {"Name": "Honghe", "Country Code": "CN", "Population": 88458.0, "Lat": 36.40278, "Lon": 118.91806}], "Honghu": [{"Name": "Honghu", "Country Code": "CN", "Population": 30426.0, "Lat": 30.00043, "Lon": 106.95204}], "Hongjiang": [{"Name": "Hongjiang", "Country Code": "CN", "Population": 59199.0, "Lat": 27.11, "Lon": 109.99556}], "Hongkou": [{"Name": "Hongkou", "Country Code": "CN", "Population": 0.0, "Lat": 31.25, "Lon": 121.48917}], "Hongliuwan": [{"Name": "Hongliuwan", "Country Code": "CN", "Population": 0.0, "Lat": 39.63187, "Lon": 94.33694}], "Honglu": [{"Name": "Honglu", "Country Code": "CN", "Population": 21618.0, "Lat": 29.35198, "Lon": 105.7268}], "Hongmiao": [{"Name": "Hongmiao", "Country Code": "CN", "Population": 0.0, "Lat": 32.22483, "Lon": 118.91975}], "Hongnong": [{"Name": "Hongnong", "Country Code": "KR", "Population": 0.0, "Lat": 35.39587, "Lon": 126.44531}], "Hongor": [{"Name": "Hongor", "Country Code": "MN", "Population": 0.0, "Lat": 45.8, "Lon": 111.2}, {"Name": "Hongor", "Country Code": "MN", "Population": 0.0, "Lat": 49.23012, "Lon": 105.89674}, {"Name": "Hongor", "Country Code": "MN", "Population": 0.0, "Lat": 45.13507, "Lon": 113.68378}], "Hongos": [{"Name": "Hongos", "Country Code": "PE", "Population": 371.0, "Lat": -12.81139, "Lon": -75.765}], "Hongqiao": [{"Name": "Hongqiao", "Country Code": "CN", "Population": 58287.0, "Lat": 26.76837, "Lon": 112.10814}, {"Name": "Hongqiao", "Country Code": "CN", "Population": 20060.0, "Lat": 27.42977, "Lon": 100.79701}], "Hongseong": [{"Name": "Hongseong", "Country Code": "KR", "Population": 89174.0, "Lat": 36.6009, "Lon": 126.665}], "Hongshan": [{"Name": "Hongshan", "Country Code": "CN", "Population": 0.0, "Lat": 47.9758, "Lon": 129.02199}], "Hongshui": [{"Name": "Hongshui", "Country Code": "CN", "Population": 0.0, "Lat": 38.42457, "Lon": 100.7926}], "Hongsipu": [{"Name": "Hongsipu", "Country Code": "CN", "Population": 0.0, "Lat": 37.39917, "Lon": 106.06028}], "Hongtang": [{"Name": "Hongtang", "Country Code": "CN", "Population": 1060.0, "Lat": 26.07056, "Lon": 119.23083}], "Hongtu": [{"Name": "Hongtu", "Country Code": "CN", "Population": 14483.0, "Lat": 31.12464, "Lon": 109.09742}], "Hongwansi": [{"Name": "Hongwansi", "Country Code": "CN", "Population": 0.0, "Lat": 38.83514, "Lon": 99.59865}], "Hongwon": [{"Name": "Hongw\u014fn", "Country Code": "KP", "Population": 70923.0, "Lat": 40.02528, "Lon": 127.95583}], "Hongyang": [{"Name": "Hongyang", "Country Code": "CN", "Population": 1850.0, "Lat": 26.52861, "Lon": 119.4625}], "Hongzhou": [{"Name": "Hongzhou", "Country Code": "CN", "Population": 21293.0, "Lat": 26.12583, "Lon": 109.40889}], "Honiara": [{"Name": "Honiara", "Country Code": "SB", "Population": 56298.0, "Lat": -9.43333, "Lon": 159.95}], "Honiton": [{"Name": "Honiton", "Country Code": "GB", "Population": 11483.0, "Lat": 50.7996, "Lon": -3.18899}], "Honjo": [{"Name": "Honj\u014d", "Country Code": "JP", "Population": 77900.0, "Lat": 36.2378, "Lon": 139.19023}], "Honkajoki": [{"Name": "Honkajoki", "Country Code": "FI", "Population": 0.0, "Lat": 61.98333, "Lon": 22.26667}], "Honmachi": [{"Name": "Honmachi", "Country Code": "JP", "Population": 11897.0, "Lat": 43.91145, "Lon": 144.66737}, {"Name": "Honmachi", "Country Code": "JP", "Population": 27592.0, "Lat": 32.50439, "Lon": 130.59952}], "Honnali": [{"Name": "Honn\u0101li", "Country Code": "IN", "Population": 16753.0, "Lat": 14.23976, "Lon": 75.64507}], "Honningsvag": [{"Name": "Honningsv\u00e5g", "Country Code": "NO", "Population": 2484.0, "Lat": 70.98209, "Lon": 25.97037}], "Honoka'a": [{"Name": "Honoka\u2018a", "Country Code": "US", "Population": 2258.0, "Lat": 20.07931, "Lon": -155.46691}], "Honolulu": [{"Name": "Honolulu", "Country Code": "US", "Population": 371657.0, "Lat": 21.30694, "Lon": -157.85833}], "Honoria": [{"Name": "Honoria", "Country Code": "PE", "Population": 787.0, "Lat": -8.76949, "Lon": -74.70911}], "Honrubia": [{"Name": "Honrubia", "Country Code": "ES", "Population": 1651.0, "Lat": 39.61358, "Lon": -2.28077}], "Honrubia de la Cuesta": [{"Name": "Honrubia de la Cuesta", "Country Code": "ES", "Population": 121.0, "Lat": 41.50998, "Lon": -3.70453}], "Honselersdijk": [{"Name": "Honselersdijk", "Country Code": "NL", "Population": 7366.0, "Lat": 52.00665, "Lon": 4.22441}], "Hontalbilla": [{"Name": "Hontalbilla", "Country Code": "ES", "Population": 382.0, "Lat": 41.34551, "Lon": -4.12149}], "Hontanar": [{"Name": "Hontanar", "Country Code": "ES", "Population": 148.0, "Lat": 39.61297, "Lon": -4.49663}], "Hontanares de Eresma": [{"Name": "Hontanares de Eresma", "Country Code": "ES", "Population": 288.0, "Lat": 40.98273, "Lon": -4.20439}], "Hontanas": [{"Name": "Hontanas", "Country Code": "ES", "Population": 72.0, "Lat": 42.31312, "Lon": -4.04529}], "Hontanaya": [{"Name": "Hontanaya", "Country Code": "ES", "Population": 425.0, "Lat": 39.71553, "Lon": -2.83516}], "Hontangas": [{"Name": "Hontangas", "Country Code": "ES", "Population": 129.0, "Lat": 41.58216, "Lon": -3.7955}], "Hontecillas": [{"Name": "Hontecillas", "Country Code": "ES", "Population": 98.0, "Lat": 39.7, "Lon": -2.18333}], "Hontoba": [{"Name": "Hontoba", "Country Code": "ES", "Population": 229.0, "Lat": 40.45385, "Lon": -3.03858}], "Hontoria de Cerrato": [{"Name": "Hontoria de Cerrato", "Country Code": "ES", "Population": 111.0, "Lat": 41.91061, "Lon": -4.44209}], "Hontoria de Valdearados": [{"Name": "Hontoria de Valdearados", "Country Code": "ES", "Population": 256.0, "Lat": 41.74488, "Lon": -3.51983}], "Hontoria de la Cantera": [{"Name": "Hontoria de la Cantera", "Country Code": "ES", "Population": 141.0, "Lat": 42.18879, "Lon": -3.64251}], "Hontoria del Pinar": [{"Name": "Hontoria del Pinar", "Country Code": "ES", "Population": 786.0, "Lat": 41.84838, "Lon": -3.16245}], "Hoo": [{"Name": "Hoo", "Country Code": "GB", "Population": 5377.0, "Lat": 51.4205, "Lon": 0.563}], "Hood River": [{"Name": "Hood River", "Country Code": "US", "Population": 7624.0, "Lat": 45.7054, "Lon": -121.52146}], "Hoofddorp": [{"Name": "Hoofddorp", "Country Code": "NL", "Population": 132734.0, "Lat": 52.3025, "Lon": 4.68889}], "Hoogblokland": [{"Name": "Hoogblokland", "Country Code": "NL", "Population": 1090.0, "Lat": 51.875, "Lon": 4.97639}], "Hooge Mierde": [{"Name": "Hooge Mierde", "Country Code": "NL", "Population": 1310.0, "Lat": 51.3875, "Lon": 5.12917}], "Hooge Zwaluwe": [{"Name": "Hooge Zwaluwe", "Country Code": "NL", "Population": 1265.0, "Lat": 51.6875, "Lon": 4.74444}], "Hoogeloon": [{"Name": "Hoogeloon", "Country Code": "NL", "Population": 1790.0, "Lat": 51.3975, "Lon": 5.26806}], "Hoogerheide": [{"Name": "Hoogerheide", "Country Code": "NL", "Population": 5810.0, "Lat": 51.42417, "Lon": 4.325}], "Hoogeveen": [{"Name": "Hoogeveen", "Country Code": "NL", "Population": 38754.0, "Lat": 52.7225, "Lon": 6.47639}], "Hoogezand": [{"Name": "Hoogezand", "Country Code": "NL", "Population": 21480.0, "Lat": 53.16167, "Lon": 6.76111}], "Hoogkamp": [{"Name": "Hoogkamp", "Country Code": "NL", "Population": 1870.0, "Lat": 51.9963, "Lon": 5.88026}], "Hoogland": [{"Name": "Hoogland", "Country Code": "NL", "Population": 10587.0, "Lat": 52.1825, "Lon": 5.37361}], "Hooglede": [{"Name": "Hooglede", "Country Code": "BE", "Population": 9900.0, "Lat": 50.98333, "Lon": 3.08333}], "Hoogmade": [{"Name": "Hoogmade", "Country Code": "NL", "Population": 1480.0, "Lat": 52.16917, "Lon": 4.58194}], "Hoogstede": [{"Name": "Hoogstede", "Country Code": "DE", "Population": 2793.0, "Lat": 52.58333, "Lon": 6.95}], "Hoogstraten": [{"Name": "Hoogstraten", "Country Code": "BE", "Population": 18524.0, "Lat": 51.40029, "Lon": 4.76034}], "Hoogvliet": [{"Name": "Hoogvliet", "Country Code": "NL", "Population": 34950.0, "Lat": 51.86333, "Lon": 4.3625}], "Hoogwoud": [{"Name": "Hoogwoud", "Country Code": "NL", "Population": 3645.0, "Lat": 52.71583, "Lon": 4.93889}], "Hook": [{"Name": "Hook", "Country Code": "GB", "Population": 0.0, "Lat": 53.72132, "Lon": -0.84891}, {"Name": "Hook", "Country Code": "GB", "Population": 838.0, "Lat": 51.765, "Lon": -4.93167}, {"Name": "Hook", "Country Code": "GB", "Population": 18973.0, "Lat": 51.36803, "Lon": -0.3065}, {"Name": "Hook", "Country Code": "GB", "Population": 7321.0, "Lat": 51.28425, "Lon": -0.95967}], "Hook Norton": [{"Name": "Hook Norton", "Country Code": "GB", "Population": 1919.0, "Lat": 51.99564, "Lon": -1.48277}], "Hooker": [{"Name": "Hooker", "Country Code": "US", "Population": 1996.0, "Lat": 36.86003, "Lon": -101.2135}], "Hooks": [{"Name": "Hooks", "Country Code": "US", "Population": 2744.0, "Lat": 33.46623, "Lon": -94.28853}], "Hooksett": [{"Name": "Hooksett", "Country Code": "US", "Population": 4147.0, "Lat": 43.09675, "Lon": -71.46507}], "Hool": [{"Name": "Hool", "Country Code": "MX", "Population": 1181.0, "Lat": 19.51294, "Lon": -90.44631}], "Hoole": [{"Name": "Hoole", "Country Code": "GB", "Population": 1180.0, "Lat": 53.1998, "Lon": -2.87689}], "Hoolt": [{"Name": "Hoolt", "Country Code": "MN", "Population": 0.0, "Lat": 45.53333, "Lon": 102.98333}], "Hoon Hay": [{"Name": "Hoon Hay", "Country Code": "NZ", "Population": 8790.0, "Lat": -43.56444, "Lon": 172.60766}], "Hooper": [{"Name": "Hooper", "Country Code": "US", "Population": 8214.0, "Lat": 41.16383, "Lon": -112.12244}], "Hooper Bay": [{"Name": "Hooper Bay", "Country Code": "US", "Population": 1187.0, "Lat": 61.53111, "Lon": -166.09667}], "Hoopers Creek": [{"Name": "Hoopers Creek", "Country Code": "US", "Population": 1056.0, "Lat": 35.439, "Lon": -82.46679}], "Hoopeston": [{"Name": "Hoopeston", "Country Code": "US", "Population": 5220.0, "Lat": 40.46726, "Lon": -87.66836}], "Hoopstad": [{"Name": "Hoopstad", "Country Code": "ZA", "Population": 12663.0, "Lat": -27.83273, "Lon": 25.90833}], "Hoorn": [{"Name": "Hoorn", "Country Code": "NL", "Population": 68852.0, "Lat": 52.6425, "Lon": 5.05972}], "Hoosick Falls": [{"Name": "Hoosick Falls", "Country Code": "US", "Population": 3432.0, "Lat": 42.90119, "Lon": -73.3515}], "Hoover": [{"Name": "Hoover", "Country Code": "US", "Population": 84848.0, "Lat": 33.40539, "Lon": -86.81138}], "Hooverson Heights": [{"Name": "Hooverson Heights", "Country Code": "US", "Population": 2590.0, "Lat": 40.32479, "Lon": -80.57757}], "Hop Hoa": [{"Name": "H\u1ee3p H\u00f2a", "Country Code": "VN", "Population": 0.0, "Lat": 21.37525, "Lon": 105.54256}], "Hopa": [{"Name": "Hopa", "Country Code": "TR", "Population": 17519.0, "Lat": 41.39046, "Lon": 41.41966}], "Hoparta": [{"Name": "Hop\u00e2rta", "Country Code": "RO", "Population": 407.0, "Lat": 46.32134, "Lon": 23.87244}], "Hopatcong": [{"Name": "Hopatcong", "Country Code": "US", "Population": 14510.0, "Lat": 40.93288, "Lon": -74.65933}], "Hopatcong Hills": [{"Name": "Hopatcong Hills", "Country Code": "US", "Population": 16267.0, "Lat": 40.94399, "Lon": -74.67072}], "Hope": [{"Name": "Hope", "Country Code": "CA", "Population": 4598.0, "Lat": 49.38299, "Lon": -121.44144}, {"Name": "Hope", "Country Code": "GB", "Population": 4706.0, "Lat": 53.11667, "Lon": -3.03333}, {"Name": "Hope", "Country Code": "US", "Population": 2167.0, "Lat": 39.30394, "Lon": -85.77137}, {"Name": "Hope", "Country Code": "US", "Population": 9891.0, "Lat": 33.66706, "Lon": -93.59157}, {"Name": "Hope", "Country Code": "US", "Population": 1362.0, "Lat": 44.26508, "Lon": -69.15893}], "Hope Bay": [{"Name": "Hope Bay", "Country Code": "JM", "Population": 1666.0, "Lat": 18.19882, "Lon": -76.56539}], "Hope Island": [{"Name": "Hope Island", "Country Code": "AU", "Population": 11154.0, "Lat": -27.87036, "Lon": 153.35164}], "Hope Mills": [{"Name": "Hope Mills", "Country Code": "US", "Population": 16163.0, "Lat": 34.97044, "Lon": -78.94531}], "Hope Vale": [{"Name": "Hope Vale", "Country Code": "AU", "Population": 1049.0, "Lat": -15.29561, "Lon": 145.11125}], "Hope Valley": [{"Name": "Hope Valley", "Country Code": "AU", "Population": 8223.0, "Lat": -34.83333, "Lon": 138.7}, {"Name": "Hope Valley", "Country Code": "GB", "Population": 1001.0, "Lat": 53.34819, "Lon": -1.74485}, {"Name": "Hope Valley", "Country Code": "US", "Population": 1612.0, "Lat": 41.5076, "Lon": -71.71618}], "Hope under Dinmore": [{"Name": "Hope under Dinmore", "Country Code": "GB", "Population": 0.0, "Lat": 52.18333, "Lon": -2.71667}], "Hopedale": [{"Name": "Hopedale", "Country Code": "US", "Population": 3753.0, "Lat": 42.13065, "Lon": -71.54117}], "Hopel": [{"Name": "Hopel", "Country Code": "NL", "Population": 2240.0, "Lat": 50.89245, "Lon": 6.05046}], "Hopelchen": [{"Name": "Hopelch\u00e9n", "Country Code": "MX", "Population": 7295.0, "Lat": 19.74671, "Lon": -89.84437}], "Hopeman": [{"Name": "Hopeman", "Country Code": "GB", "Population": 1710.0, "Lat": 57.70684, "Lon": -3.43432}], "Hopen": [{"Name": "Hopen", "Country Code": "NO", "Population": 0.0, "Lat": 63.46539, "Lon": 8.01437}], "Hopetown": [{"Name": "Hopetown", "Country Code": "ZA", "Population": 0.0, "Lat": -29.62464, "Lon": 24.08518}], "Hopewell": [{"Name": "Hopewell", "Country Code": "US", "Population": 1929.0, "Lat": 40.38927, "Lon": -74.76183}, {"Name": "Hopewell", "Country Code": "US", "Population": 22378.0, "Lat": 37.30432, "Lon": -77.2872}, {"Name": "Hopewell", "Country Code": "US", "Population": 1874.0, "Lat": 35.23479, "Lon": -84.888}], "Hopferau": [{"Name": "Hopferau", "Country Code": "DE", "Population": 1050.0, "Lat": 47.61667, "Lon": 10.63333}], "Hopfgarten im Brixental": [{"Name": "Hopfgarten im Brixental", "Country Code": "AT", "Population": 2646.0, "Lat": 47.4498, "Lon": 12.15659}], "Hopfgarten in Defereggen": [{"Name": "Hopfgarten in Defereggen", "Country Code": "AT", "Population": 249.0, "Lat": 46.91917, "Lon": 12.53639}], "Hopfingen": [{"Name": "H\u00f6pfingen", "Country Code": "DE", "Population": 3331.0, "Lat": 49.6025, "Lon": 9.42861}], "Hopital-Camfrout": [{"Name": "H\u00f4pital-Camfrout", "Country Code": "FR", "Population": 1751.0, "Lat": 48.32854, "Lon": -4.24185}], "Hopkins": [{"Name": "Hopkins", "Country Code": "US", "Population": 17591.0, "Lat": 44.92496, "Lon": -93.46273}, {"Name": "Hopkins", "Country Code": "US", "Population": 2882.0, "Lat": 33.90432, "Lon": -80.87703}], "Hopkinsville": [{"Name": "Hopkinsville", "Country Code": "US", "Population": 32205.0, "Lat": 36.86561, "Lon": -87.49117}], "Hopkinton": [{"Name": "Hopkinton", "Country Code": "US", "Population": 8261.0, "Lat": 41.46121, "Lon": -71.77757}, {"Name": "Hopkinton", "Country Code": "US", "Population": 5676.0, "Lat": 43.19147, "Lon": -71.67535}, {"Name": "Hopkinton", "Country Code": "US", "Population": 2550.0, "Lat": 42.22871, "Lon": -71.52256}], "Hoppers Crossing": [{"Name": "Hoppers Crossing", "Country Code": "AU", "Population": 37216.0, "Lat": -37.88264, "Lon": 144.7003}], "Hoppstadten-Weiersbach": [{"Name": "Hoppst\u00e4dten-Weiersbach", "Country Code": "DE", "Population": 2749.0, "Lat": 49.61667, "Lon": 7.2}], "Hopton": [{"Name": "Hopton", "Country Code": "GB", "Population": 2626.0, "Lat": 52.53333, "Lon": 1.73333}], "Hopwood": [{"Name": "Hopwood", "Country Code": "US", "Population": 2090.0, "Lat": 39.87702, "Lon": -79.70199}], "Hoquiam": [{"Name": "Hoquiam", "Country Code": "US", "Population": 8405.0, "Lat": 46.98092, "Lon": -123.88933}], "Horace": [{"Name": "Horace", "Country Code": "US", "Population": 2545.0, "Lat": 46.75886, "Lon": -96.9037}], "Horacio Zeballos Gamez": [{"Name": "Horacio Zeballos Gamez", "Country Code": "PE", "Population": 8365.0, "Lat": -16.49181, "Lon": -71.50731}], "Horad Kobryn": [{"Name": "Horad Kobryn", "Country Code": "BY", "Population": 0.0, "Lat": 52.21611, "Lon": 24.36639}], "Horad Krychaw": [{"Name": "Horad Krychaw", "Country Code": "BY", "Population": 0.0, "Lat": 53.69889, "Lon": 31.71417}], "Horad Luninyets": [{"Name": "Horad Luninyets", "Country Code": "BY", "Population": 0.0, "Lat": 52.25028, "Lon": 26.79944}], "Horad Orsha": [{"Name": "Horad Orsha", "Country Code": "BY", "Population": 0.0, "Lat": 54.51528, "Lon": 30.40528}], "Horad Pinsk": [{"Name": "Horad Pinsk", "Country Code": "BY", "Population": 0.0, "Lat": 52.12139, "Lon": 26.07278}], "Horad Rechytsa": [{"Name": "Horad Rechytsa", "Country Code": "BY", "Population": 0.0, "Lat": 52.36389, "Lon": 30.39472}], "Horad Zhodzina": [{"Name": "Horad Zhodzina", "Country Code": "BY", "Population": 65451.0, "Lat": 54.0985, "Lon": 28.3331}], "Horadiz": [{"Name": "Horadiz", "Country Code": "AZ", "Population": 2714.0, "Lat": 39.45015, "Lon": 47.33496}], "Horam": [{"Name": "Horam", "Country Code": "GB", "Population": 2188.0, "Lat": 50.93523, "Lon": 0.24436}], "Horana South": [{"Name": "Horana South", "Country Code": "LK", "Population": 8982.0, "Lat": 6.7159, "Lon": 80.0626}], "Horasan": [{"Name": "Horasan", "Country Code": "TR", "Population": 17067.0, "Lat": 40.03885, "Lon": 42.16366}], "Horatio": [{"Name": "Horatio", "Country Code": "US", "Population": 1058.0, "Lat": 33.93845, "Lon": -94.35715}], "Horawala Junction": [{"Name": "Horawala Junction", "Country Code": "LK", "Population": 7500.0, "Lat": 6.48088, "Lon": 80.12708}], "Horazgovice": [{"Name": "Hora\u017e\u010fovice", "Country Code": "CZ", "Population": 5727.0, "Lat": 49.32069, "Lon": 13.701}], "Horb am Neckar": [{"Name": "Horb am Neckar", "Country Code": "DE", "Population": 25092.0, "Lat": 48.44423, "Lon": 8.6913}], "Horben": [{"Name": "Horben", "Country Code": "DE", "Population": 1065.0, "Lat": 47.93333, "Lon": 7.86667}], "Horbourg-Wihr": [{"Name": "Horbourg-Wihr", "Country Code": "FR", "Population": 5358.0, "Lat": 48.08106, "Lon": 7.3938}], "Horbova": [{"Name": "Horbova", "Country Code": "UA", "Population": 2969.0, "Lat": 48.2, "Lon": 26.16667}], "Horbury": [{"Name": "Horbury", "Country Code": "GB", "Population": 10225.0, "Lat": 53.66051, "Lon": -1.56014}], "Horcajo de Montemayor": [{"Name": "Horcajo de Montemayor", "Country Code": "ES", "Population": 196.0, "Lat": 40.42265, "Lon": -5.89427}], "Horcajo de Santiago": [{"Name": "Horcajo de Santiago", "Country Code": "ES", "Population": 3764.0, "Lat": 39.84221, "Lon": -2.99724}], "Horcajo de la Sierra": [{"Name": "Horcajo de la Sierra", "Country Code": "ES", "Population": 0.0, "Lat": 41.06723, "Lon": -3.58534}], "Horcajo de las Torres": [{"Name": "Horcajo de las Torres", "Country Code": "ES", "Population": 709.0, "Lat": 41.06497, "Lon": -5.09092}], "Horcajuelo de la Sierra": [{"Name": "Horcajuelo de la Sierra", "Country Code": "ES", "Population": 0.0, "Lat": 41.06019, "Lon": -3.5464}], "Horcasitas": [{"Name": "Horcasitas", "Country Code": "MX", "Population": 1845.0, "Lat": 16.88821, "Lon": -98.74609}], "Horche": [{"Name": "Horche", "Country Code": "ES", "Population": 1853.0, "Lat": 40.56399, "Lon": -3.0611}], "Horconcitos": [{"Name": "Horconcitos", "Country Code": "PA", "Population": 877.0, "Lat": 8.31466, "Lon": -82.15334}], "Hordain": [{"Name": "Hordain", "Country Code": "FR", "Population": 1214.0, "Lat": 50.26306, "Lon": 3.31358}], "Hordel": [{"Name": "Hordel", "Country Code": "DE", "Population": 3252.0, "Lat": 51.49784, "Lon": 7.1762}], "Hordt": [{"Name": "H\u00f6rdt", "Country Code": "DE", "Population": 2413.0, "Lat": 49.16583, "Lon": 8.32639}], "Horea": [{"Name": "Horea", "Country Code": "RO", "Population": 293.0, "Lat": 46.50246, "Lon": 22.95034}], "Horenka": [{"Name": "Horenka", "Country Code": "UA", "Population": 5358.0, "Lat": 50.55731, "Lon": 30.33217}], "Horezu": [{"Name": "Horezu", "Country Code": "RO", "Population": 6743.0, "Lat": 45.15, "Lon": 24.01667}], "Horgau": [{"Name": "Horgau", "Country Code": "DE", "Population": 2459.0, "Lat": 48.39507, "Lon": 10.68283}], "Horgen": [{"Name": "Horgen", "Country Code": "CH", "Population": 15973.0, "Lat": 47.25983, "Lon": 8.59778}], "Horgen / Allmend": [{"Name": "Horgen / Allmend", "Country Code": "CH", "Population": 3809.0, "Lat": 47.24729, "Lon": 8.6066}], "Horgen / Horgen (Dorfkern)": [{"Name": "Horgen / Horgen (Dorfkern)", "Country Code": "CH", "Population": 6140.0, "Lat": 47.25604, "Lon": 8.60159}], "Horgen / Oberdorf": [{"Name": "Horgen / Oberdorf", "Country Code": "CH", "Population": 2524.0, "Lat": 47.25837, "Lon": 8.59013}], "Horgen / Scheller-Stockerstrasse": [{"Name": "Horgen / Scheller-Stockerstrasse", "Country Code": "CH", "Population": 2690.0, "Lat": 47.26584, "Lon": 8.5876}], "Horgenzell": [{"Name": "Horgenzell", "Country Code": "DE", "Population": 4663.0, "Lat": 47.80534, "Lon": 9.49727}], "Horgertshausen": [{"Name": "H\u00f6rgertshausen", "Country Code": "DE", "Population": 1944.0, "Lat": 48.55, "Lon": 11.86667}], "Horgesti": [{"Name": "Horge\u015fti", "Country Code": "RO", "Population": 4665.0, "Lat": 46.43333, "Lon": 27.06667}], "Horgo": [{"Name": "Horgo", "Country Code": "MN", "Population": 0.0, "Lat": 48.16, "Lon": 99.87556}], "Horgues": [{"Name": "Horgues", "Country Code": "FR", "Population": 1040.0, "Lat": 43.18842, "Lon": 0.08808}], "Horhausen": [{"Name": "Horhausen", "Country Code": "DE", "Population": 1908.0, "Lat": 50.58745, "Lon": 7.53028}], "Horia": [{"Name": "Horia", "Country Code": "RO", "Population": 2205.0, "Lat": 46.20847, "Lon": 21.46287}, {"Name": "Horia", "Country Code": "RO", "Population": 3277.0, "Lat": 46.90698, "Lon": 26.91919}, {"Name": "Horia", "Country Code": "RO", "Population": 1588.0, "Lat": 45.01667, "Lon": 28.45}, {"Name": "Horia", "Country Code": "RO", "Population": 1249.0, "Lat": 44.63333, "Lon": 28.11667}], "Horice": [{"Name": "Ho\u0159ice", "Country Code": "CZ", "Population": 8899.0, "Lat": 50.36609, "Lon": 15.63183}], "Horicon": [{"Name": "Horicon", "Country Code": "US", "Population": 3689.0, "Lat": 43.45138, "Lon": -88.63121}], "Horinchovo": [{"Name": "Horinchovo", "Country Code": "UA", "Population": 2959.0, "Lat": 48.27044, "Lon": 23.4321}], "Horion-Hozemont": [{"Name": "Horion-Hoz\u00e9mont", "Country Code": "BE", "Population": 1925.0, "Lat": 50.62578, "Lon": 5.38819}], "Horishni Plavni": [{"Name": "Horishni Plavni", "Country Code": "UA", "Population": 49854.0, "Lat": 49.00835, "Lon": 33.62926}], "Horishni Sherivtsi": [{"Name": "Horishni Sherivtsi", "Country Code": "UA", "Population": 2793.0, "Lat": 48.39671, "Lon": 25.95269}], "Horitschon": [{"Name": "Horitschon", "Country Code": "AT", "Population": 1385.0, "Lat": 47.58729, "Lon": 16.54696}], "Horiult": [{"Name": "Horiult", "Country Code": "MN", "Population": 0.0, "Lat": 45.2, "Lon": 100.76667}], "Horizon City": [{"Name": "Horizon City", "Country Code": "US", "Population": 19288.0, "Lat": 31.69261, "Lon": -106.20748}], "Horizon West": [{"Name": "Horizon West", "Country Code": "US", "Population": 14000.0, "Lat": 28.43383, "Lon": -81.6227}], "Horizonte": [{"Name": "Horizonte", "Country Code": "BR", "Population": 51171.0, "Lat": -4.09802, "Lon": -38.486}], "Horizontina": [{"Name": "Horizontina", "Country Code": "BR", "Population": 14416.0, "Lat": -27.62583, "Lon": -54.30778}], "Horjul": [{"Name": "Horjul", "Country Code": "SI", "Population": 1329.0, "Lat": 46.02361, "Lon": 14.29917}], "Horka": [{"Name": "Horka", "Country Code": "DE", "Population": 2053.0, "Lat": 51.26342, "Lon": 14.25523}], "Horka nad Moravou": [{"Name": "Horka nad Moravou", "Country Code": "CZ", "Population": 2101.0, "Lat": 49.64009, "Lon": 17.2107}], "Horki": [{"Name": "Horki", "Country Code": "BY", "Population": 33897.0, "Lat": 54.2862, "Lon": 30.9863}], "Horlesti": [{"Name": "Horle\u015fti", "Country Code": "RO", "Population": 3112.0, "Lat": 47.11667, "Lon": 27.36667}], "Horley": [{"Name": "Horley", "Country Code": "GB", "Population": 21232.0, "Lat": 51.17423, "Lon": -0.15919}], "Horlivka": [{"Name": "Horlivka", "Country Code": "UA", "Population": 239828.0, "Lat": 48.33576, "Lon": 38.05325}], "Hormersdorf": [{"Name": "Hormersdorf", "Country Code": "DE", "Population": 1645.0, "Lat": 50.67406, "Lon": 12.88194}], "Hormigos": [{"Name": "Hormigos", "Country Code": "ES", "Population": 492.0, "Lat": 40.09778, "Lon": -4.44473}], "Hormiguero": [{"Name": "Hormiguero", "Country Code": "MX", "Population": 2069.0, "Lat": 25.68386, "Lon": -103.34121}], "Hormigueros": [{"Name": "Hormigueros", "Country Code": "PR", "Population": 11934.0, "Lat": 18.13968, "Lon": -67.1274}], "Hormilla": [{"Name": "Hormilla", "Country Code": "ES", "Population": 435.0, "Lat": 42.43828, "Lon": -2.77447}], "Hormilleja": [{"Name": "Hormilleja", "Country Code": "ES", "Population": 179.0, "Lat": 42.45628, "Lon": -2.73155}], "Horn": [{"Name": "Horn", "Country Code": "AT", "Population": 5494.0, "Lat": 48.66274, "Lon": 15.65663}, {"Name": "Horn", "Country Code": "CH", "Population": 2274.0, "Lat": 47.49425, "Lon": 9.46246}, {"Name": "Horn", "Country Code": "DE", "Population": 7018.0, "Lat": 51.87151, "Lon": 8.9451}, {"Name": "Horn", "Country Code": "DE", "Population": 37903.0, "Lat": 53.55406, "Lon": 10.08989}], "Horn Lake": [{"Name": "Horn Lake", "Country Code": "US", "Population": 26915.0, "Lat": 34.95537, "Lon": -90.03481}], "Hornachos": [{"Name": "Hornachos", "Country Code": "ES", "Population": 3799.0, "Lat": 38.55428, "Lon": -6.06829}], "Hornachuelos": [{"Name": "Hornachuelos", "Country Code": "ES", "Population": 4667.0, "Lat": 37.83333, "Lon": -5.23333}], "Hornaing": [{"Name": "Hornaing", "Country Code": "FR", "Population": 2998.0, "Lat": 50.36835, "Lon": 3.33707}], "Hornbach": [{"Name": "Hornbach", "Country Code": "DE", "Population": 1717.0, "Lat": 49.18778, "Lon": 7.36883}], "Hornbaek": [{"Name": "Hornb\u00e6k", "Country Code": "DK", "Population": 5334.0, "Lat": 56.09027, "Lon": 12.45693}], "Hornberg": [{"Name": "Hornberg", "Country Code": "DE", "Population": 4482.0, "Lat": 48.21068, "Lon": 8.23275}], "Hornburg": [{"Name": "Hornburg", "Country Code": "DE", "Population": 2689.0, "Lat": 52.03095, "Lon": 10.6049}], "Hornby Island": [{"Name": "Hornby Island", "Country Code": "CA", "Population": 1100.0, "Lat": 49.53448, "Lon": -124.66923}], "Horncastle": [{"Name": "Horncastle", "Country Code": "GB", "Population": 6815.0, "Lat": 53.20775, "Lon": -0.1172}], "Hornchurch": [{"Name": "Hornchurch", "Country Code": "GB", "Population": 25470.0, "Lat": 51.55685, "Lon": 0.21664}], "Horndal": [{"Name": "Horndal", "Country Code": "SE", "Population": 1120.0, "Lat": 60.3, "Lon": 16.41667}], "Horndon on the Hill": [{"Name": "Horndon on the Hill", "Country Code": "GB", "Population": 1596.0, "Lat": 51.52358, "Lon": 0.40491}], "Horneburg": [{"Name": "Horneburg", "Country Code": "DE", "Population": 5547.0, "Lat": 53.50672, "Lon": 9.57546}], "Hornell": [{"Name": "Hornell", "Country Code": "US", "Population": 8336.0, "Lat": 42.32785, "Lon": -77.6611}], "Hornepayne": [{"Name": "Hornepayne", "Country Code": "CA", "Population": 1050.0, "Lat": 49.21451, "Lon": -84.77617}], "Hornhausen": [{"Name": "Hornhausen", "Country Code": "DE", "Population": 1716.0, "Lat": 52.0451, "Lon": 11.17104}], "Horni Becva": [{"Name": "Horn\u00ed Be\u010dva", "Country Code": "CZ", "Population": 2420.0, "Lat": 49.43216, "Lon": 18.28859}], "Horni Benesov": [{"Name": "Horn\u00ed Bene\u0161ov", "Country Code": "CZ", "Population": 2460.0, "Lat": 49.96682, "Lon": 17.60262}], "Horni Bludovice": [{"Name": "Horn\u00ed Bludovice", "Country Code": "CZ", "Population": 1652.0, "Lat": 49.74965, "Lon": 18.43677}], "Horni Branna": [{"Name": "Horn\u00ed Brann\u00e1", "Country Code": "CZ", "Population": 1798.0, "Lat": 50.60826, "Lon": 15.57146}], "Horni Briza": [{"Name": "Horn\u00ed B\u0159\u00edza", "Country Code": "CZ", "Population": 4463.0, "Lat": 49.84012, "Lon": 13.35558}], "Horni Cerekev": [{"Name": "Horn\u00ed Cerekev", "Country Code": "CZ", "Population": 1866.0, "Lat": 49.32026, "Lon": 15.32769}], "Horni Cermna": [{"Name": "Horn\u00ed \u010cermn\u00e1", "Country Code": "CZ", "Population": 1016.0, "Lat": 49.97053, "Lon": 16.60772}], "Horni Jeleni": [{"Name": "Horn\u00ed Jelen\u00ed", "Country Code": "CZ", "Population": 1811.0, "Lat": 50.04901, "Lon": 16.08396}], "Horni Jiretin": [{"Name": "Horn\u00ed Ji\u0159et\u00edn", "Country Code": "CZ", "Population": 1963.0, "Lat": 50.57309, "Lon": 13.54717}], "Horni Lidec": [{"Name": "Horn\u00ed Lide\u010d", "Country Code": "CZ", "Population": 1379.0, "Lat": 49.18121, "Lon": 18.06099}], "Horni Mesto": [{"Name": "Horn\u00ed M\u011bsto", "Country Code": "CZ", "Population": 1009.0, "Lat": 49.90845, "Lon": 17.21112}], "Horni Mostenice": [{"Name": "Horn\u00ed Mo\u0161t\u011bnice", "Country Code": "CZ", "Population": 1581.0, "Lat": 49.41213, "Lon": 17.45879}], "Horni Plana": [{"Name": "Horn\u00ed Plan\u00e1", "Country Code": "CZ", "Population": 2278.0, "Lat": 48.76736, "Lon": 14.03257}], "Horni Pocaply": [{"Name": "Horn\u00ed Po\u010daply", "Country Code": "CZ", "Population": 1141.0, "Lat": 50.4244, "Lon": 14.38993}], "Horni Pocernice": [{"Name": "Horn\u00ed Po\u010dernice", "Country Code": "CZ", "Population": 14296.0, "Lat": 50.1121, "Lon": 14.61036}], "Horni Slavkov": [{"Name": "Horn\u00ed Slavkov", "Country Code": "CZ", "Population": 5818.0, "Lat": 50.13863, "Lon": 12.80758}], "Horni Sloupnice": [{"Name": "Horn\u00ed Sloupnice", "Country Code": "CZ", "Population": 1742.0, "Lat": 49.92138, "Lon": 16.33948}], "Horni Stepanov": [{"Name": "Horn\u00ed \u0160t\u011bp\u00e1nov", "Country Code": "CZ", "Population": 1002.0, "Lat": 49.54901, "Lon": 16.79078}], "Horni Stropnice": [{"Name": "Horn\u00ed Stropnice", "Country Code": "CZ", "Population": 1560.0, "Lat": 48.76124, "Lon": 14.73502}], "Horni Sucha": [{"Name": "Horn\u00ed Such\u00e1", "Country Code": "CZ", "Population": 4466.0, "Lat": 49.7978, "Lon": 18.48189}], "Horni Terlicko": [{"Name": "Horn\u00ed T\u011brlicko", "Country Code": "CZ", "Population": 4134.0, "Lat": 49.75177, "Lon": 18.4829}], "Hornillos de Cameros": [{"Name": "Hornillos de Cameros", "Country Code": "ES", "Population": 15.0, "Lat": 42.21001, "Lon": -2.4196}], "Hornillos de Cerrato": [{"Name": "Hornillos de Cerrato", "Country Code": "ES", "Population": 119.0, "Lat": 41.98772, "Lon": -4.27207}], "Hornillos del Camino": [{"Name": "Hornillos del Camino", "Country Code": "ES", "Population": 70.0, "Lat": 42.33863, "Lon": -3.9256}], "Hornindal": [{"Name": "Hornindal", "Country Code": "NO", "Population": 0.0, "Lat": 61.96921, "Lon": 6.52418}], "Horning": [{"Name": "H\u00f8rning", "Country Code": "DK", "Population": 8395.0, "Lat": 56.412, "Lon": 10.20018}, {"Name": "H\u00f8rning", "Country Code": "DK", "Population": 8395.0, "Lat": 56.08701, "Lon": 10.03716},